timestamp_ros,timestamp_sys (%Y%m%d%H%M%S.%f),latitude,longitude,depth,distance_to_ocean_floor,velX,velY,velZ,roll,pitch,yaw,navMode,acousticAltimeter,forwardStereo,battery_volts,altitudeUsed,cotsNumFound,cotsNumMaybe,missionState,errorState,storeData,storeImageData
1767642566.9384046,20260105154926.938330,18.187927333333334,-64.95988483333333,0.08680236971719502,0.2961379588377389,0.0,0.09259919999999999,-0.030058689499629643,2.25798536112606,-16.218303643655773,102.64034218458849,1,40.5,0.3204079866409302,16.7,40.5,0,0,1,0,1,0
1767642567.0399036,20260105154927.039830,18.187927333333334,-64.95988483333333,0.11632605810968427,0.2961379588377389,0.0,0.09259919999999999,0.02770453913546269,2.306890386843678,-16.81174996452927,102.24927273363787,1,40.5,0.3204079866409302,16.7,40.5,0,0,1,0,1,0
1767642567.1339397,20260105154927.133866,18.187927333333334,-64.95988483333333,0.11632605810968427,0.2961379588377389,0.0,0.09259919999999999,0.02770453913546269,2.383950743047891,-17.44893512493967,101.95990483579354,1,40.5,0.3204079866409302,16.7,40.5,0,0,1,0,1,0
1767642567.2310634,20260105154927.230989,18.187927333333334,-64.95988483333333,0.12338573834492014,0.2961379588377389,0.0,0.09259919999999999,0.029223449810151382,2.477525648796556,-18.052836761623617,101.80622552451807,1,40.5,0.3204079866409302,16.7,40.5,0,0,1,0,1,0
1767642567.335272,20260105154927.335198,18.187928,-64.95988533333335,0.12338573834492014,0.2961379588377389,-0.0413884334213889,0.22201424226483504,0.029223449810151382,2.3644635660476925,-18.44560010009407,101.86524034876392,1,40.5,0.3204079866409302,16.7,40.5,0,0,1,0,1,0
1767642567.434002,20260105154927.433928,18.187928,-64.95988533333335,0.1534539922021633,0.2961379588377389,-0.0413884334213889,0.22201424226483504,0.0725601462254144,1.8954661111146172,-18.36629645283221,102.15082432045506,1,40.5,0.3204079866409302,16.67,40.5,0,0,1,0,1,0
1767642567.5328574,20260105154927.532783,18.187928,-64.95988533333335,0.1534539922021633,0.2961379588377389,-0.0413884334213889,0.22201424226483504,0.0725601462254144,0.4566608482204305,-16.268271617943043,103.18333072609472,1,40.5,0.3204079866409302,16.67,40.5,0,0,1,0,1,0
1767642567.6577268,20260105154927.657653,18.187928,-64.95988533333335,0.1334925515773731,0.2961379588377389,-0.0413884334213889,0.22201424226483504,0.05847740848537268,0.4566608482204305,-16.268271617943043,103.18333072609472,1,37.61,0.3204079866409302,16.67,0.2961379588377389,0,0,1,0,1,0
1767642567.7304556,20260105154927.730382,18.187928,-64.95988533333335,0.1334925515773731,0.2961379588377389,-0.0413884334213889,0.22201424226483504,0.05847740848537268,-0.39467397785224445,-14.740962226241821,103.78852668408916,1,37.61,0.3204079866409302,16.67,0.2961379588377389,0,0,1,0,1,0
1767642567.8307035,20260105154927.830629,18.1879295,-64.95988583333333,0.11379162113517366,0.2961379588377389,-0.10031152576430638,0.35976030597200476,0.027084197227152385,-1.1740308573324258,-13.182165651208157,104.50557385992573,1,37.61,0.3204079866409302,16.67,0.2961379588377389,0,0,1,0,1,0
1767642567.9376855,20260105154927.937611,18.1879295,-64.95988583333333,0.11379162113517366,0.2961379588377389,-0.10031152576430638,0.35976030597200476,0.027084197227152385,-1.7453902595233188,-11.771360545384876,105.38916842803523,1,37.61,0.3204079866409302,16.67,0.2961379588377389,0,0,1,0,1,0
1767642568.033098,20260105154928.033024,18.1879295,-64.95988583333333,0.11742246068013681,0.2961379588377389,-0.10031152576430638,0.35976030597200476,0.0010797728985130254,-2.1048614298060593,-10.395711289563772,106.48544150256684,1,37.61,0.3204079866409302,16.56,0.2961379588377389,0,0,1,0,1,0
1767642568.1308196,20260105154928.130745,18.1879295,-64.95988583333333,0.11742246068013681,0.2961379588377389,-0.10031152576430638,0.35976030597200476,0.0010797728985130254,-2.176487087921801,-9.002154125109309,107.77765911407039,1,37.61,0.3204079866409302,16.56,0.2961379588377389,0,0,1,0,1,0
1767642568.2313466,20260105154928.231272,18.1879295,-64.95988583333333,0.11919771544492996,0.2961379588377389,-0.10031152576430638,0.35976030597200476,-0.04282842821930854,-1.9343785665035287,-7.552567191311709,109.19108530592487,1,37.84,0.3204079866409302,16.56,0.2961379588377389,0,0,1,0,1,0
1767642568.3320434,20260105154928.331969,18.187930833333333,-64.9598855,0.11919771544492996,0.2961379588377389,-0.0022464489042415573,0.35752874254940764,-0.04282842821930854,-1.5257123008031437,-6.062835806313151,110.66490405201483,1,37.84,0.3204079866409302,16.56,0.2961379588377389,0,0,1,0,1,0
1767642568.431251,20260105154928.431177,18.187930833333333,-64.9598855,0.06529707824729533,0.2961379588377389,-0.0022464489042415573,0.35752874254940764,-0.0882517868330533,-1.060459711864966,-4.618759556485706,112.15527918257283,1,37.84,0.3204079866409302,16.56,0.2961379588377389,0,0,1,0,1,0
1767642568.538783,20260105154928.538709,18.187930833333333,-64.9598855,0.06529707824729533,0.2961379588377389,-0.0022464489042415573,0.35752874254940764,-0.0882517868330533,-0.5844398594588072,-3.37485146336853,113.63103770308066,1,37.84,0.3204079866409302,16.56,0.2961379588377389,0,0,1,0,1,0
1767642568.6318443,20260105154928.631770,18.187930833333333,-64.9598855,0.015107556498242851,0.2961379588377389,-0.0022464489042415573,0.35752874254940764,-0.12347009942564324,-0.16333122579753664,-2.469540301027889,115.11135879158545,1,37.84,0.3204079866409302,16.56,0.2961379588377389,0,0,1,0,1,0
1767642568.7445252,20260105154928.744451,18.187930833333333,-64.9598855,0.015107556498242851,0.2961379588377389,-0.0022464489042415573,0.35752874254940764,-0.12347009942564324,0.1054951375773153,-1.983436631201948,116.65078835830259,1,37.84,0.3204079866409302,16.56,0.2961379588377389,0,0,1,0,1,0
1767642568.8318658,20260105154928.831792,18.187930833333333,-64.9598855,0.02220731623339372,0.2961379588377389,-0.0022464489042415573,0.35752874254940764,-0.11914623375253529,0.2522697654632828,-1.9181850359648411,118.28921472224758,1,40.18,0.3204079866409302,16.56,40.18,0,0,1,0,1,0
1767642568.9307303,20260105154928.930656,18.187932,-64.95988466666667,0.02220731623339372,0.2961379588377389,0.08550853925139788,0.3211391424547773,-0.11914623375253529,0.38129453961867593,-2.209906148263062,120.0611440114455,1,40.18,0.3204079866409302,16.56,40.18,0,0,1,0,1,0
1767642569.0513933,20260105154929.051319,18.187932,-64.95988466666667,-0.001598750980048129,0.2961379588377389,0.08550853925139788,0.3211391424547773,-0.15112826284360276,0.5600127463750522,-2.74052174993902,121.98656136655379,1,40.18,0.3204079866409302,16.56,40.18,0,0,1,0,1,0
1767642569.1303089,20260105154929.130235,18.187932,-64.95988466666667,-0.001598750980048129,0.2961379588377389,0.08550853925139788,0.3211391424547773,-0.15112826284360276,0.8725950781267119,-3.367018727693703,124.07903154811427,1,40.18,0.3204079866409302,16.56,40.18,0,0,1,0,1,0
1767642569.230135,20260105154929.230061,18.187932,-64.95988466666667,0.011089407828331753,0.2961379588377389,0.08550853925139788,0.3211391424547773,-0.10820801956169863,1.2583545887075342,-3.9827018045782996,126.34071289667652,1,40.18,0.3204079866409302,16.56,40.18,0,0,1,0,1,0
1767642569.3452396,20260105154929.345166,18.187932999999997,-64.959884,0.011089407828331753,0.2961379588377389,0.09753340468706204,0.26943305600099665,-0.10820801956169863,1.4664360560093053,-4.51075672473013,128.7115407072024,1,40.18,0.3204079866409302,16.56,40.18,0,0,1,0,1,0
1767642569.448951,20260105154929.448877,18.187932999999997,-64.959884,0.027355773853409197,0.2961379588377389,0.09753340468706204,0.26943305600099665,0.009251059153559402,1.3629886418938615,-4.91964358427524,131.20286675815152,1,39.81,0.3204079866409302,16.56,39.81,0,0,1,0,1,0
1767642569.531653,20260105154929.531579,18.187932999999997,-64.959884,0.027355773853409197,0.2961379588377389,0.09753340468706204,0.26943305600099665,0.009251059153559402,0.8606291160307805,-5.214978508266802,133.81605708784625,1,39.81,0.3204079866409302,16.56,39.81,0,0,1,0,1,0
1767642569.6389883,20260105154929.638914,18.187932999999997,-64.959884,0.0341844137494795,0.2961379588377389,0.09753340468706204,0.26943305600099665,0.01924677609675076,0.06955056052654822,-5.482354896667596,136.63867475275563,1,39.81,0.3204079866409302,16.56,39.81,0,0,1,0,1,0
1767642569.7362995,20260105154929.736225,18.187932999999997,-64.959884,0.0341844137494795,0.2961379588377389,0.09753340468706204,0.26943305600099665,0.01924677609675076,-0.8263713295038788,-5.841657126429675,139.7686237194495,1,39.81,0.3204079866409302,16.56,39.81,0,0,1,0,1,0
1767642569.838315,20260105154929.838241,18.187932999999997,-64.959884,0.012078414779182131,0.2961379588377389,0.09753340468706204,0.26943305600099665,0.01736049253026892,-1.7288799788486215,-6.388873295375702,143.23766437892482,1,39.81,0.3204079866409302,16.45,39.81,0,0,1,0,1,0
1767642569.9305785,20260105154929.930504,18.187934166666665,-64.95988316666667,0.012078414779182131,0.2961379588377389,0.11720553707555552,0.25921951966303197,0.01736049253026892,-2.451024078454078,-7.146118710172177,146.94533827294873,1,39.81,0.3204079866409302,16.45,39.81,0,0,1,0,1,0
1767642570.0322306,20260105154930.032157,18.187934166666665,-64.95988316666667,0.03649978884406102,0.2961379588377389,0.11720553707555552,0.25921951966303197,0.023930849283108555,-2.866680084773898,-7.991691309124227,150.70438886827992,1,39.81,0.3204079866409302,16.45,39.81,0,0,1,0,1,0
1767642570.1329374,20260105154930.132863,18.187934166666665,-64.95988316666667,0.03649978884406102,0.2961379588377389,0.11720553707555552,0.25921951966303197,0.023930849283108555,-3.1384751802608375,-8.730333843290808,154.24293355760145,1,39.74,0.3204079866409302,16.45,39.74,0,0,1,0,1,0
1767642570.2414951,20260105154930.241421,18.187934166666665,-64.95988316666667,0.0602832492935077,0.2961379588377389,0.11720553707555552,0.25921951966303197,0.05644515680775118,-3.516892555023729,-9.220925162449479,157.36639384226368,1,39.74,0.3204079866409302,16.45,39.74,0,0,1,0,1,0
1767642570.3343503,20260105154930.334276,18.187934833333333,-64.95988133333334,0.0602832492935077,0.2961379588377389,0.3259195831470712,0.2269420742185586,0.05644515680775118,-4.168341716842355,-9.41254191926122,159.9669351791166,1,39.74,0.3204079866409302,16.45,39.74,0,0,1,0,1,0
1767642570.4422193,20260105154930.442145,18.187934833333333,-64.95988133333334,0.07793454765224392,0.2961379588377389,0.3259195831470712,0.2269420742185586,0.06263223687538462,-5.061866102895142,-9.371080094853045,162.03235780189266,1,39.74,0.3204079866409302,15.86,39.74,0,0,1,0,1,0
1767642570.5334315,20260105154930.533357,18.187934833333333,-64.95988133333334,0.07793454765224392,0.2961379588377389,0.3259195831470712,0.2269420742185586,0.06263223687538462,-6.2719109597727645,-9.26213939241171,163.60235930626618,1,39.74,0.3204079866409302,15.86,39.74,0,0,1,0,1,0
1767642570.6533797,20260105154930.653306,18.187934833333333,-64.95988133333334,0.08261536184740917,0.2961379588377389,0.3259195831470712,0.2269420742185586,0.05547428416455795,-7.865313127496836,-9.196336472645404,164.641327073171,1,39.74,0.3204079866409302,15.86,39.74,0,0,1,0,1,0
1767642570.7314148,20260105154930.731341,18.187934833333333,-64.95988133333334,0.08261536184740917,0.2961379588377389,0.3259195831470712,0.2269420742185586,0.05547428416455795,-9.413855023598673,-9.107756571400166,165.13643400275936,1,39.74,0.45386773347854614,15.86,39.74,0,0,1,0,1,0
1767642570.840286,20260105154930.840212,18.187934833333333,-64.95988133333334,0.07626300240150445,0.2961379588377389,0.3259195831470712,0.2269420742185586,0.07120738788104237,-10.70909414111674,-8.815852964919808,165.07830907213912,1,39.74,0.45386773347854614,15.86,39.74,0,0,1,0,1,0
1767642570.930486,20260105154930.930412,18.187933833333332,-64.95987866666665,0.07626300240150445,0.2961379588377389,0.6395375418579847,-0.14330521070107702,0.07120738788104237,-11.402521660584211,-8.251077227112651,164.44717204640136,1,39.74,0.45386773347854614,15.86,39.74,0,0,1,0,1,0
1767642571.0300941,20260105154931.030020,18.187933833333332,-64.95987866666665,0.0914329354838045,0.2961379588377389,0.6395375418579847,-0.14330521070107702,0.06844007209328125,-11.029458302271365,-7.43901269443631,163.30673495290503,1,39.74,0.45386773347854614,16.2,39.74,0,0,1,0,1,0
1767642571.144775,20260105154931.144701,18.187933833333332,-64.95987866666665,0.0914329354838045,0.2961379588377389,0.6395375418579847,-0.14330521070107702,0.06844007209328125,-10.01722219778895,-6.5723049213141165,161.83395439594017,1,39.74,0.43655622005462646,16.2,39.74,0,0,1,0,1,0
1767642571.2415721,20260105154931.241498,18.187933833333332,-64.95987866666665,0.10213128932823637,0.2961379588377389,0.6395375418579847,-0.14330521070107702,0.030266323759112895,-8.530974210512635,-5.81667399305999,160.04251807949765,1,39.74,0.36115971207618713,16.2,39.74,0,0,1,0,1,0
1767642571.3343322,20260105154931.334258,18.1879305,-64.95987633333334,0.10213128932823637,0.2961379588377389,0.6301229347552078,-0.6686702155642271,0.030266323759112895,-6.8717614390566935,-5.232186322259902,158.0882499950193,1,39.74,0.36115971207618713,16.2,39.74,0,0,1,0,1,0
1767642571.438576,20260105154931.438502,18.1879305,-64.95987633333334,0.12805363468633876,0.2961379588377389,0.6301229347552078,-0.6686702155642271,0.05016041112599712,-5.134346388736369,-4.918416711106897,156.09394332730997,1,39.74,0.36115971207618713,16.2,39.74,0,0,1,0,1,0
1767642571.5339365,20260105154931.533862,18.1879305,-64.95987633333334,0.12805363468633876,0.2961379588377389,0.6301229347552078,-0.6686702155642271,0.05016041112599712,-1.891907581284641,-4.712728052026031,152.72836641037688,1,39.74,0.36115971207618713,16.2,39.74,0,0,1,0,1,0
1767642571.6412952,20260105154931.641221,18.1879305,-64.95987633333334,0.13374622751942034,0.2961379588377389,0.6301229347552078,-0.6686702155642271,0.07187347017908172,-1.891907581284641,-4.712728052026031,152.72836641037688,1,39.74,0.36115971207618713,16.31,39.74,0,0,1,0,1,0
1767642571.7313201,20260105154931.731246,18.1879305,-64.95987633333334,0.13374622751942034,0.2961379588377389,0.6301229347552078,-0.6686702155642271,0.07187347017908172,-0.8443991933774205,-4.624914839789269,151.63354133646712,1,39.74,0.36115971207618713,16.31,39.74,0,0,1,0,1,0
1767642571.8398085,20260105154931.839734,18.1879265,-64.95987416666667,0.15174622751942102,0.2961379588377389,0.6236556391548929,-0.7877045043415993,0.07542175230933074,0.08762660926748027,-4.402884093502162,150.68286062634218,1,39.74,0.36115971207618713,16.31,39.74,0,0,1,0,1,0
1767642571.9319782,20260105154931.931904,18.1879265,-64.95987416666667,0.15174622751942102,0.2961379588377389,0.6236556391548929,-0.7877045043415993,0.07542175230933074,0.391283881614636,-4.117876419228314,150.1361174481653,1,39.74,0.36115971207618713,16.31,39.74,0,0,1,0,1,0
1767642572.0329597,20260105154932.032886,18.1879265,-64.95987416666667,0.14764530275007784,0.2961379588377389,0.6236556391548929,-0.7877045043415993,0.058497276017334766,0.33424719261741204,-3.8259092065885647,149.76514242093788,1,39.74,0.36115971207618713,16.31,39.74,0,0,1,0,1,0
1767642572.1455765,20260105154932.145502,18.1879265,-64.95987416666667,0.14764530275007784,0.2961379588377389,0.6236556391548929,-0.7877045043415993,0.058497276017334766,-0.049821712137200165,-3.625929733921587,149.53881719167458,1,39.74,0.36115971207618713,16.31,39.74,0,0,1,0,1,0
1767642572.2509923,20260105154932.250918,18.1879265,-64.95987416666667,0.15323679770162024,0.2961379588377389,0.6236556391548929,-0.7877045043415993,0.05676097963598814,-0.5886539809618146,-3.5569708387434464,149.4868530938886,1,39.74,0.36115971207618713,16.39,39.74,0,0,1,0,1,0
1767642572.331963,20260105154932.331889,18.187923666666666,-64.95987183333334,0.15323679770162024,0.2961379588377389,0.49991880358199514,-0.5851228910563696,0.05676097963598814,-1.090606043206528,-3.54240204003453,149.64881059739812,1,39.74,0.36115971207618713,16.39,39.74,0,0,1,0,1,0
1767642572.4362226,20260105154932.436148,18.187923666666666,-64.95987183333334,0.16175701232741543,0.2961379588377389,0.49991880358199514,-0.5851228910563696,0.04207712043041306,-1.472660068115965,-3.5869054341450326,149.95653805029616,1,39.74,0.36115971207618713,16.39,39.74,0,0,1,0,1,0
1767642572.5886047,20260105154932.588531,18.187923666666666,-64.95987183333334,0.16175701232741543,0.2961379588377389,0.49991880358199514,-0.5851228910563696,0.04207712043041306,-1.679945711373166,-3.53344445717856,150.41246700079665,1,39.74,0.36115971207618713,16.39,39.74,0,0,1,0,1,0
1767642572.6546016,20260105154932.654527,18.187923666666666,-64.95987183333334,0.16195630339984066,0.2961379588377389,0.49991880358199514,-0.5851228910563696,0.0338610208036026,-1.7889374268081033,-3.3461360571697325,150.91215015876517,1,39.74,0.33108875155448914,16.39,39.74,0,0,1,0,1,0
1767642572.7344139,20260105154932.734340,18.187923666666666,-64.95987183333334,0.16195630339984066,0.2961379588377389,0.49991880358199514,-0.5851228910563696,0.0338610208036026,-1.8385633579060439,-3.0664420585267216,151.5395715602659,1,39.59,0.33108875155448914,16.39,39.59,0,0,1,0,1,0
1767642572.832666,20260105154932.832592,18.187924333333335,-64.95987133333333,0.16428140869769067,0.2961379588377389,0.0,0.22429584,0.018162558906026895,-1.7849483814630662,-2.685977547271548,152.24646907136665,1,39.59,0.33108875155448914,16.53,39.59,0,0,1,0,1,0
1767642572.9344954,20260105154932.934421,18.187924333333335,-64.95987133333333,0.16428140869769067,0.2961379588377389,0.0,0.22429584,0.018162558906026895,-1.823723912854493,-2.161575072084366,152.93793034942374,1,39.59,0.33108875155448914,16.53,39.59,0,0,1,0,1,0
1767642573.0548859,20260105154933.054812,18.187924333333335,-64.95987133333333,0.12469728707574526,0.2961379588377389,0.0,0.22429584,-0.018563463443488033,-1.76409943501018,-1.5056126477144638,153.60566354181992,1,39.59,0.33108875155448914,16.53,39.59,0,0,1,0,1,0
1767642573.1332846,20260105154933.133210,18.187924333333335,-64.95987133333333,0.12469728707574526,0.2961379588377389,0.0,0.22429584,-0.018563463443488033,-1.4821444295000283,-0.6485662873495355,154.2506521961473,1,39.59,0.33108875155448914,16.53,39.59,0,0,1,0,1,0
1767642573.2339423,20260105154933.233868,18.187924333333335,-64.95987133333333,0.11051579023086773,0.2961379588377389,0.0,0.22429584,-0.05920412395501426,-1.0773800174798809,0.3097947597999138,154.79728609125837,1,39.59,0.33108875155448914,16.53,39.59,0,0,1,0,1,0
1767642573.3326988,20260105154933.332625,18.187922166666667,-64.959868,0.11051579023086773,0.2961379588377389,0.5484731164850032,-0.619936084633335,-0.05920412395501426,-0.5962706051051616,1.2893495713569232,155.24674417521223,1,39.59,0.33108875155448914,16.53,39.59,0,0,1,0,1,0
1767642573.431717,20260105154933.431643,18.187922166666667,-64.959868,0.07499018498783401,0.2961379588377389,0.5484731164850032,-0.619936084633335,-0.1303172905414728,-0.13159842237140967,2.2506296716466556,155.65759386107192,1,39.77,0.33108875155448914,16.34,39.77,0,0,1,0,1,0
1767642573.5384066,20260105154933.538332,18.187922166666667,-64.959868,0.07499018498783401,0.2961379588377389,0.5484731164850032,-0.619936084633335,-0.1303172905414728,1.220750648621097,3.8095163198322073,156.49941497728094,1,39.77,0.33108875155448914,16.34,39.77,0,0,1,0,1,0
1767642573.6515732,20260105154933.651499,18.187922166666667,-64.959868,0.06326846585107926,0.2961379588377389,0.5484731164850032,-0.619936084633335,-0.14791138745053373,1.220750648621097,3.8095163198322073,156.49941497728094,1,39.77,0.49505072832107544,16.34,39.77,0,0,1,0,1,0
1767642573.7316988,20260105154933.731625,18.187922166666667,-64.959868,0.06326846585107926,0.2961379588377389,0.5484731164850032,-0.619936084633335,-0.14791138745053373,1.912660051281004,4.167519105640054,157.03226554571853,1,39.77,0.49505072832107544,16.34,39.77,0,0,1,0,1,0
1767642573.8313935,20260105154933.831319,18.187920666666667,-64.95986549999999,0.014834891971342147,0.2961379588377389,0.5372502766497155,-0.3930637845924421,-0.14028574926632997,3.176179972395301,3.3864382431082443,158.05683526870476,1,39.77,0.5087551474571228,16.34,39.77,0,0,1,0,1,0
1767642573.9450345,20260105154933.944960,18.187920666666667,-64.95986549999999,0.014834891971342147,0.2961379588377389,0.5372502766497155,-0.3930637845924421,-0.14028574926632997,3.176179972395301,3.3864382431082443,158.05683526870476,1,39.77,0.37133949995040894,16.34,39.77,0,0,1,0,1,0
1767642574.0316114,20260105154934.031537,18.187920666666667,-64.95986549999999,0.007273584163243352,0.2961379588377389,0.5372502766497155,-0.3930637845924421,-0.1444428665138205,3.5444609159186484,2.1287261192992335,158.54892325360044,1,39.85,0.3916706144809723,16.59,39.85,0,0,1,0,1,0
1767642574.1315358,20260105154934.131462,18.187920666666667,-64.95986549999999,0.007273584163243352,0.2961379588377389,0.5372502766497155,-0.3930637845924421,-0.1444428665138205,3.518735426098108,0.42701546874493396,159.0680314765142,1,39.85,0.43554243445396423,16.59,39.85,0,0,1,0,1,0
1767642574.2328074,20260105154934.232733,18.187920666666667,-64.95986549999999,0.007064062514760577,0.2961379588377389,0.5372502766497155,-0.3930637845924421,-0.11576400233110413,3.0091211695253843,-1.4496065705984829,159.65332425615057,1,39.85,0.43554243445396423,16.59,39.85,0,0,1,0,1,0
1767642574.3460238,20260105154934.345950,18.18791816666667,-64.95986216666667,0.007064062514760577,0.2961379588377389,0.6464865560779735,-0.4516665733571078,-0.11576400233110413,2.25069861389324,-3.3929875430904324,160.37310350863203,1,39.85,0.4316791892051697,16.59,39.85,0,0,1,0,1,0
1767642574.432298,20260105154934.432224,18.18791816666667,-64.95986216666667,0.028068127595316135,0.2961379588377389,0.6464865560779735,-0.4516665733571078,-0.038049452665006325,1.3646810353092849,-5.227502518361806,161.17645698568091,1,39.85,0.3128628134727478,16.59,39.85,0,0,1,0,1,0
1767642574.5311697,20260105154934.531096,18.18791816666667,-64.95986216666667,0.028068127595316135,0.2961379588377389,0.6464865560779735,-0.4516665733571078,-0.038049452665006325,0.5210257992088799,-6.850586564397811,162.0037024729894,1,39.85,0.3128628134727478,16.59,39.85,0,0,1,0,1,0
1767642574.6317267,20260105154934.631653,18.18791816666667,-64.95986216666667,0.0824968144441637,0.2961379588377389,0.6464865560779735,-0.4516665733571078,0.07691264609060583,-0.1767262987665831,-8.088926770690081,162.7729186523603,1,40.07,0.3128628134727478,16.34,40.07,0,0,1,0,1,0
1767642574.7557712,20260105154934.755697,18.18791816666667,-64.95986216666667,0.0824968144441637,0.2961379588377389,0.6464865560779735,-0.4516665733571078,0.07691264609060583,-0.9776915566295381,-8.751744786447286,163.4020749225305,1,40.07,0.3621188700199127,16.34,40.07,0,0,1,0,1,0
1767642574.8417585,20260105154934.841684,18.187915666666665,-64.95985999999999,0.09098532227327184,0.2961379588377389,0.5965556418588314,-0.5007470723291982,0.07002635096447021,-2.1260725898578765,-8.788827604258062,163.72745159055455,1,40.07,0.3411891758441925,16.34,40.07,0,0,1,0,1,0
1767642574.9322677,20260105154934.932194,18.187915666666665,-64.95985999999999,0.09098532227327184,0.2961379588377389,0.5965556418588314,-0.5007470723291982,0.07002635096447021,-3.5848179568335423,-8.199643322950603,163.8102061921285,1,40.07,0.3411891758441925,16.34,40.07,0,0,1,0,1,0
1767642575.0310485,20260105154935.030974,18.187915666666665,-64.95985999999999,0.11774456883727237,0.2961379588377389,0.5965556418588314,-0.5007470723291982,0.11043721216314954,-4.892257931005953,-7.238099193066357,163.73592102815374,1,40.07,0.3411891758441925,16.34,40.07,0,0,1,0,1,0
1767642575.1350446,20260105154935.134970,18.187915666666665,-64.95985999999999,0.11774456883727237,0.2961379588377389,0.5965556418588314,-0.5007470723291982,0.11043721216314954,-5.801171592535079,-6.128024008834361,163.56609514390695,1,40.07,0.3411891758441925,16.34,40.07,0,0,1,0,1,0
1767642575.2311277,20260105154935.231054,18.187915666666665,-64.95985999999999,0.1133759579029209,0.2961379588377389,0.5965556418588314,-0.5007470723291982,0.10658147834828798,-6.350554212883117,-5.038669064632059,163.41691009871232,1,39.64,0.3411891758441925,16.45,39.64,0,0,1,0,1,0
1767642575.3305428,20260105154935.330469,18.187913166666664,-64.95985766666666,0.1133759579029209,0.2961379588377389,0.5342413724478445,-0.524264890555417,0.10658147834828798,-6.471193752895297,-4.057638824965059,163.22697613035905,1,39.64,0.3411891758441925,16.45,39.64,0,0,1,0,1,0
1767642575.4306052,20260105154935.430531,18.187913166666664,-64.95985766666666,0.1278319037811212,0.2961379588377389,0.5342413724478445,-0.524264890555417,0.05675082370001189,-6.393429460068044,-3.1527748267315316,163.03258887707457,1,39.64,0.3411891758441925,16.45,39.64,0,0,1,0,1,0
1767642575.5314846,20260105154935.531410,18.187913166666664,-64.95985766666666,0.1278319037811212,0.2961379588377389,0.5342413724478445,-0.524264890555417,0.05675082370001189,-6.142898458617928,-2.3575689145021137,162.80568991171583,1,39.64,0.3411891758441925,16.45,39.64,0,0,1,0,1,0
1767642575.6355288,20260105154935.635455,18.187913166666664,-64.95985766666666,0.14076770324167284,0.2961379588377389,0.5342413724478445,-0.524264890555417,0.05833751225663071,-5.74338689083457,-1.6748784562490882,162.56234384495482,1,39.64,0.3411891758441925,16.45,39.64,0,0,1,0,1,0
1767642575.7344546,20260105154935.734381,18.187913166666664,-64.95985766666666,0.14076770324167284,0.2961379588377389,0.5342413724478445,-0.524264890555417,0.05833751225663071,-5.206979500114918,-1.0994418565526596,162.339638617246,1,39.64,0.3411891758441925,16.45,39.64,0,0,1,0,1,0
1767642575.8306284,20260105154935.830554,18.187911,-64.9598555,0.10852783790883921,0.2961379588377389,0.4032807833106433,-0.49359102570701147,0.017617054953121748,-4.666910699804125,-0.6336330338850606,162.22188611385093,1,40.08,0.3411891758441925,16.48,40.08,0,0,1,0,1,0
1767642575.9488008,20260105154935.948727,18.187911,-64.9598555,0.10852783790883921,0.2961379588377389,0.4032807833106433,-0.49359102570701147,0.017617054953121748,-4.091050841671229,-0.17157249230816862,162.20903169323668,1,40.08,0.3411891758441925,16.48,40.08,0,0,1,0,1,0
1767642576.0315711,20260105154936.031497,18.187911,-64.9598555,0.11032220922906852,0.2961379588377389,0.4032807833106433,-0.49359102570701147,-0.0037577491557119944,-3.687687899592518,0.3586254004620021,162.27114545575841,1,40.08,0.3411891758441925,16.48,40.08,0,0,1,0,1,0
1767642576.1318521,20260105154936.131778,18.187911,-64.9598555,0.11032220922906852,0.2961379588377389,0.4032807833106433,-0.49359102570701147,-0.0037577491557119944,-3.20865753351152,0.9673931217826914,162.39403426324597,1,40.08,0.3411891758441925,16.48,40.08,0,0,1,0,1,0
1767642576.2381277,20260105154936.238054,18.187911,-64.9598555,0.08543363710726778,0.2961379588377389,0.4032807833106433,-0.49359102570701147,-0.02791409586428222,-2.674352988034487,1.5480546046189978,162.6247581359075,1,40.08,0.3411891758441925,16.48,40.08,0,0,1,0,1,0
1767642576.3480077,20260105154936.347934,18.187908,-64.9598535,0.08543363710726778,0.2961379588377389,0.3575772256401447,-0.5189187830715873,-0.02791409586428222,-2.0946114466309553,1.9139787051491448,162.9019875140616,1,40.08,0.3411891758441925,16.48,40.08,0,0,1,0,1,0
1767642576.437233,20260105154936.437159,18.187908,-64.9598535,0.04860362689031769,0.2961379588377389,0.3575772256401447,-0.5189187830715873,-0.11514232626119263,-1.396550175763294,1.966221773573757,163.1759464996287,1,40.08,0.3411891758441925,16.51,40.08,0,0,1,0,1,0
1767642576.5371675,20260105154936.537093,18.187908,-64.9598535,0.04860362689031769,0.2961379588377389,0.3575772256401447,-0.5189187830715873,-0.11514232626119263,0.10853489300999788,0.8264070812880993,163.92372953772036,1,39.98,0.3411891758441925,16.51,39.98,0,0,1,0,1,0
1767642576.6309202,20260105154936.630846,18.187908,-64.9598535,0.026249312368510788,0.2961379588377389,0.3575772256401447,-0.5189187830715873,-0.11449976764149619,0.10853489300999788,0.8264070812880993,163.92372953772036,1,39.98,0.38819247484207153,16.51,39.98,0,0,1,0,1,0
1767642576.7305954,20260105154936.730521,18.187908,-64.9598535,0.026249312368510788,0.2961379588377389,0.3575772256401447,-0.5189187830715873,-0.11449976764149619,0.8542691404223443,-0.27341064924672226,164.53936202849832,1,39.98,0.38819247484207153,16.51,39.98,0,0,1,0,1,0
1767642576.833631,20260105154936.833557,18.187905,-64.95985166666667,0.029227617957330147,0.2961379588377389,0.39261335609714,-0.5559466887886956,-0.0792979633759513,1.2415781440034508,-1.5272675567775964,165.25382739190547,1,39.98,0.38819247484207153,16.51,39.98,0,0,1,0,1,0
1767642576.931161,20260105154936.931087,18.187905,-64.95985166666667,0.029227617957330147,0.2961379588377389,0.39261335609714,-0.5559466887886956,-0.0792979633759513,1.0302905420701947,-2.6896684120640155,166.0066237906405,1,39.98,0.38819247484207153,16.51,39.98,0,0,1,0,1,0
1767642577.0342033,20260105154937.034129,18.187905,-64.95985166666667,0.04164337436188812,0.2961379588377389,0.39261335609714,-0.5559466887886956,-0.05474003087162668,0.4117306471754794,-3.6624904689610003,-193.15345602360276,1,39.98,0.38819247484207153,16.45,39.98,0,0,1,0,1,0
1767642577.1348152,20260105154937.134741,18.187905,-64.95985166666667,0.04164337436188812,0.2961379588377389,0.39261335609714,-0.5559466887886956,-0.05474003087162668,-0.7622124582029881,-4.3302159773916005,-192.24315540628942,1,40.02,0.3174726963043213,16.45,40.02,0,0,1,0,1,0
1767642577.2398262,20260105154937.239752,18.187905,-64.95985166666667,0.04129565649816226,0.2961379588377389,0.39261335609714,-0.5559466887886956,-0.009204791398629484,-2.68697560902089,-4.676405946806074,-191.35602279892473,1,40.02,0.3320959806442261,16.45,40.02,0,0,1,0,1,0
1767642577.35091,20260105154937.350836,18.187902833333332,-64.95985049999999,0.04129565649816226,0.2961379588377389,0.35401572191598923,-0.4937552978080849,-0.009204791398629484,-4.768486321252584,-4.862552573910355,-190.52325851679356,1,40.02,0.3320959806442261,16.45,40.02,0,0,1,0,1,0
1767642577.436695,20260105154937.436621,18.187902833333332,-64.95985049999999,0.03711260721349212,0.2961379588377389,0.35401572191598923,-0.4937552978080849,-0.0115541394904209,-6.799476667450369,-5.0740170137733225,-189.7722379678777,1,40.02,0.3320959806442261,16.45,40.02,0,0,1,0,1,0
1767642577.5329762,20260105154937.532902,18.187902833333332,-64.95985049999999,0.03711260721349212,0.2961379588377389,0.35401572191598923,-0.4937552978080849,-0.0115541394904209,-8.393600274163486,-5.519260129496455,-189.0835770683816,1,40.02,0.3320959806442261,16.45,40.02,0,0,1,0,1,0
1767642577.647217,20260105154937.647143,18.187902833333332,-64.95985049999999,0.05890570990181914,0.2961379588377389,0.35401572191598923,-0.4937552978080849,0.028680601754143213,-9.7031469355613,-6.115964451768995,-188.46242578278097,1,40.02,0.3320959806442261,16.37,40.02,0,0,1,0,1,0
1767642577.7306826,20260105154937.730608,18.187902833333332,-64.95985049999999,0.05890570990181914,0.2961379588377389,0.35401572191598923,-0.4937552978080849,0.028680601754143213,-10.447041033303737,-6.664737904402616,-187.91514984965832,1,39.95,0.3320959806442261,16.37,39.95,0,0,1,0,1,0
1767642577.8324149,20260105154937.832341,18.187901,-64.959849,0.04403083595975183,0.2961379588377389,0.350315189568191,-0.4850099414952655,-0.020286747238313602,-10.617333078128096,-6.988000628122688,-187.53153896794828,1,39.95,0.3320959806442261,16.37,39.95,0,0,1,0,1,0
1767642577.9567926,20260105154937.956718,18.187901,-64.959849,0.04403083595975183,0.2961379588377389,0.350315189568191,-0.4850099414952655,-0.020286747238313602,-10.282767241063716,-6.94409274134338,-187.29237297845393,1,39.95,0.3320959806442261,16.37,39.95,0,0,1,0,1,0
1767642578.0322552,20260105154938.032181,18.187901,-64.959849,0.05943711214321329,0.2961379588377389,0.350315189568191,-0.4850099414952655,-0.005954769150882845,-8.639632313776016,-6.094050635755062,-186.90467764215978,1,39.95,0.3320959806442261,16.37,39.95,0,0,1,0,1,0
1767642578.142801,20260105154938.142727,18.187901,-64.959849,0.05943711214321329,0.2961379588377389,0.350315189568191,-0.4850099414952655,-0.005954769150882845,-8.639632313776016,-6.094050635755062,-186.90467764215978,1,39.95,0.3320959806442261,16.37,39.95,0,0,1,0,1,0
1767642578.2310805,20260105154938.231006,18.187901,-64.959849,0.04694641931624262,0.2961379588377389,0.350315189568191,-0.4850099414952655,-0.02507992065822967,-8.508827314209936,-5.802117147186398,-186.60373939972433,1,39.95,0.3320959806442261,16.42,39.95,0,0,1,0,1,0
1767642578.3482926,20260105154938.348218,18.187898833333335,-64.95984716666666,0.04694641931624262,0.2961379588377389,0.4713724875769485,-0.5573992318333864,-0.02507992065822967,-8.952035032832622,-5.758516619029642,-186.00829695535214,1,40.81,0.3320959806442261,16.42,40.81,0,0,1,0,1,0
1767642578.4320962,20260105154938.432022,18.187898833333335,-64.95984716666666,0.07243829366563158,0.2961379588377389,0.4713724875769485,-0.5573992318333864,0.004622861386782945,-9.967384850916266,-5.935772044202685,-185.29802532959494,1,40.81,0.3320959806442261,16.42,40.81,0,0,1,0,1,0
1767642578.5410876,20260105154938.541014,18.187898833333335,-64.95984716666666,0.07243829366563158,0.2961379588377389,0.4713724875769485,-0.5573992318333864,0.004622861386782945,-11.327375038692358,-6.045893516018987,-184.28068194933445,1,40.81,0.3320959806442261,16.42,40.81,0,0,1,0,1,0
1767642578.6314585,20260105154938.631384,18.187898833333335,-64.95984716666666,0.08256296106819065,0.2961379588377389,0.4713724875769485,-0.5573992318333864,-0.00035613659322622087,-12.527048676493765,-5.855166391664744,-183.00440600505382,1,40.81,0.3320959806442261,16.42,40.81,0,0,1,0,1,0
1767642578.734999,20260105154938.734925,18.187898833333335,-64.95984716666666,0.08256296106819065,0.2961379588377389,0.4713724875769485,-0.5573992318333864,-0.00035613659322622087,-13.335821910586954,-5.335451989245415,-181.73628530955824,1,40.81,0.46308085322380066,16.42,40.81,0,0,1,0,1,0
1767642578.8350077,20260105154938.834934,18.1878965,-64.95984516666667,0.07436525523880204,0.2961379588377389,0.4886314835064837,-0.5540486572736717,0.01821915734729993,-13.572710031178591,-4.525874500089885,-180.68197693229232,1,40.81,0.46308085322380066,16.45,40.81,0,0,1,0,1,0
1767642578.9383748,20260105154938.938301,18.1878965,-64.95984516666667,0.07436525523880204,0.2961379588377389,0.4886314835064837,-0.5540486572736717,0.01821915734729993,-13.46943326513171,-3.604386028915647,-180.06426806326422,1,40.25,0.45672014355659485,16.45,40.25,0,0,1,0,1,0
1767642579.0519938,20260105154939.051920,18.1878965,-64.95984516666667,0.06746778149501323,0.2961379588377389,0.4886314835064837,-0.5540486572736717,0.00020694975132455745,-13.607995654821398,-2.7700794041410117,-179.9293171373895,1,40.25,0.42624610662460327,16.45,40.25,0,0,1,0,1,0
1767642579.1359992,20260105154939.135925,18.1878965,-64.95984516666667,0.06746778149501323,0.2961379588377389,0.4886314835064837,-0.5540486572736717,0.00020694975132455745,-13.872885853475331,-2.0923636732600635,-180.217237034612,1,40.25,0.3482186496257782,16.45,40.25,0,0,1,0,1,0
1767642579.2308214,20260105154939.230747,18.1878965,-64.95984516666667,0.06202856580344677,0.2961379588377389,0.4886314835064837,-0.5540486572736717,0.01508024485654788,-13.798501651722193,-1.6119050500798981,-180.7925030929616,1,40.25,0.3482186496257782,16.45,40.25,0,0,1,0,1,0
1767642579.3584378,20260105154939.358364,18.187893166666665,-64.959844,0.06202856580344677,0.2961379588377389,0.3837302040249548,-0.6348635462462126,0.01508024485654788,-13.014644102856515,-1.281649704253303,-181.50253881832882,1,40.25,0.3482186496257782,16.45,40.25,0,0,1,0,1,0
1767642579.4311805,20260105154939.431106,18.187893166666665,-64.959844,0.04057419126457638,0.2961379588377389,0.3837302040249548,-0.6348635462462126,-0.043972664628914374,-9.747881275525687,-0.851329329902865,-183.0761330034904,1,40.25,0.6779918670654297,16.42,40.25,0,0,1,0,1,0
1767642579.532191,20260105154939.532117,18.187893166666665,-64.959844,0.04057419126457638,0.2961379588377389,0.3837302040249548,-0.6348635462462126,-0.043972664628914374,-9.747881275525687,-0.851329329902865,-183.0761330034904,1,40.25,0.3140850067138672,16.42,40.25,0,0,1,0,1,0
1767642579.6403131,20260105154939.640239,18.187893166666665,-64.959844,0.05077828951832636,0.2961379588377389,0.3837302040249548,-0.6348635462462126,-0.016069490030017904,-7.840310357326269,-0.676163783280552,-183.87451410104558,1,41.17,0.3140850067138672,16.42,41.17,0,0,1,0,1,0
1767642579.7484534,20260105154939.748379,18.187893166666665,-64.959844,0.05077828951832636,0.2961379588377389,0.3837302040249548,-0.6348635462462126,-0.016069490030017904,-6.215327944909037,-0.545549068583921,-184.55827092296406,1,41.17,0.3140850067138672,16.42,41.17,0,0,1,0,1,0
1767642579.8313413,20260105154939.831267,18.187889666666667,-64.95984316666666,0.03515492526646563,0.2961379588377389,0.3339327852664534,-0.7263558527285688,-0.015723096753386956,-5.096426018679143,-0.5850833382138999,-185.11206285888474,1,41.17,0.3140850067138672,16.42,41.17,0,0,1,0,1,0
1767642579.9332902,20260105154939.933216,18.187889666666667,-64.95984316666666,0.03515492526646563,0.2961379588377389,0.3339327852664534,-0.7263558527285688,-0.015723096753386956,-4.076086745622755,-0.8318910848222676,-185.57911136132995,1,41.17,0.3140850067138672,16.42,41.17,0,0,1,0,1,0
1767642580.0319781,20260105154940.031904,18.187889666666667,-64.95984316666666,0.08192214985504565,0.2961379588377389,0.3339327852664534,-0.7263558527285688,0.08016898906572222,-2.9613619084507223,-1.2743038331743333,-185.90655074722096,1,41.17,0.3442874848842621,16.59,41.17,0,0,1,0,1,0
1767642580.1432223,20260105154940.143148,18.187889666666667,-64.95984316666666,0.08192214985504565,0.2961379588377389,0.3339327852664534,-0.7263558527285688,0.08016898906572222,-1.7288795519616456,-1.799448558090628,-186.1360178646259,1,41.17,0.3442874848842621,16.59,41.17,0,0,1,0,1,0
1767642580.2387166,20260105154940.238642,18.187889666666667,-64.95984316666666,0.07266253618332408,0.2961379588377389,0.3339327852664534,-0.7263558527285688,0.08687056592142416,-0.3791155484117569,-2.22750050841272,-186.23049307500645,1,40.41,0.3442874848842621,16.59,40.41,0,0,1,0,1,0
1767642580.3301666,20260105154940.330092,18.187887,-64.95984183333333,0.07266253618332408,0.2961379588377389,0.3245784228080333,-0.5923636389836296,0.08687056592142416,0.7960660894855854,-2.463128031764925,-186.1434900942497,1,40.41,0.3442874848842621,16.59,40.41,0,0,1,0,1,0
1767642580.4307396,20260105154940.430666,18.187887,-64.95984183333333,0.07714423295895839,0.2961379588377389,0.3245784228080333,-0.5923636389836296,0.07397838015275846,1.7508864293362942,-2.49773789332509,-185.8849263605766,1,40.41,0.3442874848842621,16.59,40.41,0,0,1,0,1,0
1767642580.5423894,20260105154940.542315,18.187887,-64.95984183333333,0.07714423295895839,0.2961379588377389,0.3245784228080333,-0.5923636389836296,0.07397838015275846,2.3406012244328855,-2.31341065851152,-185.3990948311977,1,40.41,0.3442874848842621,16.59,40.41,0,0,1,0,1,0
1767642580.6310368,20260105154940.630963,18.187887,-64.95984183333333,0.08854882836866199,0.2961379588377389,0.3245784228080333,-0.5923636389836296,0.09734432069970314,2.5344108996391297,-1.9727258235365168,-184.74465319167894,1,40.41,0.376107782125473,16.51,40.41,0,0,1,0,1,0
1767642580.7316082,20260105154940.731534,18.187887,-64.95984183333333,0.08854882836866199,0.2961379588377389,0.3245784228080333,-0.5923636389836296,0.09734432069970314,2.1899600677639244,-1.6083553781546664,-184.0404604364566,1,40.41,0.376107782125473,16.51,40.41,0,0,1,0,1,0
1767642580.8323886,20260105154940.832315,18.187887,-64.95984183333333,0.06523413879593723,0.2961379588377389,0.3245784228080333,-0.5923636389836296,-0.012225198227274685,0.4974797808431089,-1.309149443066867,-182.45577402011673,1,40.41,0.4274658262729645,16.51,40.41,0,0,1,0,1,0
1767642580.9427776,20260105154940.942704,18.187885333333334,-64.95984100000001,0.06523413879593723,0.2961379588377389,0.21622401604021474,-0.38657040191652875,-0.012225198227274685,0.4974797808431089,-1.309149443066867,-182.45577402011673,1,40.41,0.4274658262729645,16.51,40.41,0,0,1,0,1,0
1767642581.0318282,20260105154941.031754,18.187885333333334,-64.95984100000001,0.04926989935672163,0.2961379588377389,0.21622401604021474,-0.38657040191652875,-0.0375012261377646,-0.5982771873347461,-1.4930235373556628,-181.67967300760074,1,40.41,0.4274658262729645,16.51,40.41,0,0,1,0,1,0
1767642581.1353266,20260105154941.135253,18.187885333333334,-64.95984100000001,0.04926989935672163,0.2961379588377389,0.21622401604021474,-0.38657040191652875,-0.0375012261377646,-1.809511991657317,-1.7625500487316417,-180.98767897459786,1,40.41,0.4274658262729645,16.51,40.41,0,0,1,0,1,0
1767642581.2514699,20260105154941.251396,18.187885333333334,-64.95984100000001,0.06504816148189013,0.2961379588377389,0.21622401604021474,-0.38657040191652875,-0.021187546933252737,-3.0916721460118888,-1.9762800844967376,-180.32700820032875,1,40.41,0.3469288647174835,16.48,40.41,0,0,1,0,1,0
1767642581.3442214,20260105154941.344147,18.187884,-64.95984166666668,0.06504816148189013,0.2961379588377389,0.05642897549353786,-0.36919595160156254,-0.021187546933252737,-4.206944252286851,-2.106265887956323,-179.63099801465788,1,40.41,0.5768966674804688,16.48,40.41,0,0,1,0,1,0
1767642581.4312742,20260105154941.431200,18.187884,-64.95984166666668,0.04960014681170584,0.2961379588377389,0.05642897549353786,-0.36919595160156254,-0.054750702987897595,-5.304580803819,-2.151802348548175,-178.97361939274592,1,40.41,0.5768966674804688,16.48,40.41,0,0,1,0,1,0
1767642581.5306623,20260105154941.530588,18.187884,-64.95984166666668,0.04960014681170584,0.2961379588377389,0.05642897549353786,-0.36919595160156254,-0.054750702987897595,-6.397526721261442,-2.1509893423028306,-178.35373852278514,1,40.41,0.5768966674804688,16.48,40.41,0,0,1,0,1,0
1767642581.6394854,20260105154941.639411,18.187884,-64.95984166666668,0.04580538126721074,0.2961379588377389,0.05642897549353786,-0.36919595160156254,-0.04759598974348075,-7.246918677985667,-2.2179388804860425,-177.84023105699342,1,40.41,0.5768966674804688,16.48,40.41,0,0,1,0,1,0
1767642581.7356017,20260105154941.735528,18.187884,-64.95984166666668,0.04580538126721074,0.2961379588377389,0.05642897549353786,-0.36919595160156254,-0.04759598974348075,-7.768712019976974,-2.4388001699030415,-177.4432466601066,1,40.41,0.3918515741825104,16.48,40.41,0,0,1,0,1,0
1767642581.8327696,20260105154941.832696,18.187882166666668,-64.959843,0.046218319277527335,0.2961379588377389,-0.10277830829168574,-0.4583005740534673,-0.030798138639755133,-7.942957038196921,-2.8379744969755425,-177.10841700689122,1,40.41,0.7136861085891724,16.56,40.41,0,0,1,0,1,0
1767642581.933952,20260105154941.933878,18.187882166666668,-64.959843,0.046218319277527335,0.2961379588377389,-0.10277830829168574,-0.4583005740534673,-0.030798138639755133,-7.762624611702565,-3.396223346366735,-176.797574986618,1,40.41,0.7136861085891724,16.56,40.41,0,0,1,0,1,0
1767642582.0347412,20260105154942.034667,18.187882166666668,-64.959843,0.06336910121788593,0.2961379588377389,-0.10277830829168574,-0.4583005740534673,-0.008606645745549231,-7.584906441047792,-4.014260278035703,-176.4428011738948,1,40.41,0.3470054864883423,16.56,40.41,0,0,1,0,1,0
1767642582.1323187,20260105154942.132245,18.187882166666668,-64.959843,0.06336910121788593,0.2961379588377389,-0.10277830829168574,-0.4583005740534673,-0.008606645745549231,-7.241266694426538,-4.545857933199408,-176.13922647749706,1,40.41,0.32662102580070496,16.56,40.41,0,0,1,0,1,0
1767642582.2327197,20260105154942.232646,18.187882166666668,-64.959843,0.03266644598822973,0.2961379588377389,-0.10277830829168574,-0.4583005740534673,-0.061297424114213496,-6.790548753239216,-4.924393982541564,-175.97091689578812,1,40.41,0.32662102580070496,16.56,40.41,0,0,1,0,1,0
1767642582.351205,20260105154942.351131,18.187879833333334,-64.95984316666666,0.03266644598822973,0.2961379588377389,-0.029702077743167177,-0.5151277250313374,-0.061297424114213496,-6.32887774602771,-5.137912602531913,-175.84095115260723,1,40.41,0.34796828031539917,16.56,40.41,0,0,1,0,1,0
1767642582.4309587,20260105154942.430885,18.187879833333334,-64.95984316666666,0.047016026612036646,0.2961379588377389,-0.029702077743167177,-0.5151277250313374,-0.03149788598004342,-5.689707561179994,-5.204993621903657,-175.79038041391019,1,40.41,0.34796828031539917,16.2,40.41,0,0,1,0,1,0
1767642582.5348983,20260105154942.534824,18.187879833333334,-64.95984316666666,0.047016026612036646,0.2961379588377389,-0.029702077743167177,-0.5151277250313374,-0.03149788598004342,-5.156673004455866,-5.249902131754163,-175.8436832292521,1,40.41,0.34796828031539917,16.2,40.41,0,0,1,0,1,0
1767642582.63139,20260105154942.631316,18.187879833333334,-64.95984316666666,0.058353195576299616,0.2961379588377389,-0.029702077743167177,-0.5151277250313374,-0.02100262187879179,-4.76452822521329,-5.347760848304632,-176.05319252676605,1,40.41,0.34796828031539917,16.2,40.41,0,0,1,0,1,0
1767642582.7321098,20260105154942.732036,18.187879833333334,-64.95984316666666,0.058353195576299616,0.2961379588377389,-0.029702077743167177,-0.5151277250313374,-0.02100262187879179,-4.787223244392873,-5.584047912034397,-176.3822438378775,1,40.41,0.34796828031539917,16.2,40.41,0,0,1,0,1,0
1767642582.8351762,20260105154942.835102,18.187876666666668,-64.95984183333333,0.08104642309541568,0.2961379588377389,0.2909562418346769,-0.7330020641274835,-0.007529244410784834,-5.182369465962053,-5.852809975558521,-176.9185778040373,1,40.29,0.34796828031539917,16.2,40.29,0,0,1,0,1,0
1767642582.9307384,20260105154942.930664,18.187876666666668,-64.95984183333333,0.08104642309541568,0.2961379588377389,0.2909562418346769,-0.7330020641274835,-0.007529244410784834,-5.423624640315772,-5.964390547057989,-177.57194027328137,1,40.29,0.34796828031539917,16.2,40.29,0,0,1,0,1,0
1767642583.0497575,20260105154943.049683,18.187876666666668,-64.95984183333333,0.07551090382513675,0.2961379588377389,0.2909562418346769,-0.7330020641274835,-0.011559912534636447,-5.50162670918852,-5.8060982951223865,-178.333779845711,1,40.29,0.34796828031539917,16.48,40.29,0,0,1,0,1,0
1767642583.1321907,20260105154943.132117,18.187876666666668,-64.95984183333333,0.07551090382513675,0.2961379588377389,0.2909562418346769,-0.7330020641274835,-0.011559912534636447,-5.37125115792006,-5.3679440645188095,-179.23309751491192,1,40.29,0.34796828031539917,16.48,40.29,0,0,1,0,1,0
1767642583.232466,20260105154943.232392,18.187876666666668,-64.95984183333333,0.08017347228595281,0.2961379588377389,0.2909562418346769,-0.7330020641274835,0.0414638477998254,-5.163290606354177,-4.7934916527450095,-180.07359357394813,1,40.29,0.48407232761383057,16.48,40.29,0,0,1,0,1,0
1767642583.3404124,20260105154943.340338,18.187873500000002,-64.9598405,0.08017347228595281,0.2961379588377389,0.30102934285290806,-0.7026927663488589,0.0414638477998254,-4.882229929058254,-4.364697345972064,-180.79387826060892,1,40.29,0.48407232761383057,16.48,40.29,0,0,1,0,1,0
1767642583.4391968,20260105154943.439123,18.187873500000002,-64.9598405,0.06966132177405565,0.2961379588377389,0.30102934285290806,-0.7026927663488589,0.01419059454109415,-4.783481153163312,-4.242905638012291,-181.49673229827525,1,40.29,0.41612544655799866,16.48,40.29,0,0,1,0,1,0
1767642583.5302062,20260105154943.530132,18.187873500000002,-64.9598405,0.06966132177405565,0.2961379588377389,0.30102934285290806,-0.7026927663488589,0.01419059454109415,-4.418402715732158,-4.35755936885029,-182.10859452328327,1,40.12,0.4062432050704956,16.48,40.12,0,0,1,0,1,0
1767642583.6315231,20260105154943.631449,18.187873500000002,-64.9598405,0.07242320628178259,0.2961379588377389,0.30102934285290806,-0.7026927663488589,0.014111620530450555,-3.846267446462811,-4.6266915433824085,-182.54743433436988,1,40.12,0.3175892233848572,16.42,40.12,0,0,1,0,1,0
1767642583.7529194,20260105154943.752845,18.187873500000002,-64.9598405,0.07242320628178259,0.2961379588377389,0.30102934285290806,-0.7026927663488589,0.014111620530450555,-3.3490388886049383,-4.859451666918398,-182.74377502245545,1,40.12,0.3175892233848572,16.42,40.12,0,0,1,0,1,0
1767642583.831806,20260105154943.831732,18.18787,-64.95983966666667,0.06751060998669069,0.2961379588377389,0.2362670160304152,-0.6972193356427611,-0.0081387247338888,-2.681710385061802,-4.947684082165361,-182.76643759822488,1,40.12,0.3175892233848572,16.42,40.12,0,0,1,0,1,0
1767642583.932246,20260105154943.932172,18.18787,-64.95983966666667,0.06751060998669069,0.2961379588377389,0.2362670160304152,-0.6972193356427611,-0.0081387247338888,-2.4538483626857404,-4.791632986852528,-182.59362009005193,1,40.12,0.5228706002235413,16.42,40.12,0,0,1,0,1,0
1767642584.0345025,20260105154944.034428,18.18787,-64.95983966666667,0.06437271697725715,0.2961379588377389,0.2362670160304152,-0.6972193356427611,-0.02088416447513785,-2.3989771645948292,-4.392807853326202,-182.28007331390026,1,40.12,0.5228706002235413,16.42,40.12,0,0,1,0,1,0
1767642584.1322134,20260105154944.132139,18.18787,-64.95983966666667,0.06437271697725715,0.2961379588377389,0.2362670160304152,-0.6972193356427611,-0.02088416447513785,-2.5313923818334936,-3.7864102084949636,-181.88885359873416,1,39.8,0.5228706002235413,16.42,39.8,0,0,1,0,1,0
1767642584.2413242,20260105154944.241250,18.18787,-64.95983966666667,0.06480601448747178,0.2961379588377389,0.2362670160304152,-0.6972193356427611,-0.007210390906579417,-2.9901930010199553,-3.1382401789806793,-181.32660588559744,1,39.8,0.5228706002235413,16.56,39.8,0,0,1,0,1,0
1767642584.3335488,20260105154944.333475,18.187867,-64.95983883333334,0.06480601448747178,0.2961379588377389,0.21634076905658126,-0.6572308947084328,-0.007210390906579417,-3.579718365021049,-2.5716832552671445,-180.62932528428678,1,39.8,0.4096602201461792,16.56,39.8,0,0,1,0,1,0
1767642584.4324381,20260105154944.432364,18.187867,-64.95983883333334,0.044548630182061656,0.2961379588377389,0.21634076905658126,-0.6572308947084328,-0.03593807852426839,-4.204029894903301,-2.1189422967016713,-179.82930494074466,1,39.8,0.4096602201461792,16.56,39.8,0,0,1,0,1,0
1767642584.5318606,20260105154944.531786,18.187867,-64.95983883333334,0.044548630182061656,0.2961379588377389,0.21634076905658126,-0.6572308947084328,-0.03593807852426839,-4.813985215790569,-1.7523005991652625,-178.9219822869742,1,39.8,0.373564213514328,16.56,39.8,0,0,1,0,1,0
1767642584.6362176,20260105154944.636143,18.187867,-64.95983883333334,0.05468845246695272,0.2961379588377389,0.21634076905658126,-0.6572308947084328,-0.01858837071616306,-5.357631328958275,-1.4253533072356162,-177.88506357755304,1,39.8,0.36990195512771606,16.56,39.8,0,0,1,0,1,0
1767642584.7422442,20260105154944.742170,18.187867,-64.95983883333334,0.05468845246695272,0.2961379588377389,0.21634076905658126,-0.6572308947084328,-0.01858837071616306,-5.831029775168002,-1.0851260950986312,-176.8338697676623,1,39.81,0.36990195512771606,16.56,39.81,0,0,1,0,1,0
1767642584.8374949,20260105154944.837421,18.187867,-64.95983883333334,0.04480950994280737,0.2961379588377389,0.21634076905658126,-0.6572308947084328,-0.02502401793370267,-6.279395569118857,-0.7611068209357583,-175.8731486758673,1,39.81,0.3407065272331238,16.37,39.81,0,0,1,0,1,0
1767642584.9321952,20260105154944.932121,18.187864333333334,-64.95983733333334,0.04480950994280737,0.2961379588377389,0.2766412452379913,-0.5839196682623932,-0.02502401793370267,-6.568996974138915,-0.5338969217760507,-175.0395920915091,1,39.81,0.3407065272331238,16.37,39.81,0,0,1,0,1,0
1767642585.0478957,20260105154945.047822,18.187864333333334,-64.95983733333334,0.005130749575410834,0.2961379588377389,0.2766412452379913,-0.5839196682623932,-0.05922651926529613,-6.90870509171337,-0.49190218233950667,-174.33776258258462,1,39.81,0.3407065272331238,16.37,39.81,0,0,1,0,1,0
1767642585.133989,20260105154945.133915,18.187864333333334,-64.95983733333334,0.005130749575410834,0.2961379588377389,0.2766412452379913,-0.5839196682623932,-0.05922651926529613,-7.307563949310778,-0.7853505860634175,-173.8226705123389,1,39.81,0.3407065272331238,16.37,39.81,0,0,1,0,1,0
1767642585.232715,20260105154945.232641,18.187864333333334,-64.95983733333334,0.02521515656762624,0.2961379588377389,0.2766412452379913,-0.5839196682623932,-0.024209693873708645,-7.955523736989498,-1.4369348576098706,-173.2956665879214,1,39.81,0.3496745526790619,16.37,39.81,0,0,1,0,1,0
1767642585.331158,20260105154945.331084,18.187862166666665,-64.95983616666668,0.02521515656762624,0.2961379588377389,0.26162936481058574,-0.4848842863581651,-0.024209693873708645,-8.699134381780027,-2.3927723624020847,-172.82425833251884,1,40.58,0.3496745526790619,16.37,40.58,0,0,1,0,1,0
1767642585.431463,20260105154945.431389,18.187862166666665,-64.95983616666668,0.04973257371412144,0.2961379588377389,0.26162936481058574,-0.4848842863581651,0.0051680946046180985,-9.502812292930486,-3.4863451633684366,-172.53372930210043,1,40.58,0.3496745526790619,16.45,40.58,0,0,1,0,1,0
1767642585.5302558,20260105154945.530182,18.187862166666665,-64.95983616666668,0.04973257371412144,0.2961379588377389,0.26162936481058574,-0.4848842863581651,0.0051680946046180985,-10.267130371141437,-4.429107760423427,-172.46280459239884,1,40.58,0.3496745526790619,16.45,40.58,0,0,1,0,1,0
1767642585.6463852,20260105154945.646311,18.187862166666665,-64.95983616666668,0.04585782226411531,0.2961379588377389,0.26162936481058574,-0.4848842863581651,0.0012506242243341655,-10.927860909587144,-5.079225888651611,-172.54411119335103,1,40.58,0.3496745526790619,16.45,40.58,0,0,1,0,1,0
1767642585.739118,20260105154945.739044,18.187862166666665,-64.95983616666668,0.04585782226411531,0.2961379588377389,0.26162936481058574,-0.4848842863581651,0.0012506242243341655,-11.47284275210202,-5.298262449690704,-172.34736069376876,1,40.58,0.37649965286254883,16.45,40.58,0,0,1,0,1,0
1767642585.830727,20260105154945.830653,18.187860666666666,-64.959836,0.06975358024057321,0.2961379588377389,0.10957437318946738,-0.2653214588545106,0.024906791065699475,-12.008878751152759,-5.087019137281183,-171.5711640585701,1,40.58,0.37649965286254883,16.45,40.58,0,0,1,0,1,0
1767642585.931733,20260105154945.931659,18.187860666666666,-64.959836,0.06975358024057321,0.2961379588377389,0.10957437318946738,-0.2653214588545106,0.024906791065699475,-12.359589453640583,-4.564321648675206,-170.36902301404882,1,40.58,0.3184483051300049,16.45,40.58,0,0,1,0,1,0
1767642586.0301898,20260105154946.030116,18.187860666666666,-64.959836,0.0620430416060412,0.2961379588377389,0.10957437318946738,-0.2653214588545106,0.04608778959975819,-12.778108590906857,-3.823414905989171,-168.9672901102345,1,40.86,0.3889605402946472,16.51,40.86,0,0,1,0,1,0
1767642586.134498,20260105154946.134424,18.187860666666666,-64.959836,0.0620430416060412,0.2961379588377389,0.10957437318946738,-0.2653214588545106,0.04608778959975819,-13.123922899782658,-2.9953463805913967,-167.44183511555602,1,40.86,0.40803295373916626,16.51,40.86,0,0,1,0,1,0
1767642586.2488298,20260105154946.248756,18.187860666666666,-64.959836,0.04207845309997628,0.2961379588377389,0.10957437318946738,-0.2653214588545106,-0.009516677905956047,-13.670985389417416,-2.221976164059345,-165.9708304084103,1,40.86,0.40803295373916626,16.51,40.86,0,0,1,0,1,0
1767642586.3336055,20260105154946.333531,18.187859166666666,-64.9598365,0.04207845309997628,0.2961379588377389,0.022199674798524405,-0.3135379118775038,-0.009516677905956047,-14.48092146363258,-1.7690775774780696,-164.6776429096978,1,40.86,0.5707024335861206,16.51,40.86,0,0,1,0,1,0
1767642586.4311013,20260105154946.431027,18.187859166666666,-64.9598365,0.032636577591523844,0.2961379588377389,0.022199674798524405,-0.3135379118775038,-0.016510647798229222,-15.338069529819489,-1.6259812212187845,-163.4022412299435,1,40.86,0.3299771547317505,16.51,40.86,0,0,1,0,1,0
1767642586.5336506,20260105154946.533577,18.187859166666666,-64.9598365,0.032636577591523844,0.2961379588377389,0.022199674798524405,-0.3135379118775038,-0.016510647798229222,-16.417241512101885,-1.6632661700125815,-161.904776360492,1,40.86,0.4524080455303192,16.51,40.86,0,0,1,0,1,0
1767642586.6306868,20260105154946.630613,18.187859166666666,-64.9598365,0.028269770588977942,0.2961379588377389,0.022199674798524405,-0.3135379118775038,-0.05177801013410717,-17.389007023733853,-1.7411116780869698,-160.20093042128494,1,41.65,0.4524080455303192,16.45,41.65,0,0,1,0,1,0
1767642586.7315881,20260105154946.731514,18.187859166666666,-64.9598365,0.028269770588977942,0.2961379588377389,0.022199674798524405,-0.3135379118775038,-0.05177801013410717,-18.099247913628812,-1.649952525734162,-158.25850588906218,1,41.65,0.45724841952323914,16.45,41.65,0,0,1,0,1,0
1767642586.8306983,20260105154946.830624,18.187859166666666,-64.9598365,0.04576909159214149,0.2961379588377389,0.022199674798524405,-0.3135379118775038,-0.023675694275226953,-18.710457855337864,-1.19226992353723,-156.0473542980473,1,41.65,0.3130360543727875,16.45,41.65,0,0,1,0,1,0
1767642586.9562361,20260105154946.956162,18.187857333333334,-64.95983666666666,0.04576909159214149,0.2961379588377389,0.01465343971501481,-0.3958476732506564,-0.023675694275226953,-19.008814285343888,-0.32024730084501535,-153.56247594798018,1,41.65,0.3130360543727875,16.45,41.65,0,0,1,0,1,0
1767642587.0305312,20260105154947.030457,18.187857333333334,-64.95983666666666,0.019731412267481027,0.2961379588377389,0.01465343971501481,-0.3958476732506564,-0.041994782683393725,-19.0512741715014,0.8271287337206241,-150.8925950279038,1,41.65,0.4062409996986389,16.45,41.65,0,0,1,0,1,0
1767642587.1319036,20260105154947.131830,18.187857333333334,-64.95983666666666,0.019731412267481027,0.2961379588377389,0.01465343971501481,-0.3958476732506564,-0.041994782683393725,-18.674138311439762,2.083167033697663,-148.08751729505462,1,41.65,0.37637320160865784,16.45,41.65,0,0,1,0,1,0
1767642587.2315195,20260105154947.231445,18.187857333333334,-64.95983666666666,0.01886182498774079,0.2961379588377389,0.01465343971501481,-0.3958476732506564,-0.022915989801401845,-18.035418065464498,3.13606006719544,-145.22827614272046,1,42.32,0.4704309403896332,16.12,42.32,0,0,1,0,1,0
1767642587.3369675,20260105154947.336893,18.187855666666668,-64.95983666666666,0.01886182498774079,0.2961379588377389,0.0049358838630146175,-0.3770522142543672,-0.022915989801401845,-17.092288132166864,3.969166926124686,-142.17880049360204,1,42.32,0.4704309403896332,16.12,42.32,0,0,1,0,1,0
1767642587.4537272,20260105154947.453653,18.187855666666668,-64.95983666666666,-0.011081644513485124,0.2961379588377389,0.0049358838630146175,-0.3770522142543672,-0.03786356737564018,-16.51200188298225,4.374490133196112,-139.45216068122792,1,42.32,0.458314448595047,16.12,42.32,0,0,1,0,1,0
1767642587.5407455,20260105154947.540671,18.187855666666668,-64.95983666666666,-0.011081644513485124,0.2961379588377389,0.0049358838630146175,-0.3770522142543672,-0.03786356737564018,-16.52019128272534,4.1390218386858635,-136.54978003867078,1,42.32,0.37939661741256714,16.12,42.32,0,0,1,0,1,0
1767642587.6365795,20260105154947.636505,18.187855666666668,-64.95983666666666,0.003168986318530208,0.2961379588377389,0.0049358838630146175,-0.3770522142543672,-0.031257816240583894,-16.94628595626354,3.4653248217947707,-134.158147464494,1,42.32,0.9186262488365173,16.12,42.32,0,0,1,0,1,0
1767642587.73519,20260105154947.735116,18.187855666666668,-64.95983666666666,0.003168986318530208,0.2961379588377389,0.0049358838630146175,-0.3770522142543672,-0.031257816240583894,-17.989548206144576,2.54869603195264,-131.85437847521712,1,42.32,0.9186262488365173,16.12,42.32,0,0,1,0,1,0
1767642587.851507,20260105154947.851433,18.187853333333333,-64.95983766666667,0.0054671067030824735,0.2961379588377389,-0.16901569646152312,-0.5119552865539732,0.004246380678996204,-19.26803371741176,1.7187235906429532,-129.47744447338988,1,42.39,0.36563414335250854,15.98,42.39,0,0,1,0,1,0
