timestamp_ros,timestamp_sys (%Y%m%d%H%M%S.%f),latitude,longitude,depth,distance_to_ocean_floor,velX,velY,velZ,roll,pitch,yaw,navMode,acousticAltimeter,forwardStereo,battery_volts,altitudeUsed,cotsNumFound,cotsNumMaybe,missionState,errorState,storeData,storeImageData
1767801806.7864087,20260107120326.786369,18.340587666666668,-64.97716333333332,0.05162414717966407,0.4099793192417151,0.0,0.10031580000000001,0.04388550012778271,6.722413749924289,-4.704105362002546,28.062209192378337,1,2.42,3.8832247257232666,16.7,2.42,0,0,1,0,1,0
1767801806.884965,20260107120326.884926,18.340587666666668,-64.97716333333332,0.09062414717966377,0.4099793192417151,0.0,0.10031580000000001,0.028361975466785358,6.722413749924289,-4.704105362002546,28.062209192378337,1,2.42,3.8832247257232666,16.7,2.42,0,0,1,0,1,0
1767801806.9945872,20260107120326.994548,18.340587666666668,-64.97716333333332,0.08149734447513027,0.4099793192417151,0.0,0.10031580000000001,0.05217151372474922,7.524410580164183,-4.702869524207705,27.940631781680388,1,2.42,3.8832247257232666,16.7,2.42,0,0,1,0,1,0
1767801807.059366,20260107120327.059327,18.340587666666668,-64.97716333333332,0.08149734447513027,0.4099793192417151,0.0,0.10031580000000001,0.05217151372474922,8.51932361117004,-4.54990524861663,27.91161712771157,1,2.42,3.8832247257232666,16.7,2.42,0,0,1,0,1,0
1767801807.18384,20260107120327.183801,18.340587666666668,-64.97716333333332,0.08149734447513027,0.4099793192417151,0.0,0.10031580000000001,0.05217151372474922,9.326991207996,-3.163487982275332,28.05822377557256,1,2.42,3.8832247257232666,16.7,2.42,0,0,1,0,1,0
1767801807.26787,20260107120327.267831,18.340587666666668,-64.9771625,0.07130642605452756,0.4099793192417151,0.0,0.13169664,0.04089233046366848,9.326991207996,-3.163487982275332,28.05822377557256,1,2.42,3.8832247257232666,16.7,2.42,0,0,1,0,1,0
1767801807.3603854,20260107120327.360346,18.340587666666668,-64.9771625,0.07130642605452756,0.4099793192417151,0.0,0.13169664,0.04089233046366848,9.372493944516764,-2.365922452287371,28.009039565772806,1,2.43,3.8832247257232666,16.56,2.43,0,0,1,0,1,0
1767801807.459713,20260107120327.459674,18.340587666666668,-64.9771625,0.06908683732455138,0.4099793192417151,0.0,0.13169664,0.015463494256767688,9.416015071696032,-1.9701326986022254,27.877059773249442,1,2.43,3.8832247257232666,16.56,2.43,0,0,1,0,1,0
1767801807.563979,20260107120327.563940,18.340587666666668,-64.9771625,0.06908683732455138,0.4099793192417151,0.0,0.13169664,0.015463494256767688,9.259795782914743,-2.474928895322974,27.83426862279872,1,2.43,3.8832247257232666,16.56,2.43,0,0,1,0,1,0
1767801807.6838903,20260107120327.683851,18.340587833333334,-64.97716166666667,0.05332970567232331,0.4099793192417151,0.1868358510562275,0.0520249300773157,-0.0034839652651426135,9.259795782914743,-2.474928895322974,27.83426862279872,1,2.43,3.8832247257232666,16.56,2.43,0,0,1,0,1,0
1767801807.7668269,20260107120327.766787,18.340587833333334,-64.97716166666667,0.05332970567232331,0.4099793192417151,0.1868358510562275,0.0520249300773157,-0.0034839652651426135,9.28847917259036,-3.0290096202827925,27.98869584005575,1,2.45,3.8832247257232666,16.56,2.45,0,0,1,0,1,0
1767801807.905003,20260107120327.904964,18.340587833333334,-64.97716166666667,0.06970190290368655,0.4099793192417151,0.1868358510562275,0.0520249300773157,-0.022684725017057504,9.702755053317533,-3.4209055244184974,28.21009308607081,1,2.45,3.8832247257232666,16.56,2.45,0,0,1,0,1,0
1767801807.9625733,20260107120327.962534,18.340587833333334,-64.97716166666667,0.06970190290368655,0.4099793192417151,0.1868358510562275,0.0520249300773157,-0.022684725017057504,10.25695765450894,-3.5234015141867063,28.34300861484506,1,2.44,3.8832247257232666,16.45,2.44,0,0,1,0,1,0
1767801808.060559,20260107120328.060520,18.340587833333334,-64.97716166666667,0.045386400195462674,0.4099793192417151,0.1868358510562275,0.0520249300773157,-0.03907373063182593,9.910771953964222,-3.0610848404243542,28.531088186175626,1,2.44,3.8832247257232666,16.45,2.44,0,0,1,0,1,0
1767801808.1592958,20260107120328.159256,18.340587833333334,-64.97716166666667,0.045386400195462674,0.4099793192417151,0.1868358510562275,0.0520249300773157,-0.03907373063182593,9.910771953964222,-3.0610848404243542,28.531088186175626,1,2.45,3.8832247257232666,16.45,2.45,0,0,1,0,1,0
1767801808.2596712,20260107120328.259632,18.340588500000003,-64.97716066666666,0.05587037486995005,0.4099793192417151,0.2091876167300083,0.16005174462022448,-0.016848360580545552,9.061581914779529,-2.913838715873653,28.512216366751,1,2.45,3.8832247257232666,16.45,2.45,0,0,1,0,1,0
1767801808.3607912,20260107120328.360752,18.340588500000003,-64.97716066666666,0.05587037486995005,0.4099793192417151,0.2091876167300083,0.16005174462022448,-0.016848360580545552,8.253725633910287,-3.02063815324455,28.26608016671637,1,2.42,3.8832247257232666,16.45,2.42,0,0,1,0,1,0
1767801808.4675558,20260107120328.467516,18.340588500000003,-64.97716066666666,0.060726269799258305,0.4099793192417151,0.2091876167300083,0.16005174462022448,0.005774704855925494,6.70132425266056,-4.107269131654497,27.223017699940012,1,2.42,3.8832247257232666,16.45,2.42,0,0,1,0,1,0
1767801808.563463,20260107120328.563424,18.340588500000003,-64.97716066666666,0.060726269799258305,0.4099793192417151,0.2091876167300083,0.16005174462022448,0.005774704855925494,6.70132425266056,-4.107269131654497,27.223017699940012,1,2.43,3.8832247257232666,16.48,2.43,0,0,1,0,1,0
1767801808.6589494,20260107120328.658910,18.340589,-64.97715933333333,0.07736810181706241,0.4099793192417151,0.22919817617649435,0.17874735743872874,0.03539195550154324,5.828477417939887,-4.79737504356354,26.91147558502655,1,2.43,3.8832247257232666,16.48,2.43,0,0,1,0,1,0
1767801808.7610033,20260107120328.760964,18.340589,-64.97715933333333,0.07736810181706241,0.4099793192417151,0.22919817617649435,0.17874735743872874,0.03539195550154324,5.828477417939887,-4.79737504356354,26.91147558502655,1,2.42,3.8832247257232666,16.48,2.42,0,0,1,0,1,0
1767801808.8636267,20260107120328.863587,18.340589,-64.97715933333333,0.07319321900147659,0.4099793192417151,0.22919817617649435,0.17874735743872874,0.015338347881008307,5.958953287647652,-4.714236243711406,26.93466750064592,1,2.42,3.8832247257232666,16.48,2.42,0,0,1,0,1,0
1767801808.961843,20260107120328.961804,18.340589,-64.97715933333333,0.07319321900147659,0.4099793192417151,0.22919817617649435,0.17874735743872874,0.015338347881008307,6.9489831585377315,-4.556141213558609,26.398791157324116,1,2.39,3.8832247257232666,16.48,2.39,0,0,1,0,1,0
1767801809.0576456,20260107120329.057606,18.340589,-64.97715933333333,0.07661139846238849,0.4099793192417151,0.22919817617649435,0.17874735743872874,0.04383907764601572,6.9489831585377315,-4.556141213558609,26.398791157324116,1,2.39,3.8832247257232666,16.48,2.39,0,0,1,0,1,0
1767801809.1584845,20260107120329.158445,18.340589,-64.97715933333333,0.07661139846238849,0.4099793192417151,0.22919817617649435,0.17874735743872874,0.04383907764601572,7.219784034258114,-4.602382891434426,25.86936592998008,1,2.41,3.8832247257232666,16.53,2.41,0,0,1,0,1,0
1767801809.2569392,20260107120329.256900,18.340590333333335,-64.97715799999999,0.07545986729505536,0.4099793192417151,0.2501922804486005,0.25971593527445025,0.032205389623225354,6.181474953956889,-3.9814826153755134,25.116805172855656,1,2.39,3.8832247257232666,16.53,2.39,0,0,1,0,1,0
1767801809.3560443,20260107120329.356005,18.340590333333335,-64.97715799999999,0.07545986729505536,0.4099793192417151,0.2501922804486005,0.25971593527445025,0.032205389623225354,6.181474953956889,-3.9814826153755134,25.116805172855656,1,2.39,3.8832247257232666,16.53,2.39,0,0,1,0,1,0
1767801809.4573178,20260107120329.457278,18.340590333333335,-64.97715799999999,0.07152720964996839,0.4099793192417151,0.2501922804486005,0.25971593527445025,0.024953780575236527,5.041445964409397,-3.185308310041572,24.907323196108152,1,2.38,3.8832247257232666,16.53,2.38,0,0,1,0,1,0
1767801809.559122,20260107120329.559083,18.340590333333335,-64.97715799999999,0.07152720964996839,0.4099793192417151,0.2501922804486005,0.25971593527445025,0.024953780575236527,4.0200552687317,-2.5217208305105525,24.666070583076273,1,2.38,3.8832247257232666,16.53,2.38,0,0,1,0,1,0
1767801809.6588957,20260107120329.658856,18.340591333333336,-64.97715716666667,0.07906395843020383,0.4099793192417151,0.1705947721025438,0.24165437827666425,0.007378775021844228,3.672934258823085,-2.319675865211333,24.398189093230595,1,2.4,3.8832247257232666,16.53,2.4,0,0,1,0,1,0
1767801809.7565799,20260107120329.756540,18.340591333333336,-64.97715716666667,0.07906395843020383,0.4099793192417151,0.1705947721025438,0.24165437827666425,0.007378775021844228,3.9235049607619517,-2.6319705818630714,24.097312322519635,1,2.4,3.8832247257232666,16.51,2.4,0,0,1,0,1,0
1767801809.8561184,20260107120329.856079,18.340591333333336,-64.97715716666667,0.053266268931198915,0.4099793192417151,0.1705947721025438,0.24165437827666425,-0.02906993735980608,4.819621404531586,-3.2893289266437247,23.3780863155588,1,2.33,3.8832247257232666,16.51,2.33,0,0,1,0,1,0
1767801809.9650888,20260107120329.965049,18.340591333333336,-64.97715716666667,0.053266268931198915,0.4099793192417151,0.1705947721025438,0.24165437827666425,-0.02906993735980608,4.819621404531586,-3.2893289266437247,23.3780863155588,1,2.33,3.8832247257232666,16.51,2.33,0,0,1,0,1,0
1767801810.0585287,20260107120330.058489,18.340591333333336,-64.97715716666667,0.0887959023912393,0.4099793192417151,0.1705947721025438,0.24165437827666425,0.016896861074815077,4.505378375722455,-2.8972819045186005,22.763106108079775,1,2.34,3.8832247257232666,16.51,2.34,0,0,1,0,1,0
1767801810.158599,20260107120330.158560,18.340591333333336,-64.97715716666667,0.0887959023912393,0.4099793192417151,0.1705947721025438,0.24165437827666425,0.016896861074815077,4.505378375722455,-2.8972819045186005,22.763106108079775,1,2.34,0.4167945981025696,16.51,2.34,0,0,1,0,1,0
1767801810.2572665,20260107120330.257227,18.3405925,-64.97715633333334,0.042087287403929474,0.4099793192417151,0.15857271296307607,0.2737724945276459,-0.036141463355833084,4.2034053592577445,-2.9591965242661495,22.551271130321876,1,2.35,0.4167945981025696,16.51,2.35,0,0,1,0,1,0
1767801810.3595924,20260107120330.359553,18.3405925,-64.97715633333334,0.042087287403929474,0.4099793192417151,0.15857271296307607,0.2737724945276459,-0.036141463355833084,4.061145701470957,-3.345550581682469,22.371401449309232,1,2.35,0.4167945981025696,16.56,2.35,0,0,1,0,1,0
1767801810.4645803,20260107120330.464541,18.3405925,-64.97715633333334,0.0645293061822862,0.4099793192417151,0.15857271296307607,0.2737724945276459,-0.006299932038717568,4.2089664158910365,-3.864397336323555,22.19272022163715,1,2.34,0.4167945981025696,16.56,2.34,0,0,1,0,1,0
1767801810.558408,20260107120330.558369,18.3405925,-64.97715633333334,0.0645293061822862,0.4099793192417151,0.15857271296307607,0.2737724945276459,-0.006299932038717568,5.694698296813655,-4.2378837396293845,21.801893242488724,1,2.34,0.4167945981025696,16.56,2.34,0,0,1,0,1,0
1767801810.6699963,20260107120330.669957,18.340593666666667,-64.9771555,0.08232935270022736,0.4099793192417151,0.1355965105025313,0.2790020926823297,0.03703698820334561,5.694698296813655,-4.2378837396293845,21.801893242488724,1,2.33,0.40028515458106995,16.56,2.33,0,0,1,0,1,0
1767801810.7576706,20260107120330.757631,18.340593666666667,-64.9771555,0.08232935270022736,0.4099793192417151,0.1355965105025313,0.2790020926823297,0.03703698820334561,6.170292222739743,-3.9802348247453523,21.600802156136854,1,2.33,0.40028515458106995,16.56,2.33,0,0,1,0,1,0
1767801810.871729,20260107120330.871690,18.340593666666667,-64.9771555,0.060329352700227115,0.4099793192417151,0.1355965105025313,0.2790020926823297,0.007586896619845729,5.368024746157215,-3.201823286473003,21.19955913477981,1,2.37,0.40028515458106995,16.56,2.37,0,0,1,0,1,0
1767801810.9578898,20260107120330.957850,18.340593666666667,-64.9771555,0.060329352700227115,0.4099793192417151,0.1355965105025313,0.2790020926823297,0.007586896619845729,5.368024746157215,-3.201823286473003,21.19955913477981,1,2.37,0.40028515458106995,16.45,2.37,0,0,1,0,1,0
1767801811.055962,20260107120331.055923,18.340593666666667,-64.9771555,0.07116310809588136,0.4099793192417151,0.1355965105025313,0.2790020926823297,0.032443899994458694,3.349049133892344,-2.1871044073395387,20.82515535136306,1,2.4,0.40028515458106995,16.45,2.4,0,0,1,0,1,0
1767801811.1783874,20260107120331.178348,18.340593666666667,-64.9771555,0.07116310809588136,0.4099793192417151,0.1355965105025313,0.2790020926823297,0.032443899994458694,3.349049133892344,-2.1871044073395387,20.82515535136306,1,2.4,0.35274791717529297,16.45,2.4,0,0,1,0,1,0
1767801811.2567434,20260107120331.256704,18.340595,-64.97715433333333,0.0721921043972124,0.4099793192417151,0.18883432727057634,0.33173414217704406,0.027726641990784832,3.0392523463792958,-1.9146081499949055,20.785328504072073,1,2.39,0.35274791717529297,16.45,2.39,0,0,1,0,1,0
1767801811.3572514,20260107120331.357212,18.340595,-64.97715433333333,0.0721921043972124,0.4099793192417151,0.18883432727057634,0.33173414217704406,0.027726641990784832,3.4536340950764575,-1.9364235685609241,20.90242872416819,1,2.39,0.35274791717529297,16.45,2.39,0,0,1,0,1,0
1767801811.460135,20260107120331.460096,18.340595,-64.97715433333333,0.04430507308718186,0.4099793192417151,0.18883432727057634,0.33173414217704406,-0.0227911555162292,3.4536340950764575,-1.9364235685609241,20.90242872416819,1,2.39,0.35274791717529297,16.45,2.39,0,0,1,0,1,0
1767801811.6092281,20260107120331.609189,18.340595,-64.97715433333333,0.04430507308718186,0.4099793192417151,0.18883432727057634,0.33173414217704406,-0.0227911555162292,3.6465919173225627,-1.8704125413939316,20.929619716976532,1,2.39,0.35274791717529297,16.39,2.39,0,0,1,0,1,0
1767801811.6724317,20260107120331.672392,18.3405965,-64.97715266666667,0.04444462400676967,0.4099793192417151,0.294805290368407,0.39107780202989484,-0.040399284750014745,3.5531764538593453,-1.673193106468763,20.90188913903082,1,2.39,0.33620014786720276,16.39,2.39,0,0,1,0,1,0
1767801811.784856,20260107120331.784817,18.3405965,-64.97715266666667,0.04444462400676967,0.4099793192417151,0.294805290368407,0.39107780202989484,-0.040399284750014745,3.194036868035036,-1.3749427578762135,20.914917729531158,1,2.41,0.33620014786720276,16.39,2.41,0,0,1,0,1,0
1767801811.8798945,20260107120331.879855,18.3405965,-64.97715266666667,0.03860899194767025,0.4099793192417151,0.294805290368407,0.39107780202989484,-0.0241904410917295,2.7531642211697873,-1.1650046523950954,21.2010720222219,1,2.41,0.6037450432777405,16.39,2.41,0,0,1,0,1,0
1767801811.9571412,20260107120331.957102,18.3405965,-64.97715266666667,0.03860899194767025,0.4099793192417151,0.294805290368407,0.39107780202989484,-0.0241904410917295,2.7531642211697873,-1.1650046523950954,21.2010720222219,1,2.4,0.6037450432777405,16.39,2.4,0,0,1,0,1,0
1767801812.0613186,20260107120332.061279,18.3405965,-64.97715266666667,0.030091881360190004,0.4099793192417151,0.294805290368407,0.39107780202989484,-0.04034414677130412,2.48040222668274,-1.1788003587909002,21.31220948504054,1,2.4,0.6037450432777405,16.39,2.4,0,0,1,0,1,0
1767801812.1608121,20260107120332.160773,18.3405965,-64.97715266666667,0.030091881360190004,0.4099793192417151,0.294805290368407,0.39107780202989484,-0.04034414677130412,1.8331617435581855,-0.7231877849003261,21.33072613450134,1,2.41,0.6037450432777405,16.45,2.41,0,0,1,0,1,0
1767801812.2595644,20260107120332.259525,18.340597833333334,-64.977151,0.030194544861044663,0.4099793192417151,0.2785057355852746,0.34837900594837157,-0.042012974435802326,1.8331617435581855,-0.7231877849003261,21.33072613450134,1,2.41,0.6037450432777405,16.45,2.41,0,0,1,0,1,0
1767801812.3673491,20260107120332.367310,18.340597833333334,-64.977151,0.030194544861044663,0.4099793192417151,0.2785057355852746,0.34837900594837157,-0.042012974435802326,1.5813860464084768,-0.6053041204819413,21.356021749137284,1,2.41,0.6037450432777405,16.45,2.41,0,0,1,0,1,0
1767801812.456079,20260107120332.456040,18.340597833333334,-64.977151,0.03521264035034719,0.4099793192417151,0.2785057355852746,0.34837900594837157,-0.013623594622352464,1.2995218611024195,-0.8280177792085297,21.680244114778844,1,2.41,0.6037450432777405,16.45,2.41,0,0,1,0,1,0
1767801812.5628605,20260107120332.562821,18.340597833333334,-64.977151,0.03521264035034719,0.4099793192417151,0.2785057355852746,0.34837900594837157,-0.013623594622352464,1.2995218611024195,-0.8280177792085297,21.680244114778844,1,2.39,0.6037450432777405,16.45,2.39,0,0,1,0,1,0
1767801812.6718175,20260107120332.671778,18.3405995,-64.97714966666668,0.027769603405023262,0.4099793192417151,0.2856078157686165,0.3754573205098956,-0.0242886311464262,1.104470051518443,-0.7123487510595433,21.867137581736188,1,2.39,0.6037450432777405,16.45,2.39,0,0,1,0,1,0
1767801812.763496,20260107120332.763457,18.3405995,-64.97714966666668,0.027769603405023262,0.4099793192417151,0.2856078157686165,0.3754573205098956,-0.0242886311464262,0.8782272114414592,-0.33795745408683603,21.941948670465138,1,2.4,0.6037450432777405,16.39,2.4,0,0,1,0,1,0
1767801812.8571107,20260107120332.857071,18.3405995,-64.97714966666668,0.029355327659020207,0.4099793192417151,0.2856078157686165,0.3754573205098956,-0.012186681535872485,1.2858757785916206,0.23684345754180516,21.847671535641314,1,2.4,0.4338489770889282,16.39,2.4,0,0,1,0,1,0
1767801812.9595935,20260107120332.959554,18.3405995,-64.97714966666668,0.029355327659020207,0.4099793192417151,0.2856078157686165,0.3754573205098956,-0.012186681535872485,1.2858757785916206,0.23684345754180516,21.847671535641314,1,2.39,0.4338489770889282,16.39,2.39,0,0,1,0,1,0
1767801813.0576067,20260107120333.057567,18.3405995,-64.97714966666668,0.020338714951253743,0.4099793192417151,0.2856078157686165,0.3754573205098956,-0.030360636091655048,1.790863647564488,-0.09592337108496149,21.8111812369529,1,2.39,0.4338489770889282,16.39,2.39,0,0,1,0,1,0
1767801813.170031,20260107120333.169992,18.3405995,-64.97714966666668,0.020338714951253743,0.4099793192417151,0.2856078157686165,0.3754573205098956,-0.030360636091655048,2.4863274179063617,-1.2507994362886954,21.614676624268633,1,2.36,0.4274357557296753,16.39,2.36,0,0,1,0,1,0
1767801813.2639773,20260107120333.263938,18.340600833333333,-64.97714883333333,0.022654975589679313,0.4099793192417151,0.19608329478315278,0.3275015812918368,-0.03164560243498639,2.4863274179063617,-1.2507994362886954,21.614676624268633,1,2.36,0.4274357557296753,16.39,2.36,0,0,1,0,1,0
1767801813.3589213,20260107120333.358882,18.340600833333333,-64.97714883333333,0.022654975589679313,0.4099793192417151,0.19608329478315278,0.3275015812918368,-0.03164560243498639,2.3601342917829626,-1.489552305912222,21.338525147194034,1,2.36,0.4274357557296753,16.48,2.36,0,0,1,0,1,0
1767801813.4563825,20260107120333.456343,18.340600833333333,-64.97714883333333,0.028362284580768435,0.4099793192417151,0.19608329478315278,0.3275015812918368,-0.021411992191993155,1.5838374448668084,-1.7228564968988263,20.85789822382366,1,2.35,0.4274357557296753,16.48,2.35,0,0,1,0,1,0
1767801813.5570602,20260107120333.557021,18.340600833333333,-64.97714883333333,0.028362284580768435,0.4099793192417151,0.19608329478315278,0.3275015812918368,-0.021411992191993155,1.5838374448668084,-1.7228564968988263,20.85789822382366,1,2.35,0.4274357557296753,16.48,2.35,0,0,1,0,1,0
1767801813.662994,20260107120333.662955,18.340602333333333,-64.97714850000001,0.04700097273718983,0.4099793192417151,0.1462250891896523,0.30642962620418773,0.027432518330986404,1.8093017498217396,-1.7406100858904383,20.41976192247308,1,2.36,0.4274357557296753,16.48,2.36,0,0,1,0,1,0
1767801813.7609913,20260107120333.760952,18.340602333333333,-64.97714850000001,0.04700097273718983,0.4099793192417151,0.1462250891896523,0.30642962620418773,0.027432518330986404,1.8093017498217396,-1.7406100858904383,20.41976192247308,1,2.36,0.4274357557296753,16.48,2.36,0,0,1,0,1,0
1767801813.8607662,20260107120333.860727,18.340602333333333,-64.97714850000001,0.07412108520666542,0.4099793192417151,0.1462250891896523,0.30642962620418773,0.05345027415274226,3.162944768598663,-0.41185268348967274,20.221717101580275,1,2.32,0.4274357557296753,16.48,2.32,0,0,1,0,1,0
1767801814.0487838,20260107120334.048744,18.340602333333333,-64.97714850000001,0.07412108520666542,0.4099793192417151,0.1462250891896523,0.30642962620418773,0.05345027415274226,3.162944768598663,-0.41185268348967274,20.221717101580275,1,2.32,0.4274357557296753,16.45,2.32,0,0,1,0,1,0
1767801814.0726745,20260107120334.072635,18.340602333333333,-64.97714850000001,0.029828774236328133,0.4099793192417151,0.1462250891896523,0.30642962620418773,0.023587870725786608,3.974253284440922,0.11825606994387147,20.351897138613815,1,2.34,0.4274357557296753,16.45,2.34,0,0,1,0,1,0
1767801814.1721826,20260107120334.172143,18.340602333333333,-64.97714850000001,0.029828774236328133,0.4099793192417151,0.1462250891896523,0.30642962620418773,0.023587870725786608,4.827443681475509,-0.5575805578306281,20.425762245804428,1,2.34,0.4274357557296753,16.45,2.34,0,0,1,0,1,0
1767801814.2579632,20260107120334.257924,18.340603666666667,-64.97714816666667,0.02110221294508147,0.4099793192417151,0.10836730690707796,0.3157954169562009,0.012539037264100689,4.827443681475509,-0.5575805578306281,20.425762245804428,1,2.32,0.4274357557296753,16.45,2.32,0,0,1,0,1,0
1767801814.3581278,20260107120334.358088,18.340603666666667,-64.97714816666667,0.02110221294508147,0.4099793192417151,0.10836730690707796,0.3157954169562009,0.012539037264100689,4.546150777664768,-1.491173195759203,20.061931599003433,1,2.32,0.7180905342102051,16.45,2.32,0,0,1,0,1,0
1767801814.45997,20260107120334.459931,18.340603666666667,-64.97714816666667,0.025784748301766143,0.4099793192417151,0.10836730690707796,0.3157954169562009,0.013311492932848298,4.078780829326796,-2.1053871411167036,19.62381237313189,1,2.35,0.7180905342102051,16.45,2.35,0,0,1,0,1,0
1767801814.5651498,20260107120334.565110,18.340603666666667,-64.97714816666667,0.025784748301766143,0.4099793192417151,0.10836730690707796,0.3157954169562009,0.013311492932848298,3.4407367723211513,-2.3769000643126637,19.120403345638877,1,2.35,0.40226617455482483,16.42,2.35,0,0,1,0,1,0
1767801814.662195,20260107120334.662156,18.340604833333334,-64.9771475,0.05459887772536201,0.4099793192417151,0.10775934592107467,0.3457628682826422,0.007687568268079989,3.4407367723211513,-2.3769000643126637,19.120403345638877,1,2.35,0.40226617455482483,16.42,2.35,0,0,1,0,1,0
1767801814.7565482,20260107120334.756509,18.340604833333334,-64.9771475,0.05459887772536201,0.4099793192417151,0.10775934592107467,0.3457628682826422,0.007687568268079989,3.914564239941525,-2.3469974854342603,19.129559217495085,1,2.35,0.40226617455482483,16.42,2.35,0,0,1,0,1,0
1767801814.8709855,20260107120334.870946,18.340604833333334,-64.9771475,0.05628544746376221,0.4099793192417151,0.10775934592107467,0.3457628682826422,0.033109368372709565,3.914564239941525,-2.3469974854342603,19.129559217495085,1,2.36,0.40226617455482483,16.42,2.36,0,0,1,0,1,0
1767801814.959086,20260107120334.959047,18.340604833333334,-64.9771475,0.05628544746376221,0.4099793192417151,0.10775934592107467,0.3457628682826422,0.033109368372709565,4.375435260960446,-2.4292927566222806,19.096152750319614,1,2.36,0.40226617455482483,16.42,2.36,0,0,1,0,1,0
1767801815.07409,20260107120335.074051,18.340604833333334,-64.9771475,0.06528544746376255,0.4099793192417151,0.10775934592107467,0.3457628682826422,0.05528514085194666,4.571977012811587,-2.356194338440145,18.982208078748364,1,2.35,0.40226617455482483,16.42,2.35,0,0,1,0,1,0
1767801815.1581235,20260107120335.158084,18.340604833333334,-64.9771475,0.06528544746376255,0.4099793192417151,0.10775934592107467,0.3457628682826422,0.05528514085194666,4.2283837968706965,-2.0977332710847225,18.795081319147695,1,2.35,0.40226617455482483,16.48,2.35,0,0,1,0,1,0
1767801815.2887077,20260107120335.288668,18.340606333333334,-64.97714649999999,0.0473239547362026,0.4099793192417151,0.11509755508614349,0.3308870080992027,0.02698940355757293,2.9351879738621287,-1.200375439989563,18.487900281578654,1,2.38,0.40226617455482483,16.48,2.38,0,0,1,0,1,0
1767801815.393962,20260107120335.393923,18.340606333333334,-64.97714649999999,0.0473239547362026,0.4099793192417151,0.11509755508614349,0.3308870080992027,0.02698940355757293,2.9351879738621287,-1.200375439989563,18.487900281578654,1,2.36,0.40226617455482483,16.48,2.36,0,0,1,0,1,0
1767801815.4652655,20260107120335.465226,18.340606333333334,-64.97714649999999,0.05233365342638452,0.4099793192417151,0.11509755508614349,0.3308870080992027,-0.003138541853388811,2.3864956297539037,-1.0137733244821394,18.661325676805145,1,2.36,0.40226617455482483,16.48,2.36,0,0,1,0,1,0
1767801815.5571396,20260107120335.557100,18.340606333333334,-64.97714649999999,0.05233365342638452,0.4099793192417151,0.11509755508614349,0.3308870080992027,-0.003138541853388811,2.871372426411497,-1.2876629409156701,19.255333780938738,1,2.35,0.40226617455482483,16.48,2.35,0,0,1,0,1,0
1767801815.6592684,20260107120335.659229,18.340607833333333,-64.9771455,0.06404638953064504,0.4099793192417151,0.15901231636993335,0.37680175165557317,0.010227367626482303,2.871372426411497,-1.2876629409156701,19.255335264702808,1,2.35,0.40226617455482483,16.48,2.35,0,0,1,0,1,0
1767801815.7631612,20260107120335.763122,18.340607833333333,-64.9771455,0.06404638953064504,0.4099793192417151,0.15901231636993335,0.37680175165557317,0.010227367626482303,3.5033096517853317,-1.1782606669317894,19.39254698400117,1,2.35,0.40226617455482483,16.45,2.35,0,0,1,0,1,0
1767801815.889837,20260107120335.889798,18.340607833333333,-64.9771455,0.05794359226657094,0.4099793192417151,0.15901231636993335,0.37680175165557317,0.002076888839858882,4.212100193180132,-0.15417540730218962,19.43743841837264,1,2.35,0.40226617455482483,16.45,2.35,0,0,1,0,1,0
1767801815.9737747,20260107120335.973735,18.340607833333333,-64.9771455,0.05794359226657094,0.4099793192417151,0.15901231636993335,0.37680175165557317,0.002076888839858882,4.212100193180132,-0.15417540730218962,19.43743841837264,1,2.36,0.40226617455482483,16.45,2.36,0,0,1,0,1,0
1767801816.056752,20260107120336.056713,18.340607833333333,-64.9771455,0.013995207087457398,0.4099793192417151,0.15901231636993335,0.37680175165557317,-0.024266516350564492,3.7572354719102257,0.2937040556615254,19.589809747954387,1,2.36,0.40226617455482483,16.45,2.36,0,0,1,0,1,0
1767801816.1628444,20260107120336.162805,18.340607833333333,-64.9771455,0.013995207087457398,0.4099793192417151,0.15901231636993335,0.37680175165557317,-0.024266516350564492,3.7572354719102257,0.2937040556615254,19.589809747954387,1,2.35,0.40226617455482483,16.45,2.35,0,0,1,0,1,0
1767801816.258189,20260107120336.258150,18.340609500000003,-64.97714466666666,0.03788469501412147,0.4099793192417151,0.17342394139615222,0.37549589893616897,0.023586134205819377,2.83734121014698,-0.029417261747825257,19.82512350937939,1,2.35,0.40226617455482483,16.45,2.35,0,0,1,0,1,0
1767801816.3577077,20260107120336.357668,18.340609500000003,-64.97714466666666,0.03788469501412147,0.4099793192417151,0.17342394139615222,0.37549589893616897,0.023586134205819377,2.83734121014698,-0.029417261747825257,19.82512350937939,1,2.36,0.40226617455482483,16.39,2.36,0,0,1,0,1,0
1767801816.4600437,20260107120336.460004,18.340609500000003,-64.97714466666666,0.02716858987951517,0.4099793192417151,0.17342394139615222,0.37549589893616897,0.008121693829918095,2.712440484342711,-0.0643156455427369,19.78012279194213,1,2.36,0.40226617455482483,16.39,2.36,0,0,1,0,1,0
1767801816.5669951,20260107120336.566956,18.340609500000003,-64.97714466666666,0.02716858987951517,0.4099793192417151,0.17342394139615222,0.37549589893616897,0.008121693829918095,3.9790911945372693,0.7556486974244975,19.90625935554124,1,2.34,0.40226617455482483,16.39,2.34,0,0,1,0,1,0
1767801816.6568177,20260107120336.656778,18.340611333333335,-64.97714366666668,0.04041537749915501,0.4099793192417151,0.17077619196839666,0.40310570630345455,0.008997275650548364,3.9790911945372693,0.7556486974244975,19.90625935554124,1,2.34,0.32472503185272217,16.39,2.34,0,0,1,0,1,0
1767801816.7607367,20260107120336.760697,18.340611333333335,-64.97714366666668,0.04041537749915501,0.4099793192417151,0.17077619196839666,0.40310570630345455,0.008997275650548364,4.700214287218439,1.1677023646384521,20.055693702729712,1,2.32,0.32472503185272217,16.39,2.32,0,0,1,0,1,0
1767801816.8626428,20260107120336.862603,18.340611333333335,-64.97714366666668,0.038649812220717464,0.4099793192417151,0.17077619196839666,0.40310570630345455,0.05471807408468425,5.138000114361929,1.2530471029378516,20.18048471858123,1,2.32,0.32472503185272217,16.39,2.32,0,0,1,0,1,0
1767801816.971661,20260107120336.971622,18.340611333333335,-64.97714366666668,0.038649812220717464,0.4099793192417151,0.17077619196839666,0.40310570630345455,0.05471807408468425,4.519740988022075,-0.1866313572652603,19.97989565131285,1,2.32,0.32472503185272217,16.42,2.32,0,0,1,0,1,0
1767801817.069196,20260107120337.069157,18.340611333333335,-64.97714366666668,0.031125092956311398,0.4099793192417151,0.17077619196839666,0.40310570630345455,0.036259048140638704,4.519740988022075,-0.1866313572652603,19.97989565131285,1,2.32,0.32472503185272217,16.42,2.32,0,0,1,0,1,0
1767801817.1677969,20260107120337.167757,18.340611333333335,-64.97714366666668,0.031125092956311398,0.4099793192417151,0.17077619196839666,0.40310570630345455,0.036259048140638704,3.2334632953427596,-1.8420149525485896,19.740415473004365,1,2.33,0.32472503185272217,16.42,2.33,0,0,1,0,1,0
1767801817.2639909,20260107120337.263952,18.340613,-64.977143,0.03620947856306629,0.4099793192417151,0.14698794929560124,0.34278333933094496,0.011206938084724605,3.2334632953427596,-1.8420149525485896,19.740415473004365,1,2.33,0.32472503185272217,16.42,2.33,0,0,1,0,1,0
1767801817.3668168,20260107120337.366777,18.340613,-64.977143,0.03620947856306629,0.4099793192417151,0.14698794929560124,0.34278333933094496,0.011206938084724605,2.6008197854675226,-2.0414311478510467,19.82063265839435,1,2.32,0.32472503185272217,16.42,2.32,0,0,1,0,1,0
1767801817.4578283,20260107120337.457789,18.340613,-64.977143,0.0397942328170522,0.4099793192417151,0.14698794929560124,0.34278333933094496,-0.0007879656863698167,2.1949360757969183,-1.5651375541716777,20.024018689127946,1,2.32,0.32472503185272217,16.42,2.32,0,0,1,0,1,0
1767801817.5647602,20260107120337.564721,18.340613,-64.977143,0.0397942328170522,0.4099793192417151,0.14698794929560124,0.34278333933094496,-0.0007879656863698167,2.1949360757969183,-1.5651375541716777,20.024018689127946,1,2.32,0.32472503185272217,16.45,2.32,0,0,1,0,1,0
1767801817.6567872,20260107120337.656748,18.340613,-64.977143,0.04189216361222622,0.4099793192417151,0.14698794929560124,0.34278333933094496,0.001468837893275674,2.263115475357311,-1.40160910659134,20.026272652359985,1,2.31,0.32472503185272217,16.45,2.31,0,0,1,0,1,0
1767801817.7610319,20260107120337.760992,18.340614833333333,-64.9771425,0.04189216361222622,0.4099793192417151,0.13078888855889378,0.3695413889678498,0.001468837893275674,2.387744914488482,-1.437021835831176,20.037002883382808,1,2.31,0.32472503185272217,16.45,2.31,0,0,1,0,1,0
1767801817.8565469,20260107120337.856508,18.340614833333333,-64.9771425,0.058995775600793825,0.4099793192417151,0.13078888855889378,0.3695413889678498,0.0281010801270489,2.249664480194437,-2.3716472200758725,20.114211369367602,1,2.32,0.32472503185272217,16.45,2.32,0,0,1,0,1,0
1767801817.9628606,20260107120337.962821,18.340614833333333,-64.9771425,0.058995775600793825,0.4099793192417151,0.13078888855889378,0.3695413889678498,0.0281010801270489,2.249664480194437,-2.3716472200758725,20.114211369367602,1,2.32,0.32472503185272217,16.45,2.32,0,0,1,0,1,0
1767801818.0688548,20260107120338.068815,18.340614833333333,-64.9771425,0.0605036881372961,0.4099793192417151,0.13078888855889378,0.3695413889678498,0.025318062487891885,2.0510772993989157,-2.5783693725250623,19.956474924274467,1,2.35,0.32472503185272217,16.45,2.35,0,0,1,0,1,0
1767801818.1570377,20260107120338.156998,18.340614833333333,-64.9771425,0.0605036881372961,0.4099793192417151,0.13078888855889378,0.3695413889678498,0.025318062487891885,1.7313313773069403,-2.0932501040652367,19.669022895177388,1,2.35,0.32472503185272217,16.48,2.35,0,0,1,0,1,0
1767801818.2663682,20260107120338.266329,18.340616666666666,-64.97714166666667,0.04494476048673959,0.4099793192417151,0.1537543664829915,0.3762003882576066,0.004659426410078665,1.9274448547996452,0.0014013632196971527,19.29161724254705,1,2.35,1.3597732782363892,16.48,2.35,0,0,1,0,1,0
1767801818.372362,20260107120338.372323,18.340616666666666,-64.97714166666667,0.04494476048673959,0.4099793192417151,0.1537543664829915,0.3762003882576066,0.004659426410078665,1.9274448547996452,0.0014013632196971527,19.29161724254705,1,2.35,1.3597732782363892,16.48,2.35,0,0,1,0,1,0
1767801818.4814208,20260107120338.481381,18.340616666666666,-64.97714166666667,0.04397324324131531,0.4099793192417151,0.1537543664829915,0.3762003882576066,-0.002583042906586264,2.482399417398857,0.4874333693945816,19.372742843421477,1,2.33,1.3597732782363892,16.48,2.33,0,0,1,0,1,0
1767801818.567317,20260107120338.567278,18.340616666666666,-64.97714166666667,0.04397324324131531,0.4099793192417151,0.1537543664829915,0.3762003882576066,-0.002583042906586264,2.851367222066211,0.20704066349398728,19.48800232687809,1,2.33,1.3597732782363892,16.48,2.33,0,0,1,0,1,0
1767801818.6586506,20260107120338.658611,18.340618333333335,-64.97714083333334,0.02356787803563777,0.4099793192417151,0.20025998201445425,0.3771104620964665,-0.042779352444404735,2.7701613664403437,-0.8274043426243554,18.974264219641462,1,2.33,0.49844658374786377,16.48,2.33,0,0,1,0,1,0
1767801818.7571762,20260107120338.757137,18.340618333333335,-64.97714083333334,0.02356787803563777,0.4099793192417151,0.20025998201445425,0.3771104620964665,-0.042779352444404735,2.7701613664403437,-0.8274043426243554,18.974264219641462,1,2.33,0.49844658374786377,16.34,2.33,0,0,1,0,1,0
1767801818.8585606,20260107120338.858521,18.340618333333335,-64.97714083333334,0.03673798806857437,0.4099793192417151,0.20025998201445425,0.3771104620964665,-0.02105109415328843,2.6440102886840564,0.077363766122241,18.421073340582655,1,2.35,0.49844658374786377,16.34,2.35,0,0,1,0,1,0
1767801818.9628096,20260107120338.962770,18.340618333333335,-64.97714083333334,0.03673798806857437,0.4099793192417151,0.20025998201445425,0.3771104620964665,-0.02105109415328843,2.6440102886840564,0.077363766122241,18.421073340582655,1,2.35,0.49844658374786377,16.34,2.35,0,0,1,0,1,0
1767801819.0671778,20260107120339.067138,18.340618333333335,-64.97714083333334,0.043427935005363204,0.4099793192417151,0.20025998201445425,0.3771104620964665,-0.017130820495620064,2.8002919029638043,0.5902135591669044,18.55619502124766,1,2.37,0.49844658374786377,16.34,2.37,0,0,1,0,1,0
1767801819.157006,20260107120339.156967,18.340618333333335,-64.97714083333334,0.043427935005363204,0.4099793192417151,0.20025998201445425,0.3771104620964665,-0.017130820495620064,2.8778873619921375,0.6581134544799141,18.743485705447004,1,2.37,0.49844658374786377,16.34,2.37,0,0,1,0,1,0
1767801819.2562108,20260107120339.256171,18.340620166666668,-64.97713966666667,0.04436579181241966,0.4099793192417151,0.2476360916239374,0.38632584828128097,0.00010632199869759916,2.7296226851172616,0.00308708652612198,18.302238251817023,1,2.37,0.49844658374786377,16.34,2.37,0,0,1,0,1,0
1767801819.3618352,20260107120339.361796,18.340620166666668,-64.97713966666667,0.04436579181241966,0.4099793192417151,0.2476360916239374,0.38632584828128097,0.00010632199869759916,2.7296226851172616,0.00308708652612198,18.302238251817023,1,2.37,0.49844658374786377,16.42,2.37,0,0,1,0,1,0
1767801819.4696844,20260107120339.469645,18.340620166666668,-64.97713966666667,0.05294440966271651,0.4099793192417151,0.2476360916239374,0.38632584828128097,0.015456588957655115,4.090204324798272,-0.26416022192537386,17.710490941107093,1,2.35,0.49844658374786377,16.42,2.35,0,0,1,0,1,0
1767801819.5739472,20260107120339.573908,18.340620166666668,-64.97713966666667,0.05294440966271651,0.4099793192417151,0.2476360916239374,0.38632584828128097,0.015456588957655115,4.090204324798272,-0.26416022192537386,17.710490941107093,1,2.35,0.49844658374786377,16.42,2.35,0,0,1,0,1,0
1767801819.6592207,20260107120339.659181,18.340622,-64.97713866666666,0.019767450840162536,0.4099793192417151,0.24290022024812732,0.3734624795997757,-0.011149890176238356,5.061843050998436,-0.08889072832446075,17.90158604203442,1,2.36,0.49844658374786377,16.42,2.36,0,0,1,0,1,0
1767801819.7679586,20260107120339.767919,18.340622,-64.97713866666666,0.019767450840162536,0.4099793192417151,0.24290022024812732,0.3734624795997757,-0.011149890176238356,6.120997022326278,-0.5379694768857175,18.677458243131433,1,2.36,0.49844658374786377,16.42,2.36,0,0,1,0,1,0
1767801819.8590667,20260107120339.859027,18.340622,-64.97713866666666,0.03550353935180648,0.4099793192417151,0.24290022024812732,0.3734624795997757,0.00016450060767346855,6.120997022326278,-0.5379694768857175,18.677458243131433,1,2.37,0.49844658374786377,16.42,2.37,0,0,1,0,1,0
1767801819.9572082,20260107120339.957169,18.340622,-64.97713866666666,0.03550353935180648,0.4099793192417151,0.24290022024812732,0.3734624795997757,0.00016450060767346855,6.168689262145744,-1.167977173129093,18.786833516514108,1,2.36,0.49844658374786377,16.39,2.36,0,0,1,0,1,0
1767801820.0650494,20260107120340.065010,18.340622,-64.97713866666666,0.04297354948457896,0.4099793192417151,0.24290022024812732,0.3734624795997757,0.005681794763636602,5.445263114230323,-2.0643961730428,18.760697788309834,1,2.36,0.49844658374786377,16.39,2.36,0,0,1,0,1,0
1767801820.1616626,20260107120340.161623,18.340622,-64.97713866666666,0.04297354948457896,0.4099793192417151,0.24290022024812732,0.3734624795997757,0.005681794763636602,5.445263114230323,-2.0643961730428,18.760697788309834,1,2.34,0.49844658374786377,16.39,2.34,0,0,1,0,1,0
1767801820.275585,20260107120340.275546,18.340623666666666,-64.977138,0.05825431724829569,0.4099793192417151,0.19824338841305328,0.36710277030283617,0.03534701823469349,5.0781766004651665,-2.0186720956250994,18.931124729418563,1,2.34,0.49844658374786377,16.39,2.34,0,0,1,0,1,0
1767801820.3734722,20260107120340.373433,18.340623666666666,-64.977138,0.05825431724829569,0.4099793192417151,0.19824338841305328,0.36710277030283617,0.03534701823469349,4.772525098930287,-1.6368242571249576,19.145558595084932,1,2.35,0.49844658374786377,16.39,2.35,0,0,1,0,1,0
1767801820.4572423,20260107120340.457203,18.340623666666666,-64.977138,0.06430941819732655,0.4099793192417151,0.19824338841305328,0.36710277030283617,0.0696548015095221,3.472426940410571,-0.6242034207556357,19.794604383230006,1,2.35,0.49844658374786377,16.39,2.35,0,0,1,0,1,0
1767801820.5874662,20260107120340.587427,18.340623666666666,-64.977138,0.06430941819732655,0.4099793192417151,0.19824338841305328,0.36710277030283617,0.0696548015095221,3.472426940410571,-0.6242034207556357,19.794604383230006,1,2.33,2.5540771484375,16.42,2.33,0,0,1,0,1,0
1767801820.701367,20260107120340.701328,18.340625333333332,-64.97713733333333,0.0483008190601321,0.4099793192417151,0.16433587497046573,0.38012178735680424,0.024290503970408307,2.4586899013213674,-0.6651062900299165,20.138070813739095,1,2.33,2.5540771484375,16.42,2.33,0,0,1,0,1,0
1767801820.7577784,20260107120340.757739,18.340625333333332,-64.97713733333333,0.0483008190601321,0.4099793192417151,0.16433587497046573,0.38012178735680424,0.024290503970408307,1.5299248214799785,-1.4256560768231707,20.502604970276163,1,2.33,0.5123969316482544,16.42,2.33,0,0,1,0,1,0
1767801820.8570995,20260107120340.857060,18.340625333333332,-64.97713733333333,0.0629319487607933,0.4099793192417151,0.16433587497046573,0.38012178735680424,0.02317062409255777,1.5299248214799785,-1.4256560768231707,20.502604970276163,1,2.33,0.5123969316482544,16.42,2.33,0,0,1,0,1,0
1767801820.9842665,20260107120340.984227,18.340625333333332,-64.97713733333333,0.0629319487607933,0.4099793192417151,0.16433587497046573,0.38012178735680424,0.02317062409255777,2.6694747371189167,-0.7181617243694102,20.623683776986393,1,2.31,0.5123969316482544,16.42,2.31,0,0,1,0,1,0
1767801821.0787349,20260107120341.078695,18.340625333333332,-64.97713733333333,0.026978672472417795,0.4099793192417151,0.16433587497046573,0.38012178735680424,-0.017793714228341383,2.6694747371189167,-0.7181617243694102,20.623683776986393,1,2.31,0.5123969316482544,16.42,2.31,0,0,1,0,1,0
1767801821.1568139,20260107120341.156774,18.340625333333332,-64.97713733333333,0.026978672472417795,0.4099793192417151,0.16433587497046573,0.38012178735680424,-0.017793714228341383,3.103124669797706,0.01753155440334599,20.81463202879409,1,2.32,0.5123969316482544,16.48,2.32,0,0,1,0,1,0
1767801821.2613904,20260107120341.261351,18.340627166666664,-64.977137,0.026833616924202042,0.4099793192417151,0.13227850456543755,0.3826453742695055,-0.06601583594192903,2.783779274410741,0.5098407734742427,21.283852532172016,1,2.32,0.5123969316482544,16.48,2.32,0,0,1,0,1,0
1767801821.3808703,20260107120341.380831,18.340627166666664,-64.977137,0.026833616924202042,0.4099793192417151,0.13227850456543755,0.3826453742695055,-0.06601583594192903,2.783779274410741,0.5098407734742427,21.283852532172016,1,2.31,0.5123969316482544,16.48,2.31,0,0,1,0,1,0
1767801821.4666715,20260107120341.466632,18.340627166666664,-64.977137,0.027404099702514374,0.4099793192417151,0.13227850456543755,0.3826453742695055,-0.05177099272470973,2.2076001048199707,-0.18685920818857482,21.346502464735302,1,2.31,0.5123969316482544,16.48,2.31,0,0,1,0,1,0
1767801821.557438,20260107120341.557399,18.340627166666664,-64.977137,0.027404099702514374,0.4099793192417151,0.13227850456543755,0.3826453742695055,-0.05177099272470973,2.001709101312594,-0.9899666916176637,21.240204192673982,1,2.31,0.5123969316482544,16.48,2.31,0,0,1,0,1,0
1767801821.6587682,20260107120341.658729,18.340628833333334,-64.97713666666667,0.036282095649784504,0.4099793192417151,0.11455334389484022,0.3813425026612482,-0.011213854815761889,2.576948906113195,-0.9672964318826761,21.185885205455488,1,2.31,0.5123969316482544,16.48,2.31,0,0,1,0,1,0
1767801821.7567642,20260107120341.756725,18.340628833333334,-64.97713666666667,0.036282095649784504,0.4099793192417151,0.11455334389484022,0.3813425026612482,-0.011213854815761889,2.576948906113195,-0.9672964318826761,21.185885205455488,1,2.3,0.5123969316482544,16.39,2.3,0,0,1,0,1,0
1767801821.858976,20260107120341.858937,18.340628833333334,-64.97713666666667,0.037718071174538105,0.4099793192417151,0.11455334389484022,0.3813425026612482,0.013806244340735983,3.614992462715494,0.9130250099927223,21.577876732273772,1,2.3,2.213752031326294,16.39,2.3,0,0,1,0,1,0
1767801821.972637,20260107120341.972598,18.340628833333334,-64.97713666666667,0.037718071174538105,0.4099793192417151,0.11455334389484022,0.3813425026612482,0.013806244340735983,3.614992462715494,0.9130250099927223,21.577876732273772,1,2.29,2.213752031326294,16.39,2.29,0,0,1,0,1,0
1767801822.0572908,20260107120342.057251,18.340628833333334,-64.97713666666667,0.03356266163303857,0.4099793192417151,0.11455334389484022,0.3813425026612482,0.0050083730800165645,4.155133406925188,1.0322297828793559,21.501371756025037,1,2.31,2.213752031326294,16.39,2.31,0,0,1,0,1,0
1767801822.157195,20260107120342.157156,18.340628833333334,-64.97713666666667,0.03356266163303857,0.4099793192417151,0.11455334389484022,0.3813425026612482,0.0050083730800165645,3.938063941070424,-0.4391848691652486,20.80069313438721,1,2.31,2.213752031326294,16.39,2.31,0,0,1,0,1,0
1767801822.2912188,20260107120342.291179,18.3406305,-64.97713616666667,0.027710359165498726,0.4099793192417151,0.13517430491596516,0.3810862112416445,-0.002159576609499963,3.938063941070424,-0.4391848691652486,20.80069313438721,1,2.33,0.6104515790939331,16.39,2.31,0,0,1,0,1,0
1767801822.3596778,20260107120342.359638,18.3406305,-64.97713616666667,0.027710359165498726,0.4099793192417151,0.13517430491596516,0.3810862112416445,-0.002159576609499963,3.3432088931769006,-0.8112418147522917,20.516639125617232,1,2.33,0.6104515790939331,16.37,2.31,0,0,1,0,1,0
1767801822.4572163,20260107120342.457177,18.3406305,-64.97713616666667,0.020994344677313995,0.4099793192417151,0.13517430491596516,0.3810862112416445,-0.009897865064818,1.777624281619849,0.10486622634027544,20.442965263791734,1,2.33,0.6104515790939331,16.37,2.33,0,0,1,0,1,0
1767801822.5678222,20260107120342.567783,18.3406305,-64.97713616666667,0.020994344677313995,0.4099793192417151,0.13517430491596516,0.3810862112416445,-0.009897865064818,1.777624281619849,0.10486622634027544,20.442965263791734,1,2.33,0.6104515790939331,16.37,2.33,0,0,1,0,1,0
1767801822.661879,20260107120342.661840,18.340632000000003,-64.97713533333334,0.04325340861739123,0.4099793192417151,0.1764113491663907,0.3809157866995478,0.0033069612546216182,1.035158014089601,0.47351749431509904,20.72165757214615,1,2.35,0.6104515790939331,16.37,2.35,0,0,1,0,1,0
1767801822.7724955,20260107120342.772456,18.340632000000003,-64.97713533333334,0.04325340861739123,0.4099793192417151,0.1764113491663907,0.3809157866995478,0.0033069612546216182,-0.13030615545447338,-0.7211028155498166,21.10516941607781,1,2.35,0.3344162404537201,16.37,2.35,0,0,1,0,1,0
1767801822.8999434,20260107120342.899904,18.340632000000003,-64.97713533333334,0.005688342670975444,0.4099793192417151,0.1764113491663907,0.3809157866995478,-0.035234625293430265,-0.13030615545447338,-0.7211028155498166,21.10516941607781,1,2.38,2.794976234436035,16.37,2.38,0,0,1,0,1,0
1767801822.976189,20260107120342.976150,18.340632000000003,-64.97713533333334,0.005688342670975444,0.4099793192417151,0.1764113491663907,0.3809157866995478,-0.035234625293430265,-0.2962973673588721,-1.7295761247843466,21.061415208609766,1,2.38,1.927718997001648,16.37,2.38,0,0,1,0,1,0
1767801823.0604038,20260107120343.060364,18.340632000000003,-64.97713533333334,0.0490316591373377,0.4099793192417151,0.1764113491663907,0.3809157866995478,0.02250323054771374,-0.011383955065359943,-1.9653208286113997,20.894942948444577,1,2.38,1.927718997001648,16.37,2.38,0,0,1,0,1,0
1767801823.1696188,20260107120343.169579,18.340632000000003,-64.97713533333334,0.0490316591373377,0.4099793192417151,0.1764113491663907,0.3809157866995478,0.02250323054771374,0.981518491645517,-0.5055165684923492,19.516528318794442,1,2.38,1.927718997001648,16.37,2.38,0,0,1,0,1,0
1767801823.278714,20260107120343.278675,18.340633500000003,-64.97713449999999,0.06270018487477441,0.4099793192417151,0.19472494458208506,0.36607020875585267,0.04875900896969797,0.981518491645517,-0.5055165684923492,19.516528318794442,1,2.36,1.927718997001648,16.37,2.36,0,0,1,0,1,0
1767801823.3592868,20260107120343.359247,18.340633500000003,-64.97713449999999,0.06270018487477441,0.4099793192417151,0.19472494458208506,0.36607020875585267,0.04875900896969797,1.0965014590635767,0.40002441912386927,18.33816317127533,1,2.36,1.927718997001648,16.37,2.36,0,0,1,0,1,0
1767801823.4927814,20260107120343.492742,18.340633500000003,-64.97713449999999,0.047523555069433086,0.4099793192417151,0.19472494458208506,0.36607020875585267,0.023190717978478357,-0.10364962513978981,0.9854414762310711,15.297378940983513,1,2.37,0.5992603302001953,16.37,2.37,0,0,1,0,1,0
1767801823.5675414,20260107120343.567502,18.340633500000003,-64.97713449999999,0.047523555069433086,0.4099793192417151,0.19472494458208506,0.36607020875585267,0.023190717978478357,-0.10364962513978981,0.9854414762310711,15.297378940983513,1,2.37,0.5992603302001953,16.48,2.37,0,0,1,0,1,0
1767801823.679998,20260107120343.679959,18.340633500000003,-64.97713449999999,0.02411617614341642,0.4099793192417151,0.19472494458208506,0.36607020875585267,0.018770072690645512,-0.973781912262006,0.6235997492110388,11.485285077591609,1,2.37,0.6850038766860962,16.48,2.37,0,0,1,0,1,0
1767801823.760378,20260107120343.760339,18.340634833333336,-64.97713333333333,0.02411617614341642,0.4099793192417151,0.2280939851462633,0.3431790857764643,0.018770072690645512,-0.973781912262006,0.6235997492110388,11.485285077591609,1,2.37,0.5427176356315613,16.48,2.37,0,0,1,0,1,0
1767801823.8585393,20260107120343.858500,18.340634833333336,-64.97713333333333,0.017640430669504516,0.4099793192417151,0.2280939851462633,0.3431790857764643,-0.039241755660850225,-0.4107999268465809,0.6713042620310586,9.42155292723962,1,2.34,0.5427176356315613,16.48,2.34,0,0,1,0,1,0
1767801823.964928,20260107120343.964889,18.340634833333336,-64.97713333333333,0.017640430669504516,0.4099793192417151,0.2280939851462633,0.3431790857764643,-0.039241755660850225,2.680404324359433,0.7915297216767466,5.366452799119437,1,2.34,0.5427176356315613,16.48,2.34,0,0,1,0,1,0
1767801824.0759287,20260107120344.075889,18.340634833333336,-64.97713333333333,0.03931069089258106,0.4099793192417151,0.2280939851462633,0.3431790857764643,-0.009722367832358808,2.680404324359433,0.7915297216767466,5.366452799119437,1,2.34,0.5427176356315613,16.48,2.34,0,0,1,0,1,0
1767801824.1570587,20260107120344.157019,18.340634833333336,-64.97713333333333,0.03931069089258106,0.4099793192417151,0.2280939851462633,0.3431790857764643,-0.009722367832358808,5.654566652221966,0.1799848871352169,0.794332779170942,1,2.34,0.5427176356315613,16.45,2.34,0,0,1,0,1,0
1767801824.2567196,20260107120344.256680,18.340636333333336,-64.9771325,0.021438576128706126,0.4099793192417151,0.2205532926520835,0.3480732625103486,-0.04189795534676792,5.654566652221966,0.1799848871352169,0.794332779170942,1,2.31,1.6584444046020508,16.45,2.31,0,0,1,0,1,0
1767801824.3627188,20260107120344.362679,18.340636333333336,-64.9771325,0.021438576128706126,0.4099793192417151,0.2205532926520835,0.3480732625103486,-0.04189795534676792,6.607809537975475,0.04442538051568202,-1.7731473469327914,1,2.31,0.4427550435066223,16.45,2.31,0,0,1,0,1,0
1767801824.4608994,20260107120344.460860,18.340636333333336,-64.9771325,0.02559734418326702,0.4099793192417151,0.2205532926520835,0.3480732625103486,0.0018564167979029534,7.29301137230693,0.11568578346278689,-4.338664646722007,1,2.31,0.4427550435066223,16.45,2.31,0,0,1,0,1,0
1767801824.5563598,20260107120344.556320,18.340636333333336,-64.9771325,0.02559734418326702,0.4099793192417151,0.2205532926520835,0.3480732625103486,0.0018564167979029534,8.097819680169211,0.367656354516932,-8.96400551971308,1,2.3,0.42113059759140015,16.45,2.3,0,0,1,0,1,0
1767801824.6692648,20260107120344.669225,18.34063816666667,-64.97713183333333,0.0479495992424873,0.4099793192417151,0.18205740530699824,0.37710760757400397,0.023856613988640567,8.097819680169211,0.367656354516932,-8.964004040717148,1,2.3,1.3530548810958862,16.45,2.3,0,0,1,0,1,0
1767801824.7578554,20260107120344.757816,18.34063816666667,-64.97713183333333,0.0479495992424873,0.4099793192417151,0.18205740530699824,0.37710760757400397,0.023856613988640567,8.4647435499966,0.45379734374787706,-10.701443637038595,1,2.29,0.32741209864616394,16.34,2.29,0,0,1,0,1,0
1767801824.8660965,20260107120344.866057,18.34063816666667,-64.97713183333333,0.049504199552825506,0.4099793192417151,0.18205740530699824,0.37710760757400397,0.012763997136026727,9.068389054495086,0.6146542259121321,-12.39228019565924,1,2.29,0.32741209864616394,16.34,2.29,0,0,1,0,1,0
1767801824.9585297,20260107120344.958490,18.34063816666667,-64.97713183333333,0.049504199552825506,0.4099793192417151,0.18205740530699824,0.37710760757400397,0.012763997136026727,9.592010326516617,0.7167414714010433,-13.379182745925737,1,2.3,0.32741209864616394,16.34,2.3,0,0,1,0,1,0
1767801825.0774395,20260107120345.077400,18.34063816666667,-64.97713183333333,0.044332310874309486,0.4099793192417151,0.18205740530699824,0.37710760757400397,0.028621536409569777,10.361419458800544,0.8468603568753222,-14.154869944879612,1,2.3,0.32741209864616394,16.34,2.3,0,0,1,0,1,0
1767801825.1607063,20260107120345.160667,18.34063816666667,-64.97713183333333,0.044332310874309486,0.4099793192417151,0.18205740530699824,0.37710760757400397,0.028621536409569777,12.143530002370463,0.6920082803556682,-15.417312616710552,1,2.3,0.32741209864616394,16.34,2.3,0,0,1,0,1,0
1767801825.255747,20260107120345.255708,18.340639833333334,-64.97713166666668,0.028595577716448498,0.4099793192417151,0.09481783343232873,0.37665082958628826,0.0071461066105749675,12.143530002370463,0.6920082803556682,-15.417312616710552,1,2.3,0.32741209864616394,16.34,2.3,0,0,1,0,1,0
1767801825.3567197,20260107120345.356680,18.340639833333334,-64.97713166666668,0.028595577716448498,0.4099793192417151,0.09481783343232873,0.37665082958628826,0.0071461066105749675,12.74818808277546,0.3693951718909659,-16.210090289100087,1,2.31,0.32741209864616394,16.42,2.31,0,0,1,0,1,0
1767801825.4589028,20260107120345.458863,18.340639833333334,-64.97713166666668,0.03849556232293211,0.4099793192417151,0.09481783343232873,0.37665082958628826,0.012886519490454374,13.339644256567944,0.5730603867067021,-17.143451767731285,1,2.31,0.32741209864616394,16.42,2.31,0,0,1,0,1,0
1767801825.5649154,20260107120345.564876,18.340639833333334,-64.97713166666668,0.03849556232293211,0.4099793192417151,0.09481783343232873,0.37665082958628826,0.012886519490454374,13.339644256567944,0.5730603867067021,-17.143451767731285,1,2.34,0.32741209864616394,16.42,2.34,0,0,1,0,1,0
1767801825.6572537,20260107120345.657214,18.340639833333334,-64.97713166666668,0.044188476340920976,0.4099793192417151,0.09481783343232873,0.37665082958628826,-0.0066907291310229315,13.617974564766866,0.12036734620425808,-17.14965806402841,1,2.34,0.32741209864616394,16.42,2.34,0,0,1,0,1,0
1767801825.7750618,20260107120345.775022,18.3406415,-64.97713183333333,0.044188476340920976,0.4099793192417151,0.017943419105961558,0.3776874064227556,-0.0066907291310229315,13.617974564766866,0.12036734620425808,-17.14965806402841,1,2.32,0.46548712253570557,16.42,2.32,0,0,1,0,1,0
1767801825.8585129,20260107120345.858474,18.3406415,-64.97713183333333,0.03831623012985466,0.4099793192417151,0.017943419105961558,0.3776874064227556,-0.011236026414134861,14.091346117097123,-0.7782513489346965,-17.06205210541841,1,2.32,0.46548712253570557,16.42,2.32,0,0,1,0,1,0
1767801825.9582028,20260107120345.958163,18.3406415,-64.97713183333333,0.03831623012985466,0.4099793192417151,0.017943419105961558,0.3776874064227556,-0.011236026414134861,14.580276845920073,-1.7600949150122713,-16.293684577355336,1,2.35,0.35556894540786743,16.48,2.35,0,0,1,0,1,0
1767801826.0588799,20260107120346.058840,18.3406415,-64.97713183333333,0.04452763082728624,0.4099793192417151,0.017943419105961558,0.3776874064227556,0.00015719701541635003,14.580276845920073,-1.7600949150122713,-16.293684577355336,1,2.38,0.35556894540786743,16.48,2.38,0,0,1,0,1,0
1767801826.1616464,20260107120346.161607,18.3406415,-64.97713183333333,0.04452763082728624,0.4099793192417151,0.017943419105961558,0.3776874064227556,0.00015719701541635003,14.184778869482857,-1.5658970928233111,-15.611580768528768,1,2.38,0.35556894540786743,16.48,2.38,0,0,1,0,1,0
1767801826.2595847,20260107120346.259545,18.340643,-64.9771325,0.060306022514637805,0.4099793192417151,-0.048306652751550154,0.3750149471147799,0.027233418689270712,13.362767870271194,-1.3940125461358563,-14.974546192499066,1,2.38,0.35556894540786743,16.48,2.38,0,0,1,0,1,0
1767801826.3804078,20260107120346.380368,18.340643,-64.9771325,0.060306022514637805,0.4099793192417151,-0.048306652751550154,0.3750149471147799,0.027233418689270712,11.65870165738462,-2.044577304862439,-14.038614900964523,1,2.38,0.35556894540786743,16.48,2.38,0,0,1,0,1,0
1767801826.4608498,20260107120346.460810,18.340643,-64.9771325,0.0529102300265499,0.4099793192417151,-0.048306652751550154,0.3750149471147799,0.010971134029544576,11.65870165738462,-2.044577304862439,-14.038614900964523,1,2.39,0.4208108186721802,16.48,2.39,0,0,1,0,1,0
1767801826.5578458,20260107120346.557806,18.340643,-64.9771325,0.0529102300265499,0.4099793192417151,-0.048306652751550154,0.3750149471147799,0.010971134029544576,11.350960544103371,-2.3930848436683405,-13.403189428699203,1,2.39,0.4208108186721802,16.39,2.39,0,0,1,0,1,0
1767801826.6660318,20260107120346.665992,18.3406445,-64.97713283333333,0.0846331654002389,0.4099793192417151,-0.04967000731552301,0.31610309379836554,0.04080945042083098,11.332138243567929,-2.3286917181394995,-12.489469339988196,1,2.37,0.4208108186721802,16.39,2.37,0,0,1,0,1,0
1767801826.773006,20260107120346.772967,18.3406445,-64.97713283333333,0.0846331654002389,0.4099793192417151,-0.04967000731552301,0.31610309379836554,0.04080945042083098,10.608791923516975,-1.9092791064329442,-10.442132210827447,1,2.37,0.48384395241737366,16.39,2.37,0,0,1,0,1,0
1767801826.865021,20260107120346.864982,18.3406445,-64.97713283333333,0.033643700258004096,0.4099793192417151,-0.04967000731552301,0.31610309379836554,-0.009907292588405392,10.608791923516975,-1.9092791064329442,-10.442132210827447,1,2.38,0.48384395241737366,16.39,2.38,0,0,1,0,1,0
1767801826.9593291,20260107120346.959290,18.3406445,-64.97713283333333,0.033643700258004096,0.4099793192417151,-0.04967000731552301,0.31610309379836554,-0.009907292588405392,8.710872066065656,-1.7350641837447882,-8.561010355872476,1,2.38,0.48384395241737366,16.39,2.38,0,0,1,0,1,0
1767801827.0566819,20260107120347.056642,18.3406445,-64.97713283333333,0.030797654563265303,0.4099793192417151,-0.04967000731552301,0.31610309379836554,-0.03338366314321118,8.710872066065656,-1.7350641837447882,-8.561010355872476,1,2.39,0.48384395241737366,16.39,2.39,0,0,1,0,1,0
1767801827.1582575,20260107120347.158218,18.3406445,-64.97713283333333,0.030797654563265303,0.4099793192417151,-0.04967000731552301,0.31610309379836554,-0.03338366314321118,7.823903383299696,-1.672713712394982,-7.532935463928272,1,2.39,0.48384395241737366,16.39,2.39,0,0,1,0,1,0
1767801827.275802,20260107120347.275763,18.340646166666666,-64.97713333333333,0.046751536950075244,0.4099793192417151,-0.07266561354532175,0.3710652932674275,-0.004286121129025485,6.084767978467034,-1.519317213740944,-5.332070141481449,1,2.35,0.48384395241737366,16.39,2.35,0,0,1,0,1,0
1767801827.3672547,20260107120347.367215,18.340646166666666,-64.97713333333333,0.046751536950075244,0.4099793192417151,-0.07266561354532175,0.3710652932674275,-0.004286121129025485,6.084767978467034,-1.519317213740944,-5.332070141481449,1,2.35,0.4625118374824524,16.39,2.35,0,0,1,0,1,0
1767801827.4722283,20260107120347.472189,18.340646166666666,-64.97713333333333,0.04142608591518824,0.4099793192417151,-0.07266561354532175,0.3710652932674275,-0.05075468995789684,5.262932856689378,-1.5209679856762273,-4.4629239899536355,1,2.35,0.6442390084266663,16.39,2.35,0,0,1,0,1,0
1767801827.5605717,20260107120347.560532,18.340646166666666,-64.97713333333333,0.04142608591518824,0.4099793192417151,-0.07266561354532175,0.3710652932674275,-0.05075468995789684,4.333657540190206,-1.5148867672629642,-3.7164190514674553,1,2.35,0.6442390084266663,16.39,2.35,0,0,1,0,1,0
1767801827.6587987,20260107120347.658759,18.340646166666666,-64.97713333333333,0.04547844104927205,0.4099793192417151,-0.07266561354532175,0.3710652932674275,0.013228106226975976,2.8880368132844434,-0.9565761259820298,-2.6071933723172442,1,2.33,0.44547805190086365,16.39,2.33,0,0,1,0,1,0
1767801827.7640266,20260107120347.763987,18.340647666666666,-64.97713383333333,0.04547844104927205,0.4099793192417151,-0.07701537943304562,0.3738643812566991,0.013228106226975976,2.8880368132844434,-0.9565761259820298,-2.607193728599429,1,2.33,0.3923373520374298,16.42,2.33,0,0,1,0,1,0
1767801827.859691,20260107120347.859652,18.340647666666666,-64.97713383333333,0.02863556991575633,0.4099793192417151,-0.07701537943304562,0.3738643812566991,-0.02266479514736533,2.5914760833419725,-0.28447043701484637,-1.3274710988764378,1,2.29,0.3923373520374298,16.42,2.29,0,0,1,0,1,0
