timestamp_ros,timestamp_sys (%Y%m%d%H%M%S.%f),latitude,longitude,depth,distance_to_ocean_floor,velX,velY,velZ,roll,pitch,yaw,navMode,acousticAltimeter,forwardStereo,battery_volts,altitudeUsed,cotsNumFound,cotsNumMaybe,missionState,errorState,storeData,storeImageData
1754494043.7731616,20250806112723.773101,18.340593590619164,-64.97705045526396,0.1296999999999997,0.0,0.04377882192602007,0.09342598541503228,0.019669523466879113,0.3884562089675984,2.1756247762307637,28.44135005025152,5,1.87,2.8897554874420166,16.53,1.87,0,0,1,160,1,1
1754494043.8785844,20250806112723.878524,18.34059368035823,-64.97705041095543,0.1476999999999986,0.0,0.04378448513484211,0.09342333146209672,0.07698741639905142,0.2065639374637926,1.9517908593580247,28.44482320268632,5,1.87,2.8897554874420166,16.53,1.87,0,0,1,160,1,1
1754494043.9538207,20250806112723.953760,18.34059373813901,-64.97705037031014,0.1476999999999986,0.0,0.05409535175537996,0.08101662124812237,0.07698741639905142,0.009987607767614072,1.789650114614156,28.4303910078097,5,1.91,2.8897554874420166,16.53,1.91,0,0,1,160,1,1
1754494044.058136,20250806112724.058076,18.34059381685006,-64.97705031540072,0.1556999999999995,0.0,0.0537839539945177,0.08122368061541907,0.07867379733013677,-0.4151713828805888,1.7037645105164614,28.21044859260801,5,1.91,3.5594143867492676,16.53,1.91,0,0,1,160,1,1
1754494044.1642928,20250806112724.164233,18.340593893885917,-64.97705026165994,0.1556999999999995,0.0,0.0537839539945177,0.08122368061541907,0.07867379733013677,-0.4151713828805888,1.7037645105164614,28.21044859260801,5,1.91,5.393594741821289,16.53,1.91,0,0,1,160,1,1
1754494044.2836008,20250806112724.283541,18.34059396888603,-64.97705020967614,0.1426999999999996,0.0,0.05354254262430136,0.08138302113662821,-0.06438165072225922,-0.6498499898465404,1.7416983275134235,28.040322179930246,5,1.91,4.416336536407471,16.53,1.91,0,0,1,160,1,1
1754494044.3708432,20250806112724.370783,18.340594044155804,-64.97705015766165,0.1426999999999996,0.0,0.053430481984350894,0.0814566362853264,-0.06438165072225922,-0.8030533755049164,1.792207701207709,27.96146420267109,5,1.91,4.929503917694092,16.56,1.91,0,0,1,160,1,1
1754494044.4502642,20250806112724.450204,18.340594103769053,-64.97705011613986,0.1426999999999996,0.0,0.05372560720157365,0.08126228603000421,0.017709837279053838,-0.8592985626881996,1.858987338374567,28.169300103240047,5,1.91,4.929503917694092,16.56,1.91,0,0,1,160,1,1
1754494044.555595,20250806112724.555535,18.340594177259582,-64.97705006238094,0.1426999999999996,0.0,0.05556091241576267,0.08001865414719214,0.017709837279053838,-0.2825374394277161,1.9844011823237058,29.47324515374187,5,1.91,4.929503917694092,16.56,1.91,0,0,1,160,1,1
1754494044.6579564,20250806112724.657896,18.340594252627337,-64.97705000724882,0.1476999999999986,0.0,0.05556091241576267,0.08001865414719214,0.019609928227412782,-0.2825374394277161,1.9844011823237058,29.47324515374187,5,1.91,3.739288091659546,16.56,1.91,0,0,1,160,1,1
1754494044.7611737,20250806112724.761113,18.34059432665018,-64.97704995117194,0.1476999999999986,0.0,0.05687306423652304,0.07909143167466579,0.019609928227412782,0.2460874815585042,1.9201188339650743,30.418239729349676,5,1.91,3.739288091659546,16.56,1.91,0,0,1,160,1,1
1754494044.8514168,20250806112724.851357,18.3405943891626,-64.9770499019641,0.12570000000000014,0.0,0.05830918695526971,0.07803870012125652,-0.03478264209717501,0.7055125296687661,1.6994217893120018,31.465543745117248,5,1.91,3.739288091659546,16.56,1.91,0,0,1,160,1,1
1754494044.9519439,20250806112724.951884,18.340594457899694,-64.97704984278162,0.12570000000000014,0.0,0.061646283518785795,0.07543033692302772,-0.03478264209717501,1.3697567214511284,1.0268498330455396,33.956880041353735,5,1.91,4.729517459869385,16.53,1.91,0,0,1,160,1,1
1754494045.0555005,20250806112725.055440,18.340594527227392,-64.97704978309066,0.15169999999999995,0.0,0.061646283518785795,0.07543033692302772,-0.02244686683489678,1.3697567214511284,1.0268498330455396,33.956880041353735,5,1.91,3.9480321407318115,16.53,1.91,0,0,1,160,1,1
1754494045.1613963,20250806112725.161336,18.34059459629132,-64.9770497169603,0.15169999999999995,0.0,0.06552136576218329,0.07208987882260724,-0.02244686683489678,1.7463124421127099,0.7523413372188931,36.96629661666638,5,1.91,3.8562705516815186,16.53,1.91,0,0,1,160,1,1
1754494045.2638664,20250806112725.263806,18.340594662629883,-64.97704965343954,0.15169999999999995,0.0,0.06552136576218329,0.07208987882260724,-0.02244686683489678,1.7463124421127099,0.7523413372188931,36.96629661666638,5,1.91,3.8562705516815186,16.53,1.91,0,0,1,160,1,1
1754494045.3523898,20250806112725.352330,18.34059471797775,-64.97704959739701,0.2436999999999987,0.0,0.06750489368739243,0.07023595466891475,0.11264810467970347,1.8972639456130524,0.8667026504784948,38.56320224580053,5,1.91,3.8562705516815186,16.53,1.91,0,0,1,160,1,1
1754494045.4529104,20250806112725.452850,18.34059477862477,-64.97704952915652,0.2436999999999987,0.0,0.07111213384701885,0.06658126177629616,0.11264810467970347,2.1087465281724893,1.2629905812643594,41.583755448536905,5,1.91,2.858537435531616,16.53,1.91,0,0,1,160,1,1
1754494045.5567777,20250806112725.556717,18.34059484032214,-64.97704945973416,0.13369999999999926,0.0,0.07111213384701885,0.06658126177629616,0.05056309120917565,2.1087465281724893,1.2629905812643594,41.583755448536905,5,1.91,5.068450450897217,16.53,1.91,0,0,1,160,1,1
1754494045.6508574,20250806112725.650797,18.34059489470506,-64.97704939171763,0.13369999999999926,0.0,0.074506338042513,0.06275990432987275,0.05056309120917565,2.45019783871248,1.3433663551658523,44.59020772068983,5,1.91,5.756811141967773,16.53,1.91,0,0,1,160,1,1
1754494045.7510157,20250806112725.750955,18.34059495076539,-64.97704932160318,0.1296999999999997,0.0,0.074506338042513,0.06275990432987275,0.02757492634443562,2.45019783871248,1.3433663551658523,44.59020772068983,5,1.91,5.756811141967773,16.53,1.91,0,0,1,160,1,1
1754494045.8541842,20250806112725.854124,18.340595006146025,-64.9770492448405,0.1296999999999997,0.0,0.07755712913760798,0.05894821218605699,0.02757492634443562,2.4311625215761326,0.9025781252000614,47.46201159398477,5,1.91,3.46181583404541,16.53,1.91,0,0,1,160,1,1
1754494045.9604132,20250806112725.960353,18.340595060249882,-64.97704916984758,0.1296999999999997,0.0,0.07755712913760798,0.05894821218605699,0.005343583571332298,2.4311625215761326,0.9025781252000614,47.46201159398477,5,1.91,2.523477554321289,16.53,1.91,0,0,1,160,1,1
1754494046.0646524,20250806112726.064592,18.34059511101856,-64.97704909249046,0.1296999999999997,0.0,0.08012878458876962,0.055401966394041983,0.005343583571332298,1.8696785092391037,0.472618630426763,50.03866210610191,5,1.91,3.3121209144592285,16.53,1.91,0,0,1,160,1,1
1754494046.1616328,20250806112726.161573,18.340595160057134,-64.97704901776955,0.1867000000000001,0.0,0.08012878458876962,0.055401966394041983,0.03484177693805027,1.8696785092391037,0.472618630426763,50.03866210610191,5,1.91,3.6293842792510986,16.51,1.91,0,0,1,160,1,1
1754494046.272681,20250806112726.272621,18.3405952119317,-64.97704893520836,0.1867000000000001,0.0,0.08123226207035569,0.05377099216987774,0.03484177693805027,1.644550057612357,0.34656285518781693,51.19686965062539,5,1.91,3.1570661067962646,16.51,1.91,0,0,1,160,1,1
1754494046.3500175,20250806112726.349957,18.340595252257437,-64.97704886827675,0.1426999999999996,0.0,0.0822472924893349,0.052205199723531305,0.0756444591225448,1.5691778259538087,0.3103337579677017,52.29438411248248,5,1.91,3.1570661067962646,16.51,1.91,0,0,1,160,1,1
1754494046.4635973,20250806112726.463537,18.34059529884625,-64.97704878427366,0.1426999999999996,0.0,0.08411143900991393,0.04914535408033531,0.0756444591225448,1.3782556142516413,0.3970291132975508,54.40183631934445,5,1.91,2.191687822341919,16.51,1.91,0,0,1,160,1,1
1754494046.5612447,20250806112726.561184,18.34059534473427,-64.97704870153416,0.13870000000000005,0.0,0.08411143900991393,0.04914535408033531,0.08260061340480371,1.3782556142516413,0.3970291132975508,54.40183631934445,5,1.91,3.70572829246521,16.51,1.91,0,0,1,160,1,1
1754494046.6721632,20250806112726.672103,18.34059538963975,-64.97704861737135,0.13870000000000005,0.0,0.08492015634480421,0.047734338231235685,0.08260061340480371,0.7840279301298755,0.44666694386993944,55.358384164064354,5,1.91,3.1523916721343994,16.51,1.91,0,0,1,160,1,1
1754494046.7719626,20250806112726.771902,18.340595432965305,-64.9770485333996,0.1426999999999996,0.0,0.08558950374140593,0.0465235085660987,0.09214056889442312,-0.046682652121784615,0.5264021205034242,56.17211270217223,5,1.91,3.425471782684326,16.51,1.91,0,0,1,160,1,1
1754494046.8557253,20250806112726.855665,18.34059546677817,-64.97704846600136,0.1426999999999996,0.0,0.08612681620429612,0.045521110822467806,0.09214056889442312,-0.9539238772016042,0.6822990028962628,56.84103605545681,5,1.91,3.425471782684326,16.51,1.91,0,0,1,160,1,1
1754494046.9596698,20250806112726.959610,18.34059550925592,-64.97704837792799,0.12069999999999936,0.0,0.08684851962566247,0.044128614739542,-0.06610796053965044,-2.1487752930030255,1.1281716701869062,57.763508074223196,5,1.91,3.500298023223877,16.51,1.91,0,0,1,160,1,1
1754494047.0647519,20250806112727.064692,18.34059555063895,-64.97704829212438,0.12069999999999936,0.0,0.08684851962566247,0.044128614739542,-0.06610796053965044,-2.1487752930030255,1.1281716701869062,57.763508074223196,5,1.91,4.023351192474365,16.51,1.91,0,0,1,160,1,1
1754494047.1639984,20250806112727.163938,18.340595590735006,-64.97704820783828,0.12069999999999936,0.0,0.08709122426177733,0.04364766496142499,-0.06610796053965044,-2.3750379833243813,1.2510527937088298,58.08035724801939,5,1.91,1.3196231126785278,16.51,1.91,0,0,1,160,1,1
1754494047.2508764,20250806112727.250816,18.340595624400038,-64.9770481362668,0.22669999999999924,0.0,0.08728719336966777,0.04325443183820853,0.1155937594404993,-2.580066461697223,1.2354022634033255,58.33876730238121,5,1.91,1.3196231126785278,16.51,1.91,0,0,1,160,1,1
1754494047.355382,20250806112727.355322,18.340595664986914,-64.97704804900532,0.22669999999999924,0.0,0.08747887940561476,0.0428654366353349,0.1155937594404993,-3.27957007693425,0.9422954759817698,58.593825440209315,5,1.91,3.640254497528076,16.51,1.91,0,0,1,160,1,1
1754494047.4613206,20250806112727.461260,18.34059570421017,-64.9770479646756,0.1296999999999997,0.0,0.08747887940561476,0.0428654366353349,0.036316269042525245,-3.27957007693425,0.9422954759817698,58.593825440209315,5,1.91,2.789959669113159,16.51,1.91,0,0,1,160,1,1
1754494047.5595834,20250806112727.559523,18.340595743460696,-64.97704788083587,0.1296999999999997,0.0,0.08736789979672707,0.043091183380235216,0.036316269042525245,-3.678829567958416,0.5402084990736229,58.44587495214861,5,1.91,2.526522636413574,16.51,1.91,0,0,1,160,1,1
1754494047.6640167,20250806112727.663956,18.340595784123952,-64.9770477939785,0.12570000000000014,0.0,0.08736789979672707,0.043091183380235216,0.021172991821289504,-3.678829567958416,0.5402084990736229,58.44587495214861,5,1.91,4.455195903778076,16.51,1.91,0,0,1,160,1,1
1754494047.7575512,20250806112727.757491,18.340595818002473,-64.97704772229798,0.12570000000000014,0.0,0.08720432502208336,0.04342125858888529,0.021172991821289504,-3.583320864209534,0.3774793973554061,58.22920932137293,5,1.91,4.455195903778076,16.51,1.91,0,0,1,160,1,1
1754494047.8519652,20250806112727.851905,18.340595858115726,-64.97704764002772,0.13870000000000005,0.0,0.08665303411734447,0.04451125338898395,0.0468456855681384,-3.331659039160611,0.2968990912316503,57.510789277022305,5,1.91,2.9129652976989746,16.51,1.91,0,0,1,160,1,1
1754494047.9534166,20250806112727.953356,18.340595898877314,-64.97704755642776,0.13870000000000005,0.0,0.08665303411734447,0.04451125338898395,0.0468456855681384,-3.331659039160611,0.2968990912316503,57.510789277022305,5,1.91,2.710513114929199,16.51,1.91,0,0,1,160,1,1
1754494048.0607963,20250806112728.060736,18.340595943328225,-64.97704746932574,0.13870000000000005,0.0,0.08580185305303227,0.04613070574645326,0.03747654845451072,-3.3129434603691115,0.40307538033967294,56.434738692306695,5,1.91,1.7587618827819824,16.51,1.91,0,0,1,160,1,1
1754494048.1672668,20250806112728.167207,18.340595987408175,-64.97704738295062,0.13870000000000005,0.0,0.08580185305303227,0.04613070574645326,0.03747654845451072,-3.3129434603691115,0.40307538033967294,56.434738692306695,5,1.91,3.27750301361084,16.51,1.91,0,0,1,160,1,1
1754494048.250626,20250806112728.250566,18.34059602316383,-64.97704731459257,0.12570000000000014,0.0,0.08531991176287118,0.04701608933945778,-0.013928301879734357,-3.3758044885419327,0.5223532576209068,55.841847324501686,5,1.91,3.27750301361084,16.51,1.91,0,0,1,160,1,1
1754494048.3558462,20250806112728.355786,18.34059606897783,-64.97704723142817,0.12570000000000014,0.0,0.08425504525093999,0.048898745891505786,-0.013928301879734357,-2.9097766728557675,0.7924966740377382,54.569679740475806,5,1.91,2.813141107559204,16.51,1.91,0,0,1,160,1,1
1754494048.4640448,20250806112728.463985,18.340596336544813,-64.97704683522049,0.1296999999999997,0.0,0.39426961117670356,0.28050716507835693,-0.0006816728893460607,-2.9097766728557675,0.7924966740377382,54.569679740475806,3,1.91,3.4789648056030273,16.51,0.0,0,0,1,160,1,1
1754494048.5640647,20250806112728.564004,18.340596597213615,-64.97704646889315,0.1296999999999997,0.0,0.38152374343724504,0.2860107221379779,-0.0006816728893460607,-1.4027514561384948,0.701880415196358,53.142818561720055,3,1.91,2.918773889541626,16.51,0.0,0,0,1,160,1,1
1754494048.6645114,20250806112728.664451,18.34059685636719,-64.9770461046952,0.15169999999999995,0.0,0.38427056894602035,0.2880698903047451,0.04233046205715556,-1.4027514561384948,0.701880415196358,53.142818561720055,3,1.91,4.356586933135986,16.51,0.0,0,0,1,160,1,1
1754494048.7540002,20250806112728.753940,18.340597088933134,-64.97704578599169,0.15169999999999995,0.0,0.3806005535989496,0.29259689434723246,0.04233046205715556,-0.6427145206857502,0.46556026772597275,52.447769725518626,3,1.91,4.356586933135986,16.51,0.0,0,0,1,160,1,1
1754494048.8541422,20250806112728.854082,18.340597369647764,-64.97704541878163,0.1426999999999996,0.0,0.3750907764417453,0.3020841172413249,0.03461180760209062,0.13471266958135814,0.12821088745567422,51.15334612133349,3,1.91,4.356586933135986,16.51,0.0,0,0,1,160,1,1
1754494048.9589581,20250806112728.958898,18.34059765615864,-64.97704504398935,0.1426999999999996,0.0,0.37724645535067547,0.3038202206092547,0.03461180760209062,0.13471266958135814,0.12821088745567422,51.15334612133349,3,1.91,2.7393152713775635,16.51,0.0,0,0,1,160,1,1
1754494049.0600863,20250806112729.060026,18.340597941279302,-64.97704468578057,0.1426999999999996,0.0,0.37104976068632456,0.31114703432746693,0.03461180760209062,0.182877793448229,0.38239094545507274,50.01820754898037,3,1.91,2.616502285003662,16.51,0.0,0,0,1,160,1,1
1754494049.1683967,20250806112729.168336,18.34059823477003,-64.97704431705614,0.2436999999999987,0.0,0.37276373984679684,0.3125843065997724,0.17181292231782364,0.182877793448229,0.38239094545507274,50.01820754898037,3,1.91,2.9044649600982666,16.51,0.0,0,0,1,160,1,1
1754494049.2559812,20250806112729.255921,18.34059847771937,-64.97704401751588,0.2436999999999987,0.0,0.36976230586693487,0.31595424646542525,0.17181292231782364,0.22337442640419733,0.4826231535907967,49.48681351890411,3,1.91,2.9044649600982666,16.51,0.0,0,0,1,160,1,1
1754494049.3573275,20250806112729.357267,18.340598769874088,-64.977043667676,0.1426999999999996,0.0,0.3658687524110541,0.32189183102915614,0.0815233031555944,0.7089347758317335,0.23871551701316085,48.65865449346744,3,1.91,2.6323153972625732,16.51,0.0,0,0,1,160,1,1
1754494049.4569283,20250806112729.456868,18.340599069260918,-64.97704330917604,0.1426999999999996,0.0,0.3669849933559551,0.3228739013460554,0.0815233031555944,0.7089347758317335,0.23871551701316085,48.65865449346744,3,1.91,3.308285713195801,16.51,0.0,0,0,1,160,1,1
1754494049.5603042,20250806112729.560244,18.34059937909977,-64.97704294240711,0.1476999999999986,0.0,0.36505115285447104,0.32489131007228167,0.07489218466121396,1.14287952732816,0.011822581432959223,48.33130390006744,3,1.91,4.977499008178711,16.51,0.0,0,0,1,160,1,1
1754494049.6519036,20250806112729.651843,18.34059961502897,-64.9770427820623,0.1476999999999986,0.0,0.1881827153148823,0.2917075001722067,0.07489218466121396,1.596157936596122,-0.14899532061432097,48.023600352840056,5,1.79,4.977499008178711,16.51,1.79,0,0,1,160,1,1
1754494049.7552214,20250806112729.755161,18.340599889112063,-64.97704259996546,0.1426999999999996,0.0,0.18517232644831294,0.29362767158038666,0.043003260667712775,1.8613151530533993,-0.2841432815087828,47.434258977125516,5,1.79,3.1908950805664062,16.51,1.79,0,0,1,160,1,1
1754494049.861728,20250806112729.861668,18.340600164087157,-64.977042417276,0.1426999999999996,0.0,0.18517232644831294,0.29362767158038666,0.043003260667712775,1.8613151530533993,-0.2841432815087828,47.434258977125516,5,1.79,3.949726104736328,16.51,1.79,0,0,1,160,1,1
1754494049.9625902,20250806112729.962530,18.340600438642745,-64.97704223860158,0.13369999999999926,0.0,0.18243486370405668,0.2953362837601948,-0.1005184772886311,1.4667198291264443,-0.48576738961076915,46.90164917294227,5,1.79,3.359729528427124,16.51,1.79,0,0,1,160,1,1
1754494050.0658143,20250806112730.065754,18.340600715328016,-64.97704205854122,0.13369999999999926,0.0,0.18243486370405668,0.2953362837601948,-0.1005184772886311,1.4667198291264443,-0.48576738961076915,46.90164917294227,5,1.79,1.488638997077942,16.51,1.79,0,0,1,160,1,1
1754494050.16058,20250806112730.160520,18.340600940451488,-64.97704191338886,0.13369999999999926,0.0,0.1812108881772881,0.2960888616716245,-0.013625457850876793,1.3503487319849399,-0.5769151227369774,46.664498089973556,5,1.79,1.488638997077942,16.51,1.79,0,0,1,160,1,1
1754494050.2543566,20250806112730.254296,18.340601218486615,-64.97704173641723,0.13369999999999926,0.0,0.17951325404322843,0.29712117329939874,-0.013625457850876793,1.278257340178635,-0.7252567993501072,46.33656351519071,5,1.79,1.8442139625549316,16.51,1.79,0,0,1,160,1,1
1754494050.357371,20250806112730.357311,18.34060149481017,-64.97704156053503,0.13369999999999926,0.0,0.17951325404322843,0.29712117329939874,-0.02571738552179983,1.278257340178635,-0.7252567993501072,46.33656351519071,5,1.79,4.033511638641357,16.51,1.79,0,0,1,160,1,1
1754494050.4648776,20250806112730.464817,18.34060177711724,-64.97704138165541,0.13369999999999926,0.0,0.17891853660808935,0.29747967536962894,-0.02571738552179983,1.3286865658432208,-0.9887675661027302,46.22194948484145,5,1.79,3.6790053844451904,16.51,1.79,0,0,1,160,1,1
1754494050.5784228,20250806112730.578363,18.34060204993749,-64.97704120878697,0.1607000000000003,0.0,0.17891853660808935,0.29747967536962894,0.04228879138116655,1.3286865658432208,-0.9887675661027302,46.22194948484145,5,1.79,3.069352865219116,16.51,1.79,0,0,1,160,1,1
1754494050.6532342,20250806112730.653174,18.340602277550406,-64.9770410648906,0.1607000000000003,0.0,0.17862026168173567,0.29765886870165364,0.04228879138116655,1.3089769807286522,-1.1966002650193737,46.16451781866993,5,1.79,3.069352865219116,16.51,1.79,0,0,1,160,1,1
1754494050.7603867,20250806112730.760326,18.340602565190068,-64.97704088446991,0.1296999999999997,0.0,0.1775883022406986,0.2982757028443086,0.03747166939388069,1.0160533278197015,-1.4775704422764353,45.96608367685519,5,1.79,2.8501672744750977,16.51,1.79,0,0,1,160,1,1
1754494050.861703,20250806112730.861643,18.340602839399352,-64.97704071247337,0.1296999999999997,0.0,0.1775883022406986,0.2982757028443086,0.03747166939388069,1.0160533278197015,-1.4775704422764353,45.96608367685519,5,1.79,3.4038233757019043,16.51,1.79,0,0,1,160,1,1
1754494050.9626548,20250806112730.962595,18.34060311146729,-64.9770405417764,0.1296999999999997,0.0,0.17762177825850511,0.29825576924560304,0.03747166939388069,0.8048275711370596,-1.5512860323037825,45.9725143022581,5,1.79,3.423299551010132,16.53,1.79,0,0,1,160,1,1
1754494051.0639496,20250806112731.063889,18.340603386843256,-64.97704036900397,0.2306999999999988,0.0,0.17762177825850511,0.29825576924560304,0.1613148544934599,0.8048275711370596,-1.5512860323037825,45.9725143022581,5,1.79,3.3288702964782715,16.53,1.79,0,0,1,160,1,1
1754494051.1564255,20250806112731.156365,18.340603618474926,-64.97704022303502,0.2306999999999988,0.0,0.1781999391097434,0.29791069417072585,0.1613148544934599,0.7456831276969952,-1.6098153316117694,46.083644934885136,5,1.79,3.3288702964782715,16.53,1.79,0,0,1,160,1,1
1754494051.2560034,20250806112731.255943,18.340603895104913,-64.97704004736364,0.1476999999999986,0.0,0.1792098270582559,0.2973042850107446,0.09034058168910351,0.7836699854006955,-1.663596793975295,46.27806975422348,5,1.79,3.5692107677459717,16.53,1.79,0,0,1,160,1,1
1754494051.356121,20250806112731.356061,18.340604176586595,-64.97703973866383,0.1476999999999986,0.0,0.32380224285102216,0.3110532229774315,0.09034058168910351,0.7836699854006955,-1.663596793975295,46.27806975422348,5,1.78,3.6423325538635254,16.53,1.78,0,0,1,160,1,1
1754494051.4592903,20250806112731.459230,18.34060446797234,-64.97703941904082,0.1426999999999996,0.0,0.32383212818590507,0.31102210975200395,0.06237057241532392,0.8508630626035819,-1.6174758183918763,46.283574888662926,5,1.78,2.808891534805298,16.53,1.78,0,0,1,160,1,1
1754494051.5510697,20250806112731.551009,18.34060472445105,-64.97703913751738,0.1426999999999996,0.0,0.323937111014109,0.3109127660740756,0.06237057241532392,1.0202430100433495,-1.5857418943874406,46.302917991308796,5,1.78,2.808891534805298,16.51,1.78,0,0,1,160,1,1
1754494051.654593,20250806112731.654533,18.34060500861483,-64.97703882253508,0.13369999999999926,0.0,0.3254544142450016,0.3093241410695953,0.03293318613822392,1.4745922652900187,-1.7037495694722848,46.58324613055431,5,1.78,2.860933303833008,16.51,1.78,0,0,1,160,1,1
1754494051.760742,20250806112731.760682,18.340605301827036,-64.97703849752301,0.13369999999999926,0.0,0.3254544142450016,0.3093241410695953,0.03293318613822392,1.4745922652900187,-1.7037495694722848,46.58324613055431,5,1.78,3.1471807956695557,16.51,1.78,0,0,1,160,1,1
1754494051.8646362,20250806112731.864576,18.340605593655606,-64.97703817090164,0.1296999999999997,0.0,0.326943781967212,0.30774951410680756,-0.10037438565726588,1.678558008536693,-2.1636202875852453,46.85982364676759,5,1.78,2.6632766723632812,16.51,1.78,0,0,1,160,1,1
1754494051.971562,20250806112731.971502,18.340605874917735,-64.97703785610648,0.1296999999999997,0.0,0.326943781967212,0.30774951410680756,-0.10037438565726588,1.678558008536693,-2.1636202875852453,46.85982364676759,5,1.78,3.48171067237854,16.51,1.78,0,0,1,160,1,1
1754494052.0503602,20250806112732.050300,18.340606111064574,-64.97703759147834,0.13369999999999926,0.0,0.32713366455796944,0.30754766380656173,-0.024570213853874232,1.5697513486057484,-2.4560639060899474,46.89518696383998,5,1.78,3.48171067237854,16.51,1.78,0,0,1,160,1,1
1754494052.159547,20250806112732.159487,18.340606399213883,-64.9770372699139,0.13369999999999926,0.0,0.32649552913771085,0.30822503054276146,-0.024570213853874232,1.2332608916111254,-2.73704005976467,46.77643383737368,5,1.78,3.5824828147888184,16.48,1.78,0,0,1,160,1,1
1754494052.2658534,20250806112732.265793,18.340606689160097,-64.97703694634417,0.1476999999999986,0.0,0.32649552913771085,0.30822503054276146,-0.0002761961630398588,1.2332608916111254,-2.73704005976467,46.77643383737368,5,1.78,3.1625776290893555,16.48,1.78,0,0,1,160,1,1
1754494052.362766,20250806112732.362706,18.340606975475836,-64.97703662713546,0.1476999999999986,0.0,0.3263463683017016,0.3083829565593568,-0.0002761961630398588,0.985020352229472,-2.6144248868286475,46.74871350471539,5,1.78,2.7768139839172363,16.48,1.78,0,0,1,160,1,1
1754494052.4656177,20250806112732.465557,18.340607256307386,-64.97703631404097,0.12570000000000014,0.0,0.3263463683017016,0.3083829565593568,-0.045792102755964556,0.985020352229472,-2.6144248868286475,46.74871350471539,5,1.78,2.9147703647613525,16.48,1.78,0,0,1,160,1,1
1754494052.5679038,20250806112732.567844,18.340607519698725,-64.97703601823655,0.12570000000000014,0.0,0.35909964947864614,0.3368626760673297,-0.045792102755964556,0.7505857111701711,-2.5794414991646866,46.830074747200435,3,1.82,2.9147703647613525,16.48,0.0,0,0,1,160,1,1
1754494052.6546872,20250806112732.654627,18.34060783157505,-64.97703566599624,0.1556999999999995,0.0,0.3590995692773534,0.33496494125589243,-0.0105842225135193,-0.014516078167412367,-2.639421253694581,46.9915541372971,3,1.82,3.3748667240142822,16.48,0.0,0,0,1,160,1,1
1754494052.7641337,20250806112732.764073,18.340608170433278,-64.97703533448072,0.1556999999999995,0.0,0.3322464691645831,0.3577796580685768,-0.0105842225135193,-0.014516078167412367,-2.639421253694581,46.9915541372971,5,1.81,2.699928045272827,16.48,1.81,0,0,1,160,1,1
1754494052.8692892,20250806112732.869229,18.34060851811784,-64.97703499438101,0.1556999999999995,0.0,0.3322197689270426,0.3578044509701667,-0.0105842225135193,-1.1074264572691206,-2.655488425688433,46.98727843734781,5,1.81,3.8963334560394287,16.48,1.81,0,0,1,160,1,1
1754494052.9695761,20250806112732.969516,18.34060884167072,-64.97703467788656,0.2436999999999987,0.0,0.3322197689270426,0.3578044509701667,0.0875899693885547,-1.1074264572691206,-2.655488425688433,46.98727843734781,5,1.81,4.005832195281982,16.48,1.81,0,0,1,160,1,1
1754494053.052001,20250806112733.051941,18.340609107283548,-64.97703441794738,0.2436999999999987,0.0,0.3323026786318005,0.3577274518039261,0.0875899693885547,-1.3541204918593206,-2.6709391728892795,47.000556329842034,5,1.81,4.005832195281982,16.48,1.81,0,0,1,160,1,1
1754494053.163489,20250806112733.163429,18.34060944588576,-64.97703408496204,0.12069999999999936,0.0,0.3331695780570421,0.35692020432765154,-0.030953695617037952,-0.9445737717714194,-3.0139069994106764,47.139560974438616,5,1.81,2.916851758956909,16.48,1.81,0,0,1,160,1,1
1754494053.2635381,20250806112733.263478,18.34060978215868,-64.97703375426735,0.12069999999999936,0.0,0.3331695780570421,0.35692020432765154,-0.030953695617037952,-0.9445737717714194,-3.0139069994106764,47.139560974438616,5,1.81,2.6397287845611572,16.48,1.81,0,0,1,160,1,1
1754494053.3629458,20250806112733.362886,18.340610086326816,-64.9770334434241,0.13369999999999926,0.0,0.31944540594681065,0.3293138816076197,0.05307693201888209,0.36548702162783253,-3.5143649572402116,47.502334649087615,5,1.82,2.9105594158172607,16.53,1.82,0,0,1,160,1,1
1754494053.4685473,20250806112733.468487,18.340610398173737,-64.97703312473355,0.13369999999999926,0.0,0.31944540594681065,0.3293138816076197,0.05307693201888209,0.36548702162783253,-3.5143649572402116,47.502334649087615,5,1.82,3.1432266235351562,16.53,1.82,0,0,1,160,1,1
1754494053.5501654,20250806112733.550105,18.34061063927427,-64.9770328762996,0.1476999999999986,0.0,0.32080142633915254,0.32799305611363977,0.04416007840869385,0.9410676423177086,-3.5862079008266194,47.73873611852691,5,1.82,3.1432266235351562,16.53,1.82,0,0,1,160,1,1
1754494053.6585348,20250806112733.658475,18.340610937565213,-64.97703256600029,0.1476999999999986,0.0,0.32235634685755804,0.32646498378945593,0.04416007840869385,1.1097272713467448,-3.4394087269395457,48.010992678834626,5,1.82,2.976377248764038,16.53,1.82,0,0,1,160,1,1
1754494053.7597003,20250806112733.759640,18.340611252881086,-64.97703223799066,0.12069999999999936,0.0,0.32235634685755804,0.32646498378945593,-0.08207825322324352,1.1097272713467448,-3.4394087269395457,48.010992678834626,5,1.82,2.731494426727295,16.53,1.82,0,0,1,160,1,1
1754494053.8662875,20250806112733.866227,18.340611565701405,-64.97703191162685,0.12069999999999936,0.0,0.3228319184852219,0.32599471223802245,-0.08207825322324352,0.9067489176750148,-3.371539674210535,48.094517384512876,5,1.82,3.122624397277832,16.53,1.82,0,0,1,160,1,1
1754494053.9711845,20250806112733.971124,18.340611873882906,-64.97703158906631,0.13369999999999926,0.0,0.32335603477763114,0.32547484506930396,-0.04136608238882685,0.6685505208721345,-3.3080995738550887,48.18670789579913,5,1.82,2.839442014694214,16.51,1.82,0,0,1,160,1,1
1754494054.0506535,20250806112734.050593,18.34061210475151,-64.97703134649127,0.13369999999999926,0.0,0.3239836561716431,0.3248501047154742,-0.04136608238882685,0.5218049213005197,-3.2648593383058775,48.29729894328877,5,1.82,2.839442014694214,16.51,1.82,0,0,1,160,1,1
1754494054.1661935,20250806112734.166133,18.340612435417746,-64.97703099523699,0.12069999999999936,0.0,0.325755482591504,0.3230733129826361,0.013049467926066765,0.5485963478995455,-3.2233151247113803,48.61066301181481,5,1.82,2.9878625869750977,16.51,1.82,0,0,1,160,1,1
1754494054.2692077,20250806112734.269147,18.34061273808801,-64.97703063341677,0.12069999999999936,0.0,0.36503124455572716,0.32169781271833686,0.013049467926066765,0.5485963478995455,-3.2233151247113803,48.61066301181481,3,1.82,3.0053699016571045,16.51,0.0,0,0,1,160,1,1
1754494054.3722892,20250806112734.372229,18.340613029818098,-64.97703028265946,0.15169999999999995,0.0,0.3657543823230871,0.3204831184543275,0.0701020677679593,0.47308708552177636,-3.1243114972919104,48.774365629281206,3,1.82,3.797255516052246,16.51,0.0,0,0,1,160,1,1
1754494054.476978,20250806112734.476918,18.34061332894573,-64.97702992136706,0.15169999999999995,0.0,0.3661294295611925,0.3193548458791711,0.0701020677679593,0.24110282906423966,-2.976813082538531,48.90359114703698,3,1.82,3.0989267826080322,16.51,0.0,0,0,1,160,1,1
1754494054.553104,20250806112734.553044,18.340613547107164,-64.97702965683104,0.12570000000000014,0.0,0.36645138282279643,0.318383588638653,0.061753096655137604,-0.22065238160323644,-2.880736192224906,49.01495912882251,3,1.82,3.0989267826080322,16.51,0.0,0,0,1,160,1,1
1754494054.654781,20250806112734.654721,18.340613844367404,-64.97702929237873,0.12570000000000014,0.0,0.3679322815893145,0.3161587223020571,0.061753096655137604,-1.5189954476829648,-2.9388286794349416,49.328041451944536,3,1.82,4.158841133117676,16.51,0.0,0,0,1,160,1,1
1754494054.7616901,20250806112734.761630,18.34061413431379,-64.97702893689349,0.23569999999999958,0.0,0.3672824943435709,0.3156003698125852,0.12736233862642915,-1.5189954476829648,-2.9388286794349416,49.328041451944536,3,1.82,3.940431594848633,16.51,0.0,0,0,1,160,1,1
1754494054.8642833,20250806112734.864223,18.34061443672302,-64.97702856410791,0.23569999999999958,0.0,0.3679912678370785,0.31449562707907935,0.12736233862642915,-2.232747803118828,-3.0306588981136553,49.48189166207342,3,1.82,2.8304154872894287,16.51,0.0,0,0,1,160,1,1
1754494054.9508996,20250806112734.950839,18.340614680043505,-64.97702826263587,0.13870000000000005,0.0,0.36835768355044024,0.31321497815296867,-0.07796174458680091,-2.9162770942792333,-3.1249245069891094,49.62546399731066,3,1.82,2.8304154872894287,16.51,0.0,0,0,1,160,1,1
1754494055.0511038,20250806112735.051044,18.340614959826734,-64.97702791258675,0.13870000000000005,0.0,0.36947560085974035,0.3111140476996515,-0.07796174458680091,-3.843879440720382,-3.071848795518266,49.90122444591551,3,1.82,4.132384777069092,16.51,0.0,0,0,1,160,1,1
1754494055.154766,20250806112735.154706,18.34061524784862,-64.97702755222988,0.13870000000000005,0.0,0.36885791749885616,0.31059393224370735,-0.06923087937347168,-3.843879440720382,-3.071848795518266,49.90122444591551,3,1.82,3.652116298675537,16.53,0.0,0,0,1,160,1,1
1754494055.263295,20250806112735.263235,18.34061554586709,-64.97702717823896,0.13870000000000005,0.0,0.36915868411487535,0.30991055286972596,-0.06923087937347168,-3.9570164421334892,-2.681568231698858,49.98639181267645,3,1.82,3.521594524383545,16.53,0.0,0,0,1,160,1,1
1754494055.3688169,20250806112735.368757,18.340615837217083,-64.97702681261647,0.1476999999999986,0.0,0.3689038318415622,0.3096966031177055,-0.11155979356378305,-3.9570164421334892,-2.681568231698858,49.98639181267645,3,1.82,2.741255283355713,16.53,0.0,0,0,1,160,1,1
1754494055.4517093,20250806112735.451649,18.340616074851408,-64.97702651446998,0.1476999999999986,0.0,0.368699132015969,0.3095941656509693,-0.11155979356378305,-3.6638287596300283,-2.600043491502094,49.980065347695614,3,1.82,2.741255283355713,16.53,0.0,0,0,1,160,1,1
1754494055.5586896,20250806112735.558629,18.34061637025669,-64.9770261469229,0.1476999999999986,0.0,0.36730546765106453,0.31100963254480396,-0.2053163567389779,-2.8028536517053877,-2.824212514650809,49.744329821938535,3,1.82,2.525623321533203,16.53,0.0,0,0,1,160,1,1
1754494055.6587684,20250806112735.658708,18.340616656891488,-64.97702579028817,0.1476999999999986,0.0,0.3675169121492047,0.3111886695629315,-0.2053163567389779,-2.8028536517053877,-2.824212514650809,49.744329821938535,3,1.82,2.6994400024414062,16.53,0.0,0,0,1,160,1,1
1754494055.765999,20250806112735.765939,18.34061695282079,-64.97702543172656,0.12069999999999936,0.0,0.3632387026053866,0.3158329745724223,-0.011705999367315409,-2.2257423744030334,-3.093598686933504,48.99333488624124,3,1.82,2.776737928390503,16.51,0.0,0,0,1,160,1,1
1754494055.8740387,20250806112735.873978,18.340617267173783,-64.97702505084195,0.12069999999999936,0.0,0.3643295591670447,0.3167814651110933,-0.011705999367315409,-2.2257423744030334,-3.093598686933504,48.99333488624124,3,1.82,3.212033271789551,16.51,0.0,0,0,1,160,1,1
1754494055.9505875,20250806112735.950527,18.34061748968676,-64.9770247855887,0.1296999999999997,0.0,0.3615916107448776,0.31956128998666145,0.008570603596603828,-2.18031476999,-3.0064211094036564,48.53095823485877,3,1.82,3.212033271789551,16.51,0.0,0,0,1,160,1,1
1754494056.0558505,20250806112736.055790,18.340617797518803,-64.9770244303171,0.1296999999999997,0.0,0.35706538300240426,0.32594345768766575,0.008570603596603828,-2.167108167620752,-2.5000067976012694,47.6089472540262,3,1.82,2.607250690460205,16.51,0.0,0,0,1,160,1,1
1754494056.1613786,20250806112736.161318,18.340618106788703,-64.97702407338605,0.17769999999999975,0.0,0.35846170591967624,0.32721807668286834,0.029424019261488524,-2.167108167620752,-2.5000067976012694,47.6089472540262,3,1.82,2.6086573600769043,16.51,0.0,0,0,1,160,1,1
1754494056.2717974,20250806112736.271737,18.340618422136377,-64.97702371498895,0.17769999999999975,0.0,0.3558077733772833,0.3298236108424295,0.029424019261488524,-1.96337187612355,-2.294840221291767,47.17038235815196,3,1.82,3.336808681488037,16.53,0.0,0,0,1,160,1,1
1754494056.3706243,20250806112736.370564,18.34061873174356,-64.9770233685348,0.13870000000000005,0.0,0.35379587431588677,0.3330881857992344,-0.06202849313506298,-1.6562905166633457,-2.2336673176646102,46.72680580918219,3,1.82,3.7772490978240967,16.53,0.0,0,0,1,160,1,1
1754494056.452147,20250806112736.452087,18.340618974704245,-64.97702310144771,0.13870000000000005,0.0,0.35135406042589934,0.3367202881702264,-0.06202849313506298,-1.3509641962822558,-2.2770689164906606,46.21838342104583,3,1.82,3.7772490978240967,16.53,0.0,0,0,1,160,1,1
1754494056.5571983,20250806112736.557138,18.34061929852964,-64.9770227618558,0.13870000000000005,0.0,0.3439298052178376,0.34551314587583354,-0.06202849313506298,-1.0709232452496928,-2.280455837756383,44.86843361493974,3,1.82,3.2097339630126953,16.53,0.0,0,0,1,160,1,1
1754494056.6619036,20250806112736.661843,18.340619631204753,-64.97702241298329,0.21369999999999933,0.0,0.3455706474705193,0.3471615420311216,0.018226882895976848,-1.0709232452496928,-2.280455837756383,44.86843361493974,3,1.82,3.437682867050171,16.53,0.0,0,0,1,160,1,1
1754494056.7643683,20250806112736.764308,18.340619959566805,-64.97702207674956,0.21369999999999933,0.0,0.3413100979344438,0.3511575545795149,0.018226882895976848,-1.171174663299326,-2.1171147935584056,44.1852778498831,3,1.82,5.206178665161133,16.53,0.0,0,0,1,160,1,1
1754494056.855621,20250806112736.855561,18.340620231975084,-64.97702180340598,0.13369999999999926,0.0,0.33847056751788324,0.3553640823778271,-0.1938327750761173,-1.3367218593880577,-1.8908770761251323,43.60525114797976,3,1.82,5.206178665161133,16.53,0.0,0,0,1,160,1,1
1754494056.9592397,20250806112736.959179,18.340620575116834,-64.97702146777462,0.13369999999999926,0.0,0.33450777848034224,0.3602951818519448,-0.1938327750761173,-1.3269770969487762,-1.6312128278285132,42.87447528700259,3,1.82,4.003822326660156,16.48,0.0,0,0,1,160,1,1
1754494057.0582802,20250806112737.058220,18.340620905284364,-64.97702114483351,0.12570000000000014,0.0,0.335219717840379,0.36106200504020464,-0.24249153424347508,-1.3269770969487762,-1.6312128278285132,42.87447528700259,3,1.82,4.819307327270508,16.48,0.0,0,0,1,160,1,1
1754494057.1651242,20250806112737.165064,18.34062124590955,-64.97702081717782,0.12570000000000014,0.0,0.33213855870056597,0.36376385661370936,-0.24249153424347508,-0.7442131423959546,-1.6108998379737016,42.397997705036666,3,1.82,3.344789505004883,16.48,0.0,0,0,1,160,1,1
1754494057.2717402,20250806112737.271680,18.34062159160174,-64.97702048464805,0.1476999999999986,0.0,0.33254295558732716,0.36420675903282734,-0.09845738287724057,-0.7442131423959546,-1.6108998379737016,42.397997705036666,3,1.82,3.382523775100708,16.48,0.0,0,0,1,160,1,1
1754494057.3511474,20250806112737.351087,18.340621863428428,-64.97702022490662,0.1476999999999986,0.0,0.3312684112838445,0.36523477561181944,-0.09845738287724057,-0.2166634429799434,-1.5930918208926785,42.208084227258226,3,1.82,3.382523775100708,16.48,0.0,0,0,1,160,1,1
1754494057.4595244,20250806112737.459464,18.34062220565,-64.97701990019948,0.12069999999999936,0.0,0.3301162564078107,0.36654194431930204,-0.16918642040741202,0.9227505625180858,-1.5855638825185467,42.00695557485251,3,1.82,3.2428126335144043,16.48,0.0,0,0,1,160,1,1
1754494057.5625732,20250806112737.562513,18.3406225462377,-64.97701957704261,0.12069999999999936,0.0,0.33024386681672624,0.36668363551593763,-0.16918642040741202,0.9227505625180858,-1.5855638825185467,42.00695557485251,3,1.82,3.389361619949341,16.51,0.0,0,0,1,160,1,1
1754494057.6668053,20250806112737.666745,18.34062288615252,-64.97701925638299,0.16969999999999885,0.0,0.3291266505561081,0.3675615662617582,-0.08781101300666352,1.8197711529023906,-1.5429555464152114,41.842320636230966,3,1.82,1.6090317964553833,16.51,0.0,0,0,1,160,1,1
1754494057.772287,20250806112737.772227,18.340623235707813,-64.97701892662899,0.16969999999999885,0.0,0.3292219627393876,0.36766800885858475,-0.08781101300666352,1.8197711529023906,-1.5429555464152114,41.842320636230966,3,1.82,3.210165500640869,16.51,0.0,0,0,1,160,1,1
1754494057.8522384,20250806112737.852178,18.340623514898272,-64.9770186639613,0.1476999999999986,0.0,0.3286661944318786,0.3680358945878723,0.0370473343688913,1.9438509750522641,-1.5289250521827364,41.76574697694032,3,1.82,3.210165500640869,16.51,0.0,0,0,1,160,1,1
1754494057.9561684,20250806112737.956108,18.340623862699385,-64.97701833581044,0.1476999999999986,0.0,0.32920748542068073,0.36759395400300404,0.0370473343688913,2.0285035161204594,-1.631395642175885,41.84680427589862,3,1.82,3.1518430709838867,16.51,0.0,0,0,1,160,1,1
1754494058.0627804,20250806112738.062720,18.340624209302554,-64.9770181036273,0.1296999999999997,0.0,0.2300554522632296,0.36180587182073326,-0.030755727699803663,2.0285035161204594,-1.631395642175885,41.84680427589862,5,1.74,3.15047025680542,16.51,1.74,0,0,1,160,1,1
1754494058.1655312,20250806112738.165471,18.340624542149627,-64.97701787752872,0.1296999999999997,0.0,0.23234151494139774,0.36034208807012297,-0.030755727699803663,2.2803089886367283,-1.8172066293954718,42.20955916752069,5,1.74,2.8222498893737793,16.53,1.74,0,0,1,160,1,1
1754494058.2723477,20250806112738.272287,18.340624877344258,-64.97701764983549,0.1296999999999997,0.0,0.23234151494139774,0.36034208807012297,-0.007607969793006873,2.2803089886367283,-1.8172066293954718,42.20955916752069,5,1.74,3.214370012283325,16.53,1.74,0,0,1,160,1,1
1754494058.3518496,20250806112738.351789,18.340625142573742,-64.97701746756003,0.1296999999999997,0.0,0.2342523528585566,0.3591028197887483,-0.007607969793006873,2.5340299030132547,-1.8070588856510683,42.51391250576226,5,1.74,3.214370012283325,16.53,1.74,0,0,1,160,1,1
1754494058.4633012,20250806112738.463241,18.34062547987984,-64.97701722876425,0.1296999999999997,0.0,0.2391385795560818,0.35586758740843416,-0.007607969793006873,3.4262574064336664,-1.8277955608293284,43.2970383703515,5,1.74,3.103914976119995,16.53,1.74,0,0,1,160,1,1
1754494058.5540404,20250806112738.553980,18.340625795740927,-64.97701700515046,0.2176999999999989,0.0,0.2391385795560818,0.35586758740843416,-0.010539819901620187,3.4262574064336664,-1.8277955608293284,43.2970383703515,5,1.74,3.461791753768921,16.53,1.74,0,0,1,160,1,1
1754494058.6573558,20250806112738.657296,18.340626118094256,-64.97701677373942,0.2176999999999989,0.0,0.24143434073481074,0.3543140684674365,-0.010539819901620187,3.6219460246637434,-1.9978340347900863,43.6674703973457,5,1.74,2.88759183883667,16.53,1.74,0,0,1,160,1,1
1754494058.7528698,20250806112738.752810,18.340626418744023,-64.97701655510355,0.1556999999999995,0.0,0.24356423104360791,0.35285331988821644,-0.13067230610053837,3.544625053960826,-2.232019533938155,44.012603394608156,5,1.74,2.88759183883667,16.51,1.74,0,0,1,160,1,1
1754494058.85657,20250806112738.856510,18.340626750080887,-64.97701630963496,0.1556999999999995,0.0,0.2466285660002185,0.3507183348966459,-0.13067230610053837,3.1830880708806175,-2.5848300934597717,44.51169232590644,5,1.74,3.19761323928833,16.51,1.74,0,0,1,160,1,1
1754494058.960587,20250806112738.960527,18.340627072477904,-64.9770160707894,0.13870000000000005,0.0,0.2466285660002185,0.3507183348966459,-0.11039522848578574,3.1830880708806175,-2.5848300934597717,44.51169232590644,5,1.74,3.2031192779541016,16.51,1.74,0,0,1,160,1,1
1754494059.0618937,20250806112739.061833,18.3406273964579,-64.97701582903193,0.13870000000000005,0.0,0.2478200281804162,0.3498774551648873,-0.11039522848578574,3.163683923397209,-2.5620356096148362,44.70657135298698,5,1.74,3.005155563354492,16.51,1.74,0,0,1,160,1,1
1754494059.1651678,20250806112739.165108,18.34062772594459,-64.97701558101693,0.13369999999999926,0.0,0.2492557327952618,0.34885610166470793,-0.0979918972513685,3.1636365389428995,-2.4234433378368485,44.942025133340046,5,1.74,2.9198498725891113,16.51,1.74,0,0,1,160,1,1
1754494059.2511482,20250806112739.251088,18.34062799078314,-64.97701537936402,0.13369999999999926,0.0,0.25114894139180055,0.34749562477501483,-0.0979918972513685,3.0410772882007024,-2.260879654821741,45.253570663349315,5,1.74,2.9198498725891113,16.51,1.74,0,0,1,160,1,1
1754494059.3545582,20250806112739.354498,18.340628303929,-64.97701513494731,0.12570000000000014,0.0,0.2552346199521461,0.34450586174676845,-0.18586659174640177,2.0806087000519002,-2.1777720177188398,45.9301284633085,5,1.74,3.3686130046844482,16.51,1.74,0,0,1,160,1,1
1754494059.464353,20250806112739.464293,18.340628632067105,-64.97701487882884,0.12570000000000014,0.0,0.2552346199521461,0.34450586174676845,-0.18586659174640177,2.0806087000519002,-2.1777720177188398,45.9301284633085,5,1.74,3.1909327507019043,16.51,1.74,0,0,1,160,1,1
1754494059.568779,20250806112739.568719,18.3406289614398,-64.97701461971405,0.1166999999999998,0.0,0.2565320794676459,0.3435408159214934,-0.16560401054085158,1.0874123950190815,-2.2064430276721594,46.146215235345046,5,1.74,2.829693078994751,16.51,1.74,0,0,1,160,1,1
1754494059.6717923,20250806112739.671732,18.34062928898838,-64.97701436071449,0.1166999999999998,0.0,0.25737330707099,0.3429110392030882,-0.16560401054085158,-0.07032493350059126,-2.233866246995317,46.286643974892776,5,1.74,3.0142087936401367,16.51,1.74,0,0,1,160,1,1
1754494059.7506914,20250806112739.750631,18.34062953580393,-64.97701416452018,0.1296999999999997,0.0,0.2582414273048297,0.3422577467692504,-0.024844584943089672,-1.0796319529987903,-2.2218062630429727,46.431833357994265,5,1.74,3.0142087936401367,16.51,1.74,0,0,1,160,1,1
1754494059.8540425,20250806112739.853982,18.340629852441428,-64.97701390712353,0.1296999999999997,0.0,0.2619228620731518,0.3394486917391326,-0.024844584943089672,-1.8865813124880226,-2.1841595275372128,47.05065896335096,5,1.74,4.230429649353027,16.51,1.74,0,0,1,160,1,1
1754494059.959487,20250806112739.959427,18.340630172052798,-64.9770136473094,0.1426999999999996,0.0,0.2619228620731518,0.3394486917391326,-0.0014706651049399642,-1.8865813124880226,-2.1841595275372128,47.05065896335096,5,1.74,3.138231039047241,16.48,1.74,0,0,1,160,1,1
1754494060.0636556,20250806112740.063595,18.34063048442023,-64.97701339046677,0.1426999999999996,0.0,0.26379685497991434,0.3379944072062525,-0.0014706651049399642,-1.9820968464285171,-2.3217767894625534,47.36764986362309,5,1.74,3.83723783493042,16.48,1.74,0,0,1,160,1,1
1754494060.153363,20250806112740.153303,18.34063075928909,-64.97701315466865,0.12069999999999936,0.0,0.28021688030985675,0.34412860966419434,-0.04798959118608905,-2.237425203712288,-2.549976052549468,47.577476765047024,5,1.78,3.83723783493042,16.48,1.78,0,0,1,160,1,1
1754494060.2558675,20250806112740.255807,18.34063108395199,-64.97701287424186,0.12069999999999936,0.0,0.28136917631347724,0.3431871014777149,-0.04798959118608905,-3.038688428684327,-2.7300946086689697,47.769591272072475,5,1.78,3.712224245071411,16.48,1.78,0,0,1,160,1,1
1754494060.3642454,20250806112740.364185,18.340631415973526,-64.97701258745907,0.12069999999999936,0.0,0.28136917631347724,0.3431871014777149,-0.04798959118608905,-3.038688428684327,-2.7300946086689697,47.769591272072475,5,1.78,3.0903079509735107,16.48,1.78,0,0,1,160,1,1
1754494060.4707053,20250806112740.470645,18.34063173706624,-64.97701230846972,0.25269999999999904,0.0,0.28236440924884953,0.34236871993444173,0.08251743906727962,-2.9788523216217784,-2.490596074220524,47.9359457114324,5,1.78,3.3554065227508545,16.48,1.78,0,0,1,160,1,1
1754494060.575547,20250806112740.575487,18.340632057908913,-64.97701202969765,0.25269999999999904,0.0,0.28236440924884953,0.34236871993444173,0.08251743906727962,-2.9788523216217784,-2.490596074220524,47.9359457114324,5,1.78,3.094632387161255,16.51,1.78,0,0,1,160,1,1
1754494060.677789,20250806112740.677729,18.34063237956754,-64.97701174996257,0.1556999999999995,0.0,0.2825170747875272,0.34224275369026996,-0.04915534996913673,-2.602810999765995,-2.4660658679321275,47.96149916580169,5,1.78,3.3899171352386475,16.51,1.78,0,0,1,160,1,1
1754494060.7509325,20250806112740.750872,18.34063260824801,-64.9770115515055,0.1556999999999995,0.0,0.2821632927014737,0.34253448914213364,-0.04915534996913673,-2.2245944753252003,-2.5564485128760213,47.90229677245466,5,1.78,3.3899171352386475,16.51,1.78,0,0,1,160,1,1
1754494060.8556626,20250806112740.855602,18.340632930756772,-64.97701127559854,0.1296999999999997,0.0,0.27975364378922835,0.3445052957309213,-0.0834360364498764,-1.886374485748264,-2.768399177004383,47.50039225663916,5,1.78,3.825748920440674,16.51,1.78,0,0,1,160,1,1
1754494060.9608347,20250806112740.960774,18.340633253165095,-64.9770109997775,0.1296999999999997,0.0,0.27975364378922835,0.3445052957309213,-0.0834360364498764,-1.886374485748264,-2.768399177004383,47.50039225663916,5,1.78,3.2048332691192627,16.51,1.78,0,0,1,160,1,1
1754494061.0680857,20250806112741.068025,18.340633587952556,-64.97701071635954,0.1296999999999997,0.0,0.27798063998773304,0.34593751428836156,-0.030031194227005488,-1.77541866333783,-2.726984310163545,47.20613052650467,5,1.78,3.41668438911438,16.51,1.78,0,0,1,160,1,1
1754494061.1540341,20250806112741.153974,18.340633851211336,-64.97701049606931,0.1296999999999997,0.0,0.27601618320727717,0.34750693030166585,-0.030031194227005488,-1.7448435240291096,-2.62347702514975,46.881505179557955,5,1.78,3.41668438911438,16.51,1.78,0,0,1,160,1,1
1754494061.256763,20250806112741.256703,18.340634175805654,-64.97701023319279,0.13870000000000005,0.0,0.2704687232079988,0.351841824924546,-0.13174276790311276,-2.010366155737642,-2.4241523971035943,45.97254669489637,5,1.78,4.3275651931762695,16.51,1.78,0,0,1,160,1,1
1754494061.3592322,20250806112741.359172,18.340634506611668,-64.97700996528566,0.13870000000000005,0.0,0.2704687232079988,0.351841824924546,-0.13174276790311276,-2.010366155737642,-2.4241523971035943,45.97254669489637,5,1.78,3.9715542793273926,16.51,1.78,0,0,1,160,1,1
1754494061.4628875,20250806112741.462827,18.340634842387864,-64.97700970469428,0.1296999999999997,0.0,0.2632119276762348,0.3573030662182463,-0.12257687108044121,-2.0668475715011394,-2.3354179627731315,44.79995305928961,5,1.78,3.551191806793213,16.51,1.78,0,0,1,160,1,1
1754494061.5784018,20250806112741.578342,18.34063517508357,-64.97700944649364,0.1296999999999997,0.0,0.2632119276762348,0.3573030662182463,-0.12257687108044121,-2.0668475715011394,-2.3354179627731315,44.79995305928961,5,1.78,3.509462833404541,16.51,1.78,0,0,1,160,1,1
1754494061.6513028,20250806112741.651243,18.34063544976202,-64.9770092379491,0.13369999999999926,0.0,0.25946369773144085,0.36003415054620513,-0.025613025467793954,-1.7135369138874152,-2.1262779224932067,44.20119455688969,5,1.78,3.509462833404541,16.51,1.78,0,0,1,160,1,1
1754494061.7616594,20250806112741.761599,18.340635804960534,-64.97700897762869,0.13369999999999926,0.0,0.2534318495174764,0.3643052259440581,-0.025613025467793954,-0.5313819171583317,-1.2085176687218118,43.24696897731796,5,1.78,4.559419631958008,16.51,1.78,0,0,1,160,1,1
1754494061.873624,20250806112741.873564,18.34063615692509,-64.97700871967838,0.1296999999999997,0.0,0.2534318495174764,0.3643052259440581,-0.01234349774963287,-0.5313819171583317,-1.2085176687218118,43.24696897731796,5,1.78,4.160782337188721,16.51,1.78,0,0,1,160,1,1
1754494061.9756746,20250806112741.975614,18.340636499269806,-64.97700847892025,0.1296999999999997,0.0,0.2463907878366376,0.36910375190350075,-0.01234349774963287,0.06880132052320591,-0.31135428464411397,42.14687099548355,5,1.78,3.742617130279541,16.51,1.78,0,0,1,160,1,1
1754494062.073757,20250806112742.073697,18.340636834724684,-64.97700815906695,0.1426999999999996,0.0,0.32978209395887037,0.36437759659334323,0.011323611050298325,0.06880132052320591,-0.31135428464411397,42.14687099548355,3,1.78,3.440978527069092,16.51,0.0,0,0,1,160,1,1
1754494062.1596024,20250806112742.159542,18.340637094505542,-64.9770079167392,0.1426999999999996,0.0,0.32518335446108776,0.36725998113354313,0.011323611050298325,-0.11322552709971018,-0.22963901945397838,41.522687104807055,3,1.78,3.440978527069092,16.51,0.0,0,0,1,160,1,1
1754494062.2592075,20250806112742.259147,18.34063745680175,-64.97700759243364,0.25269999999999904,0.0,0.3182027177731145,0.37450237851374013,0.12828961799255767,-0.2049387253861915,-0.6800387964421756,40.35350856500641,3,1.78,3.8010764122009277,16.51,0.0,0,0,1,160,1,1
1754494062.3599846,20250806112742.359924,18.340637802588592,-64.97700728290624,0.25269999999999904,0.0,0.3192493422051719,0.3757341823837988,0.12828961799255767,-0.2049387253861915,-0.6800387964421756,40.35350856500641,3,1.78,3.867231607437134,16.48,0.0,0,0,1,160,1,1
1754494062.4708467,20250806112742.470786,18.340638154828653,-64.97700697769943,0.1426999999999996,0.0,0.31310019500049185,0.38068799536324144,-0.1442522414900597,0.23289144464190623,-0.8595039486843964,39.43590305776375,3,1.78,4.348576068878174,16.48,0.0,0,0,1,160,1,1
1754494062.5667071,20250806112742.566647,18.34063850688812,-64.9770066726491,0.1426999999999996,0.0,0.3138284363310826,0.3815734395012843,-0.1442522414900597,0.23289144464190623,-0.8595039486843964,39.43590305776375,3,1.78,4.348576068878174,16.48,0.0,0,0,1,160,1,1
1754494062.6545177,20250806112742.654457,18.34063879853181,-64.97700642287847,0.1296999999999997,0.0,0.31156263500003456,0.3832639191967094,-0.1567458164599508,0.35845608641523435,-0.6151489345561587,39.10834072842378,3,1.78,4.348576068878174,16.48,0.0,0,0,1,160,1,1
1754494062.7557359,20250806112742.755676,18.340639160341333,-64.97700611823332,0.1296999999999997,0.0,0.3085909720133594,0.3861092985926904,-0.1567458164599508,0.46231309858392505,-0.24840451734120628,38.63298671297804,3,1.78,3.429938793182373,16.48,0.0,0,0,1,160,1,1
1754494062.8614497,20250806112742.861389,18.34063952460737,-64.97700581151976,0.13369999999999926,0.0,0.30890835622648866,0.38650641000238656,-0.12266878798246825,0.46231309858392505,-0.24840451734120628,38.63298671297804,3,1.78,3.2948732376098633,16.48,0.0,0,0,1,160,1,1
1754494062.97026,20250806112742.970200,18.340639896996905,-64.97700550051378,0.13369999999999926,0.0,0.3072969825637533,0.3876397895275709,-0.12266878798246825,0.5076471080275209,-0.3877591025361667,38.40523055857197,3,1.78,3.3627700805664062,16.53,0.0,0,0,1,160,1,1
1754494063.071039,20250806112743.070979,18.34064028345671,-64.97700526722136,0.12069999999999936,0.0,0.2346974358236038,0.4095938398191865,-0.17193481926036241,0.7168992061385842,-0.6496792884170882,38.21747542134303,5,1.82,3.8054518699645996,16.53,1.82,0,0,1,160,1,1
1754494063.1519144,20250806112743.151854,18.340640575793014,-64.97700509152577,0.12069999999999936,0.0,0.23391750639642656,0.410039754415688,-0.17193481926036241,1.1522196009144146,-0.8724508436897647,38.10843482734934,5,1.82,3.8054518699645996,16.53,1.82,0,0,1,160,1,1
1754494063.2561615,20250806112743.256101,18.340640952041337,-64.97700486524403,0.15169999999999995,0.0,0.23403813346289237,0.4099709161455303,-0.22662236693436624,2.41928183015361,-0.9594497156593823,38.12529174024836,5,1.82,3.5557262897491455,16.53,1.82,0,0,1,160,1,1
1754494063.3572133,20250806112743.357153,18.340641341427798,-64.97700463106078,0.15169999999999995,0.0,0.23403813346289237,0.4099709161455303,-0.22662236693436624,2.41928183015361,-0.9594497156593823,38.12529174024836,5,1.82,2.3457396030426025,16.53,1.82,0,0,1,160,1,1
1754494063.4641755,20250806112743.464115,18.340641728403348,-64.97700439766712,0.13870000000000005,0.0,0.23453848500249436,0.40968487774475487,-0.036980500206694925,2.857515034847702,-0.8872183582858986,38.19524314764517,5,1.82,2.6607275009155273,16.53,1.82,0,0,1,160,1,1
1754494063.5528173,20250806112743.552757,18.340642049761108,-64.97700420308367,0.13870000000000005,0.0,0.2352349938577711,0.4092853499268383,-0.036980500206694925,2.9524773232676047,-0.9222534526347985,38.292699736664474,5,1.82,2.6607275009155273,16.48,1.82,0,0,1,160,1,1
1754494063.6589577,20250806112743.658897,18.34064243983874,-64.97700396508003,0.13870000000000005,0.0,0.23658618293139053,0.4085057870409606,-0.03381325613443775,2.6305253560066184,-1.4936663224194073,38.482032648155844,5,1.82,2.762503147125244,16.48,1.82,0,0,1,160,1,1
1754494063.763528,20250806112743.763468,18.340642815487755,-64.97700373587993,0.13870000000000005,0.0,0.23658618293139053,0.4085057870409606,-0.03381325613443775,2.6305253560066184,-1.4936663224194073,38.482032648155844,5,1.82,3.5812270641326904,16.48,1.82,0,0,1,160,1,1
1754494063.8644965,20250806112743.864436,18.34064319263506,-64.97700350194218,0.13369999999999926,0.0,0.23951144903243946,0.40679757347159917,-0.009643815742449213,2.737614222747084,-1.9864907940700522,38.8931795914406,5,1.82,3.479480266571045,16.48,1.82,0,0,1,160,1,1
1754494063.970489,20250806112743.970429,18.3406435878938,-64.97700325677023,0.13369999999999926,0.0,0.23951144903243946,0.40679757347159917,-0.009643815742449213,2.737614222747084,-1.9864907940700522,38.8931795914406,5,1.82,2.638251781463623,16.48,1.82,0,0,1,160,1,1
1754494064.0550709,20250806112744.055011,18.34064388119439,-64.97700307256439,0.13369999999999926,0.0,0.24172645460987488,0.40548529090676044,-0.009643815742449213,2.974502129895237,-1.950080323246109,39.20565744260494,5,1.82,2.638251781463623,16.48,1.82,0,0,1,160,1,1
1754494064.1562405,20250806112744.156180,18.340644259071688,-64.97700282854505,0.2436999999999987,0.0,0.2467024036233354,0.4024772341965058,0.05711155709756075,3.4175685489289425,-1.7436283902525778,39.911376745652596,5,1.82,3.3937344551086426,16.51,1.82,0,0,1,160,1,1
1754494064.2626507,20250806112744.262590,18.340644647863463,-64.97700257747753,0.2436999999999987,0.0,0.2467024036233354,0.4024772341965058,0.05711155709756075,3.4175685489289425,-1.7436283902525778,39.911376745652596,5,1.82,3.554051160812378,16.51,1.82,0,0,1,160,1,1
1754494064.3691297,20250806112744.369069,18.340645029620013,-64.97700232333777,0.1426999999999996,0.0,0.25217211309542736,0.3990729574613983,-0.14615055027346918,3.202278774876143,-1.945533976954209,40.693327817284505,5,1.82,3.4596755504608154,16.51,1.82,0,0,1,160,1,1
1754494064.4734325,20250806112744.473372,18.340645403989914,-64.97700207411538,0.1426999999999996,0.0,0.25217211309542736,0.3990729574613983,-0.14615055027346918,3.202278774876143,-1.945533976954209,40.693327817284505,5,1.82,3.2653818130493164,16.51,1.82,0,0,1,160,1,1
1754494064.5571995,20250806112744.557139,18.34064566017951,-64.97700189194967,0.1426999999999996,0.0,0.24806807589312452,0.367542146865748,-0.14615055027346918,2.8781456286124847,-2.094544425375747,41.14193138728086,5,1.76,3.2653818130493164,16.51,1.76,0,0,1,160,1,1
1754494064.656006,20250806112744.655946,18.340646000362437,-64.97700164118693,0.1426999999999996,0.0,0.2542128309468509,0.36331919379794375,-0.14615055027346918,2.273164821653809,-2.0916706222548953,42.10534357457105,5,1.76,3.046231985092163,16.51,1.76,0,0,1,160,1,1
1754494064.7618842,20250806112744.761824,18.340646339522674,-64.97700139117805,0.13870000000000005,0.0,0.2542128309468509,0.36331919379794375,-0.1435707045045969,2.273164821653809,-2.0916706222548953,42.10534357457105,5,1.76,3.0092082023620605,16.53,1.76,0,0,1,160,1,1
1754494064.8661017,20250806112744.866041,18.34064667571734,-64.9770011340942,0.13870000000000005,0.0,0.2604738270288316,0.3588570543168329,-0.1435707045045969,1.9217247827678878,-1.5967526968750971,43.09878469928447,5,1.76,3.1850967407226562,16.53,1.76,0,0,1,160,1,1
1754494064.97542,20250806112744.975360,18.340647019133847,-64.97700087148789,0.13870000000000005,0.0,0.2604738270288316,0.3588570543168329,-0.2374543287469227,1.9217247827678878,-1.5967526968750971,43.09878469928447,5,1.76,3.102797031402588,16.53,1.76,0,0,1,160,1,1
1754494065.0538118,20250806112745.053752,18.340647280445907,-64.97700066789031,0.13870000000000005,0.0,0.2636657495596457,0.35651840416611064,-0.2374543287469227,1.6999567854143638,-1.3278239339869333,43.610075767898024,5,1.76,3.102797031402588,16.53,1.76,0,0,1,160,1,1
1754494065.1543076,20250806112745.154247,18.34064760688604,-64.97700040429932,0.1476999999999986,0.0,0.2697459327140204,0.3519405230777541,-0.1837701214920229,1.0396796009369156,-0.9861608875069634,44.5935072468037,5,1.76,3.450218915939331,16.53,1.76,0,0,1,160,1,1
1754494065.259077,20250806112745.259017,18.340647932048142,-64.9770001417403,0.1476999999999986,0.0,0.2697459327140204,0.3519405230777541,-0.1837701214920229,1.0396796009369156,-0.9861608875069634,44.5935072468037,5,1.76,3.273388147354126,16.53,1.76,0,0,1,160,1,1
1754494065.366177,20250806112745.366117,18.340648266298373,-64.97699986817952,0.1607000000000003,0.0,0.2720350345460885,0.3501741566413895,0.02862580157709842,0.6732873654769698,-0.948206686656909,44.96710848270602,5,1.76,3.228855848312378,16.53,1.76,0,0,1,160,1,1
1754494065.450552,20250806112745.450492,18.340648542313122,-64.97699963991658,0.1607000000000003,0.0,0.27379985581274907,0.34879598472017687,0.02862580157709842,0.12630854568946748,-0.9526755529627075,45.25643881449641,5,1.76,3.228855848312378,16.53,1.76,0,0,1,160,1,1
1754494065.5562606,20250806112745.556200,18.34064886474871,-64.9769993673329,0.1476999999999986,0.0,0.2775202640931958,0.34584317691352945,0.028367777600297663,-0.9696448438581113,-0.9030414042904842,45.87017251200623,5,1.76,3.2814362049102783,16.53,1.76,0,0,1,160,1,1
1754494065.653794,20250806112745.653734,18.340649169715007,-64.97699910951758,0.1476999999999986,0.0,0.2775202640931958,0.34584317691352945,0.028367777600297663,-0.9696448438581113,-0.9030414042904842,45.87017251200623,5,1.76,1.0292519330978394,16.53,1.76,0,0,1,160,1,1
1754494065.7573102,20250806112745.757250,18.340649494834548,-64.97699881448614,0.1476999999999986,0.0,0.30028103784558235,0.3486133937621731,0.02269422208023813,-1.2506279344461892,-0.8658480227529872,46.2278115901107,5,1.75,1.2524921894073486,16.53,1.75,0,0,1,160,1,1
