timestamp_ros,timestamp_sys (%Y%m%d%H%M%S.%f),latitude,longitude,depth,distance_to_ocean_floor,velX,velY,velZ,roll,pitch,yaw,navMode,acousticAltimeter,forwardStereo,battery_volts,altitudeUsed,cotsNumFound,cotsNumMaybe,missionState,errorState,storeData,storeImageData
1767987419.4539123,20260109153659.453878,18.189034833333334,-64.95881899999999,0.07085640784881005,0.5586001102372958,-0.034101015729112956,-0.17050403371756692,-0.05308631394421915,4.289479007068268,-7.599718565332881,51.677188483933456,1,41.41,0.7932595610618591,14.36,41.41,0,0,1,0,1,0
1767987419.5370708,20260109153659.537036,18.189034333333332,-64.95881899999999,0.09655378039294342,0.5586001102372958,0.0005288427999986778,-0.15947552314462832,0.002877953075612255,5.5577730186760315,-9.436601269215338,51.22989859350402,1,41.41,0.7932595610618591,14.36,41.41,0,0,1,0,1,0
1767987419.6684911,20260109153659.668457,18.189034333333332,-64.95881899999999,0.09655378039294342,0.5586001102372958,0.0005288427999986778,-0.15947552314462832,0.002877953075612255,6.933273290942598,-11.375988073718542,49.403218488342326,1,41.41,0.6262226700782776,14.36,41.41,0,0,1,0,1,0
1767987419.762762,20260109153659.762728,18.189034333333332,-64.95881899999999,0.1350941241816137,0.5586001102372958,0.0005288427999986778,-0.15947552314462832,0.09523792692762338,6.933273290942598,-11.375988073718542,49.403218488342326,1,41.41,0.9148743748664856,14.36,41.41,0,0,1,0,1,0
1767987419.88463,20260109153659.884596,18.189034333333332,-64.95881899999999,0.10909412418161392,0.5586001102372958,0.0005288427999986778,-0.15947552314462832,0.09409094188453813,6.3155136223643895,-10.528287016305317,48.94974840682225,1,41.41,0.8739091157913208,14.36,41.41,0,0,1,0,1,0
1767987419.9918213,20260109153659.991787,18.189034333333332,-64.95881983333334,0.10909412418161392,0.5586001102372958,-0.10056598108116056,-0.10312578201121027,0.09409094188453813,5.206573530600954,-8.769599761095636,49.7887896350451,1,41.03,2.8294811248779297,14.36,41.03,0,0,1,0,1,0
1767987420.105552,20260109153700.105518,18.189034333333332,-64.95881983333334,0.09440429556742364,0.5586001102372958,-0.10056598108116056,-0.10312578201121027,0.049074668251199834,5.363157380859543,-6.993066495864088,51.6984497381039,1,41.03,0.6918932795524597,15.56,41.03,0,0,1,0,1,0
1767987420.1782463,20260109153700.178212,18.189034333333332,-64.95881983333334,0.09440429556742364,0.5586001102372958,-0.10056598108116056,-0.10312578201121027,0.049074668251199834,7.208439085990181,-5.866920297655457,54.73179930482585,1,41.03,0.6918932795524597,15.56,41.03,0,0,1,0,1,0
1767987420.252257,20260109153700.252223,18.189034333333332,-64.95881983333334,0.09440429556742364,0.5586001102372958,-0.10056598108116056,-0.10312578201121027,0.049074668251199834,10.28984417334794,-5.870501452495148,58.7086305597134,1,41.03,0.8590155243873596,15.56,41.03,0,0,1,0,1,0
1767987420.3372426,20260109153700.337208,18.189034333333332,-64.95881983333334,0.09749426589136677,0.5586001102372958,-0.10056598108116056,-0.10312578201121027,0.03821964937224652,13.541560942330953,-6.729649484163522,63.053335934836454,1,41.03,0.8590155243873596,15.56,41.03,0,0,1,0,1,0
1767987420.4697566,20260109153700.469722,18.189034333333332,-64.95881983333334,0.09749426589136677,0.5586001102372958,-0.10056598108116056,-0.10312578201121027,0.03821964937224652,17.03865917517542,-8.497340639466039,71.35867135034279,1,41.03,0.6785913705825806,15.56,41.03,0,0,1,0,1,0
1767987420.5599597,20260109153700.559925,18.189035999999998,-64.9588205,0.10147373700576078,0.5586001102372958,-0.16961040278127626,0.4102856566999773,-0.0032518419557735828,17.03865917517542,-8.497340639466039,71.35867135034279,1,42.19,0.7790253162384033,15.56,42.19,0,0,1,0,1,0
1767987420.6373158,20260109153700.637281,18.189035999999998,-64.9588205,0.1284737370057618,0.5586001102372958,-0.16961040278127626,0.4102856566999773,0.006185870969243934,16.234163348579397,-8.788655995693793,75.2298053900309,1,42.19,0.7790253162384033,15.7,42.19,0,0,1,0,1,0
1767987420.751854,20260109153700.751820,18.189035999999998,-64.9588205,0.1284737370057618,0.5586001102372958,-0.16961040278127626,0.4102856566999773,0.006185870969243934,11.001353771334879,-9.509557107147565,82.84080401681142,1,42.19,1.9120267629623413,15.7,42.19,0,0,1,0,1,0
1767987420.865099,20260109153700.865065,18.189035999999998,-64.9588205,0.1284737370057618,0.5586001102372958,-0.16961040278127626,0.4102856566999773,0.006185870969243934,11.001353771334879,-9.509557107147565,82.84080401681142,1,42.19,2.251373529434204,15.7,42.19,0,0,1,0,1,0
1767987420.9767797,20260109153700.976745,18.189037666666664,-64.95882,0.12212882301279503,0.5586001102372958,0.008082328537155256,0.3733959773747584,0.024908868618533177,7.1388419947832755,-10.261591085743898,86.74704524138647,1,42.19,2.1608757972717285,15.7,42.19,0,0,1,0,1,0
1767987421.086558,20260109153701.086524,18.189037666666664,-64.95882,0.11454831944942319,0.5586001102372958,0.008082328537155256,0.3733959773747584,0.052393789256757306,3.313171418014163,-11.217543850019569,90.8317388822146,1,42.19,1.9156944751739502,15.7,42.19,0,0,1,0,1,0
1767987421.1973176,20260109153701.197283,18.189037666666664,-64.95882,0.11454831944942319,0.5586001102372958,0.008082328537155256,0.3733959773747584,0.052393789256757306,-0.13750245600929978,-12.204374203026289,95.06127356637195,1,42.9,0.8598207831382751,15.7,0.5586001102372958,0,0,1,0,1,0
1767987421.244332,20260109153701.244298,18.189037666666664,-64.95882,0.15619154012781505,0.5586001102372958,0.008082328537155256,0.3733959773747584,0.11553089404754294,-2.8728774164445725,-12.949336371982092,99.34697974634842,1,42.9,0.8598207831382751,15.22,0.5586001102372958,0,0,1,0,1,0
1767987421.366635,20260109153701.366601,18.189037666666664,-64.95882,0.15619154012781505,0.5586001102372958,0.008082328537155256,0.3733959773747584,0.11553089404754294,-4.840006965172296,-13.320805734327433,103.36503120761589,1,42.9,1.6327173709869385,15.22,0.5586001102372958,0,0,1,0,1,0
1767987421.442028,20260109153701.441994,18.189038666666665,-64.95881916666667,0.15619154012781505,0.5586001102372958,0.11953244597681881,0.290151178300828,0.11553089404754294,-6.398773658117657,-13.227481411233542,106.87954728284556,1,42.9,1.6327173709869385,15.22,0.5586001102372958,0,0,1,0,1,0
1767987421.5428874,20260109153701.542853,18.189038666666665,-64.95881916666667,0.16154923889417228,0.5586001102372958,0.11953244597681881,0.290151178300828,0.11611234745482231,-9.136626937571167,-11.070474456676834,112.3363649468489,1,42.9,1.1118167638778687,15.22,0.5586001102372958,0,0,1,0,1,0
1767987421.652627,20260109153701.652593,18.189038666666665,-64.95881916666667,0.16154923889417228,0.5586001102372958,0.11953244597681881,0.290151178300828,0.11611234745482231,-9.136626937571167,-11.070474456676834,112.3363649468489,1,42.9,2.1676876544952393,15.22,0.5586001102372958,0,0,1,0,1,0
1767987421.7550733,20260109153701.755039,18.189038666666665,-64.95881916666667,0.15487468894771428,0.5586001102372958,0.11953244597681881,0.290151178300828,0.08117193959157248,-10.214038437965517,-9.164933812934157,114.43532381044108,1,42.9,2.1676876544952393,15.22,0.5586001102372958,0,0,1,0,1,0
1767987421.8514352,20260109153701.851401,18.189038666666665,-64.95881916666667,0.15487468894771428,0.5586001102372958,0.11953244597681881,0.290151178300828,0.08117193959157248,-10.59321481777132,-6.048615347376462,118.07158122096735,1,41.9,2.423950433731079,15.7,0.5586001102372958,0,0,1,0,1,0
1767987421.958515,20260109153701.958481,18.18903883333333,-64.95881783333333,0.08547344112736849,0.5586001102372958,0.17762997266676203,0.24101949284456592,-0.0043163442863849875,-10.59321481777132,-6.048615347376462,118.07158122096735,1,41.9,3.198246955871582,15.7,0.5586001102372958,0,0,1,0,1,0
1767987422.0923936,20260109153702.092359,18.18903883333333,-64.95881783333333,0.08547344112736849,0.5586001102372958,0.17762997266676203,0.24101949284456592,-0.0043163442863849875,-10.084246868079902,-5.466232229366893,119.72836713996607,1,41.9,2.4518275260925293,15.7,0.5586001102372958,0,0,1,0,1,0
1767987422.1869473,20260109153702.186913,18.18903883333333,-64.95881783333333,0.09847344112736839,0.5586001102372958,0.17762997266676203,0.24101949284456592,0.014241394829316556,-9.796953640937806,-5.5278725742325125,121.07055443330484,1,41.9,2.5374808311462402,15.7,0.5586001102372958,0,0,1,0,1,0
1767987422.2662325,20260109153702.266198,18.18903883333333,-64.95881783333333,0.12150584673974146,0.5586001102372958,0.17762997266676203,0.24101949284456592,-0.019556813944858954,-9.983528008791804,-5.988696637684101,121.89546399508195,1,41.9,2.5374808311462402,15.7,0.5586001102372958,0,0,1,0,1,0
1767987422.3484426,20260109153702.348408,18.18903883333333,-64.95881783333333,0.12150584673974146,0.5586001102372958,0.17762997266676203,0.24101949284456592,-0.019556813944858954,-12.188741601973774,-7.72668926608264,122.07959230056481,1,41.9,2.4166905879974365,15.7,0.5586001102372958,0,0,1,0,1,0
1767987422.483125,20260109153702.483091,18.1890385,-64.95881566666667,0.12150584673974146,0.5586001102372958,0.5407846922476648,-0.02096390292318951,-0.019556813944858954,-12.188741601973774,-7.72668926608264,122.07959267190915,1,42.75,2.217987298965454,15.7,42.75,0,0,1,0,1,0
1767987422.5493114,20260109153702.549277,18.1890385,-64.95881566666667,0.11883657858461491,0.5586001102372958,0.5407846922476648,-0.02096390292318951,-0.024540747350670324,-13.646622949710487,-8.619980144959683,121.56129041160567,1,42.75,1.3464332818984985,15.7,42.75,0,0,1,0,1,0
1767987422.6392817,20260109153702.639247,18.1890385,-64.95881566666667,0.11883657858461491,0.5586001102372958,0.5407846922476648,-0.02096390292318951,-0.024540747350670324,-14.344244206827886,-8.878951128807659,120.67046950077042,1,42.75,1.3464332818984985,15.7,42.75,0,0,1,0,1,0
1767987422.7378275,20260109153702.737793,18.1890385,-64.95881566666667,0.12977580472459938,0.5586001102372958,0.5407846922476648,-0.02096390292318951,-0.007516586440014407,-14.041994567602872,-8.183237202697986,119.5439933189295,1,42.75,0.7891805768013,15.7,42.75,0,0,1,0,1,0
1767987422.8365288,20260109153702.836495,18.1890385,-64.95881566666667,0.12977580472459938,0.5586001102372958,0.5407846922476648,-0.02096390292318951,-0.007516586440014407,-12.867625935950876,-6.71612442411035,118.49314101861937,1,42.75,0.7891805768013,15.7,42.75,0,0,1,0,1,0
1767987422.9374979,20260109153702.937464,18.1890365,-64.95881516666667,0.12082599660922182,0.5586001102372958,0.429538214154951,-0.18091420588208393,0.0549910788665908,-9.21651200489402,-3.8740812673687897,117.52731094349843,1,42.75,0.7891805768013,15.7,42.75,0,0,1,0,1,0
1767987423.0479517,20260109153703.047917,18.1890365,-64.95881516666667,0.12082599660922182,0.5586001102372958,0.429538214154951,-0.18091420588208393,0.0549910788665908,-9.21651200489402,-3.8740812673687897,117.52731094349843,1,42.67,0.7867705821990967,15.7,42.67,0,0,1,0,1,0
1767987423.1402376,20260109153703.140203,18.1890365,-64.95881516666667,0.07557061407183943,0.5586001102372958,0.429538214154951,-0.18091420588208393,-0.03690591380439566,-7.280531758457426,-3.320360621573027,117.3772106526278,1,42.67,0.7867705821990967,15.7,42.67,0,0,1,0,1,0
1767987423.2500212,20260109153703.249987,18.1890365,-64.95881516666667,0.07557061407183943,0.5586001102372958,0.429538214154951,-0.18091420588208393,-0.03690591380439566,-3.432861134505274,-3.1013074119418804,117.48027824405654,1,42.67,0.7833084464073181,15.7,42.67,0,0,1,0,1,0
1767987423.391837,20260109153703.391803,18.1890365,-64.95881516666667,0.06287568127462272,0.5586001102372958,0.429538214154951,-0.18091420588208393,-0.10922389827804053,-3.432861134505274,-3.1013074119418804,117.48027824405654,1,42.67,0.5573692321777344,15.7,42.67,0,0,1,0,1,0
1767987423.4503868,20260109153703.450353,18.189035,-64.95881533333333,0.06154294303242065,0.5586001102372958,0.18446740893441946,-0.2557703703480528,-0.08872805250202637,-1.0512499455280626,-2.8466170372433903,118.05779826563818,1,42.67,0.5573692321777344,15.7,42.67,0,0,1,0,1,0
1767987423.536824,20260109153703.536790,18.189035,-64.95881533333333,0.06154294303242065,0.5586001102372958,0.18446740893441946,-0.2557703703480528,-0.08872805250202637,2.0140113436236953,-2.7607803117044214,119.07134405936225,1,42.67,0.5573692321777344,15.7,42.67,0,0,1,0,1,0
1767987423.6397974,20260109153703.639763,18.189035,-64.95881533333333,0.06154294303242065,0.5586001102372958,0.18446740893441946,-0.2557703703480528,-0.08872805250202637,5.651300113083421,-3.507378524994846,120.22900689610464,1,42.87,0.5573692321777344,15.72,42.87,0,0,1,0,1,0
1767987423.7521806,20260109153703.752146,18.189035,-64.95881533333333,0.08126909261290914,0.5586001102372958,0.18446740893441946,-0.2557703703480528,-0.10201274578001172,11.969049342539906,-8.235132998567819,120.8921501997374,1,42.87,0.5573692321777344,15.72,42.87,0,0,1,0,1,0
1767987423.8478107,20260109153703.847776,18.189035,-64.95881533333333,0.08126909261290914,0.5586001102372958,0.18446740893441946,-0.2557703703480528,-0.10201274578001172,11.969049342539906,-8.235132998567819,120.8921501997374,1,42.87,2.5000691413879395,15.72,42.87,0,0,1,0,1,0
1767987423.968405,20260109153703.968371,18.189035,-64.9588155,0.11333948591802229,0.5586001102372958,0.0,0.03189528,-0.016956843401704925,12.962972849535939,-10.688755538043374,119.74389936703668,1,42.87,2.3342273235321045,15.72,42.87,0,0,1,0,1,0
1767987424.0383255,20260109153704.038291,18.189035,-64.9588155,0.11333948591802229,0.5586001102372958,0.0,0.03189528,-0.016956843401704925,12.165454917445778,-11.57298616774678,117.76960516075117,1,42.87,2.3342273235321045,15.72,42.87,0,0,1,0,1,0
1767987424.1664422,20260109153704.166408,18.189035,-64.9588155,0.12591768209002824,0.5586001102372958,0.0,0.03189528,0.07698395839335424,6.63377792648524,-7.64466720255911,112.34753951167092,1,42.87,2.5256803035736084,15.72,42.87,0,0,1,0,1,0
1767987424.2400925,20260109153704.240058,18.189035,-64.9588155,0.12591768209002824,0.5586001102372958,0.0,0.03189528,0.07698395839335424,6.63377792648524,-7.64466720255911,112.34753951167092,1,42.87,2.5256803035736084,15.53,42.87,0,0,1,0,1,0
1767987424.3525214,20260109153704.352487,18.189035,-64.9588155,0.09674591217813597,0.5586001102372958,0.0,0.03189528,0.060448044240785426,-0.7601120675604823,-1.7981638417370562,107.90827013367635,1,40.97,1.8790959119796753,15.53,0.5586001102372958,0,0,1,0,1,0
1767987424.4537098,20260109153704.453676,18.1890335,-64.95881683333333,0.09674591217813597,0.5586001102372958,-0.1077811592200662,-0.445513914869626,0.060448044240785426,-0.7601120675604823,-1.7981638417370562,107.90827013367635,1,40.97,1.173304796218872,15.53,0.5586001102372958,0,0,1,0,1,0
1767987424.5413737,20260109153704.541339,18.1890335,-64.95881683333333,0.06553407502235091,0.5586001102372958,-0.1077811592200662,-0.445513914869626,0.03062188860136485,-3.4959144752606783,-1.2538879635583549,106.95024013737661,1,40.97,1.173304796218872,15.53,0.5586001102372958,0,0,1,0,1,0
1767987424.643745,20260109153704.643711,18.1890335,-64.95881683333333,0.06553407502235091,0.5586001102372958,-0.1077811592200662,-0.445513914869626,0.03062188860136485,-4.954494636976723,-2.563421711625152,107.02153367742521,1,40.97,1.6134059429168701,15.53,0.5586001102372958,0,0,1,0,1,0
1767987424.74302,20260109153704.742986,18.1890335,-64.95881683333333,0.039690091728122955,0.5586001102372958,-0.1077811592200662,-0.445513914869626,-0.007865527762835783,-4.8595472896009735,-4.824347043353314,107.77603762406335,1,40.97,1.6134059429168701,15.53,0.5586001102372958,0,0,1,0,1,0
1767987424.8473291,20260109153704.847295,18.1890335,-64.95881683333333,0.039690091728122955,0.5586001102372958,-0.1077811592200662,-0.445513914869626,-0.007865527762835783,-0.194514332201055,-8.442473710244888,109.51042818016035,1,40.97,0.5966855883598328,15.72,0.5586001102372958,0,0,1,0,1,0
1767987424.9694204,20260109153704.969386,18.189032333333333,-64.958817,0.06442675981085168,0.5586001102372958,-0.04677157291636235,-0.22724918543678657,-0.0479557108020765,-0.194514332201055,-8.442473710244888,109.51042818016035,1,42.63,0.5542349815368652,15.72,0.5586001102372958,0,0,1,0,1,0
1767987425.0631466,20260109153705.063112,18.189032333333333,-64.958817,0.06442675981085168,0.5586001102372958,-0.04677157291636235,-0.22724918543678657,-0.0479557108020765,4.46509390559345,-9.0026809036374,110.08969673079473,1,42.63,0.5594424605369568,15.72,0.5586001102372958,0,0,1,0,1,0
1767987425.1385317,20260109153705.138497,18.189032333333333,-64.958817,0.0931327505886644,0.5586001102372958,-0.04677157291636235,-0.22724918543678657,-0.0070594855956336786,9.510671282154316,-8.696480852338663,110.18001918467505,1,42.63,0.5594424605369568,15.72,0.5586001102372958,0,0,1,0,1,0
1767987425.304396,20260109153705.304362,18.189032333333333,-64.958817,0.0931327505886644,0.5586001102372958,-0.04677157291636235,-0.22724918543678657,-0.0070594855956336786,15.307207309019562,-5.196783304698758,108.47509407519324,1,42.63,0.5907097458839417,15.72,0.5586001102372958,0,0,1,0,1,0
1767987425.3623867,20260109153705.362352,18.189032333333333,-64.958817,0.06604744140338631,0.5586001102372958,-0.04677157291636235,-0.22724918543678657,-0.004246165083078776,15.307207309019562,-5.196783304698758,108.47509407519324,1,42.63,0.6717153787612915,15.72,0.5586001102372958,0,0,1,0,1,0
1767987425.4788306,20260109153705.478796,18.189031833333335,-64.95881533333333,0.06204744140338675,0.5586001102372958,0.41155665969610794,-0.19226193273774295,0.022786138962850647,16.282220576763148,-2.1704410876840283,107.18071846045443,1,42.63,3.4578216075897217,15.7,0.5586001102372958,0,0,1,0,1,0
1767987425.6020696,20260109153705.602035,18.189031833333335,-64.95881533333333,0.06204744140338675,0.5586001102372958,0.41155665969610794,-0.19226193273774295,0.022786138962850647,16.29200141115188,1.1853146540410895,106.11182079390474,1,41.55,3.1031816005706787,15.7,41.55,0,0,1,0,1,0
1767987425.6983964,20260109153705.698362,18.189031833333335,-64.95881533333333,0.06292502004520714,0.5586001102372958,0.41155665969610794,-0.19226193273774295,0.019780096049699724,15.896249863851065,3.9757870893448657,105.60842201169916,1,41.55,2.7069091796875,15.7,41.55,0,0,1,0,1,0
1767987425.8038867,20260109153705.803852,18.189031833333335,-64.95881533333333,0.06292502004520714,0.5586001102372958,0.41155665969610794,-0.19226193273774295,0.019780096049699724,15.117392869019506,5.421765974423296,105.52151465362498,1,41.55,1.6802977323532104,15.7,41.55,0,0,1,0,1,0
1767987425.837125,20260109153705.837091,18.189030833333334,-64.95881349999999,0.0020493912094786673,0.5586001102372958,0.4234816741549737,-0.19954624969430204,-0.060598713058815534,15.175338507109878,2.2171698435992044,105.7786440470595,1,41.55,1.6802977323532104,15.7,41.55,0,0,1,0,1,0
1767987425.9716864,20260109153705.971652,18.189030833333334,-64.95881349999999,0.0020493912094786673,0.5586001102372958,0.4234816741549737,-0.19954624969430204,-0.060598713058815534,15.175338507109878,2.2171698435992044,105.7786440470595,1,41.55,1.6802977323532104,15.7,41.55,0,0,1,0,1,0
1767987426.041768,20260109153706.041734,18.189030833333334,-64.95881349999999,0.0020493912094786673,0.5586001102372958,0.4234816741549737,-0.19954624969430204,-0.060598713058815534,17.924659678280342,-5.198828093312676,106.41341473473499,1,41.55,0.8311410546302795,15.72,41.55,0,0,1,0,1,0
1767987426.138194,20260109153706.138160,18.189030833333334,-64.95881349999999,0.04545730550327934,0.5586001102372958,0.4234816741549737,-0.19954624969430204,-0.0496432265844883,17.924659678280342,-5.198828093312676,106.41341473473499,1,42.81,0.8311410546302795,15.72,42.81,0,0,1,0,1,0
1767987426.254754,20260109153706.254720,18.189030833333334,-64.95881349999999,0.04545730550327934,0.5586001102372958,0.4234816741549737,-0.19954624969430204,-0.0496432265844883,20.957899961936466,-7.327943533533805,108.35891285318324,1,42.81,2.3050389289855957,15.72,42.81,0,0,1,0,1,0
1767987426.3417087,20260109153706.341674,18.189030833333334,-64.95881349999999,0.11480580805740417,0.5586001102372958,0.4234816741549737,-0.19954624969430204,0.04846961022592017,20.957899961936466,-7.327943533533805,108.35891285318324,1,42.81,1.0689009428024292,15.72,42.81,0,0,1,0,1,0
1767987426.4842565,20260109153706.484222,18.189030833333334,-64.95881349999999,0.11480580805740417,0.5586001102372958,0.4234816741549737,-0.19954624969430204,0.04846961022592017,19.711335351169108,-5.074551903153951,109.98690268434474,1,42.81,1.6567493677139282,15.72,42.81,0,0,1,0,1,0
1767987426.5702407,20260109153706.570206,18.189030166666665,-64.95881266666667,0.09780580805740471,0.5586001102372958,0.22789313919141418,-0.12147922098341399,0.0363651146155356,17.426330605798952,-2.295630389083913,111.30287570227571,1,42.81,0.9201538562774658,15.72,42.81,0,0,1,0,1,0
1767987426.637064,20260109153706.637030,18.189030166666665,-64.95881266666667,0.0775121647494023,0.5586001102372958,0.22789313919141418,-0.12147922098341399,-0.001474913302253772,15.724793271356818,-0.36990994422286055,111.93723657845449,1,42.81,0.9201538562774658,15.64,42.81,0,0,1,0,1,0
1767987426.7468562,20260109153706.746822,18.189030166666665,-64.95881266666667,0.0775121647494023,0.5586001102372958,0.22789313919141418,-0.12147922098341399,-0.001474913302253772,14.93607006474137,-0.7823178209049577,111.01917686346957,1,42.98,1.5032545328140259,15.64,42.98,0,0,1,0,1,0
1767987426.8926969,20260109153706.892663,18.189030166666665,-64.95881266666667,0.0775121647494023,0.5586001102372958,0.22789313919141418,-0.12147922098341399,-0.001474913302253772,14.93607006474137,-0.7823178209049577,111.01917686346957,1,42.98,1.7054225206375122,15.64,42.98,0,0,1,0,1,0
1767987426.9734335,20260109153706.973399,18.189030166666665,-64.95881216666666,0.044445156179064076,0.5586001102372958,0.12335834046958032,-0.036376530024056775,-0.007069003000629782,14.998409223586314,-2.558809624738985,110.10352137593219,1,42.98,1.8985044956207275,15.64,42.98,0,0,1,0,1,0
1767987427.038243,20260109153707.038209,18.189030166666665,-64.95881216666666,0.056807014992063504,0.5586001102372958,0.12335834046958032,-0.036376530024056775,0.01647530804316736,14.137061443331831,-4.183859485298389,109.41786576074549,1,42.98,1.8985044956207275,15.64,42.98,0,0,1,0,1,0
1767987427.1566439,20260109153707.156610,18.189030166666665,-64.95881216666666,0.056807014992063504,0.5586001102372958,0.12335834046958032,-0.036376530024056775,0.01647530804316736,9.396204100924733,-4.736783559997377,108.65583494295072,1,42.98,1.6986427307128906,15.64,42.98,0,0,1,0,1,0
1767987427.2375324,20260109153707.237498,18.189030166666665,-64.95881216666666,0.056807014992063504,0.5586001102372958,0.12335834046958032,-0.036376530024056775,0.01647530804316736,9.396204100924733,-4.736783559997377,108.65583494295072,1,42.98,1.5589556694030762,15.59,42.98,0,0,1,0,1,0
1767987427.340807,20260109153707.340773,18.189030166666665,-64.95881216666666,0.0675277209000253,0.5586001102372958,0.12335834046958032,-0.036376530024056775,-0.04477528400063734,7.74645242551267,-3.8504927737489303,108.5421395733733,1,42.98,1.5589556694030762,15.59,42.98,0,0,1,0,1,0
1767987427.4443653,20260109153707.444331,18.189030166666665,-64.95881216666666,0.0675277209000253,0.5586001102372958,0.12335834046958032,-0.036376530024056775,-0.04477528400063734,6.871013533075151,-3.2804432742431717,108.75294660729357,1,42.46,1.5589556694030762,15.59,42.46,0,0,1,0,1,0
1767987427.5490925,20260109153707.549058,18.18903,-64.95881183333333,0.07562503120138223,0.5586001102372958,0.0,0.08179596,-0.02097749402299836,6.3181714206755135,-4.657409903271489,109.9239556384463,1,42.46,1.909562349319458,15.59,42.46,0,0,1,0,1,0
1767987427.6619866,20260109153707.661952,18.18903,-64.95881183333333,0.07562503120138223,0.5586001102372958,0.0,0.08179596,-0.02097749402299836,6.3181714206755135,-4.657409903271489,109.9239556384463,1,42.46,0.7742225527763367,15.59,42.46,0,0,1,0,1,0
1767987427.776131,20260109153707.776097,18.18903,-64.95881183333333,0.0761983732451256,0.5586001102372958,0.0,0.08179596,0.048346536373043314,6.274593517528473,-6.05990650788545,110.40161825865694,1,42.46,0.5875687003135681,15.59,42.46,0,0,1,0,1,0
1767987427.884908,20260109153707.884874,18.18903,-64.95881183333333,0.10388093436738952,0.5586001102372958,0.0,0.08179596,0.05239760703925912,6.401317477606233,-7.1024904343619895,110.74106512140223,1,42.46,0.5739694237709045,15.42,42.46,0,0,1,0,1,0
1767987427.9681957,20260109153707.968161,18.189030166666665,-64.95881200000001,0.10388093436738952,0.5586001102372958,0.0,0.056588400000000004,0.05239760703925912,6.400415465426442,-7.1086785879626815,111.04291860951372,1,42.46,0.5469772815704346,15.42,42.46,0,0,1,0,1,0
1767987428.0402079,20260109153708.040174,18.189030166666665,-64.95881200000001,0.08904201938285208,0.5586001102372958,0.0,0.056588400000000004,0.009277062809259311,6.555522286748885,-6.398432148537036,111.57777725428532,1,42.46,0.5469772815704346,15.42,42.46,0,0,1,0,1,0
1767987428.1370618,20260109153708.137028,18.189030166666665,-64.95881200000001,0.08904201938285208,0.5586001102372958,0.0,0.056588400000000004,0.009277062809259311,6.890884268023071,-5.5669510886549896,112.27340494922586,1,42.46,0.5469772815704346,15.42,42.46,0,0,1,0,1,0
1767987428.239676,20260109153708.239642,18.189030166666665,-64.95881200000001,0.08904201938285208,0.5586001102372958,0.0,0.056588400000000004,0.009277062809259311,7.958941394117471,-3.9784858688056413,112.65346413129755,1,42.46,0.7756935954093933,15.42,42.46,0,0,1,0,1,0
1767987428.340839,20260109153708.340805,18.189030166666665,-64.95881200000001,0.09144633710527347,0.5586001102372958,0.0,0.056588400000000004,0.0031192789951056538,7.958941394117471,-3.9784858688056413,112.65346413129755,1,42.46,0.3306083679199219,15.42,42.46,0,0,1,0,1,0
1767987428.4416955,20260109153708.441661,18.189030833333334,-64.95881083333333,0.09144633710527347,0.5586001102372958,0.311059663525458,0.10631759708107812,0.0031192789951056538,8.319893115153906,-1.8836643937826116,112.15928784796517,1,42.46,0.3306083679199219,15.53,42.46,0,0,1,0,1,0
1767987428.5389152,20260109153708.538881,18.189030833333334,-64.95881083333333,0.06981631273466574,0.5586001102372958,0.311059663525458,0.10631759708107812,-0.024916956246992746,4.340748559744652,4.989110474954552,111.35273784124178,1,42.46,0.31820404529571533,15.53,42.46,0,0,1,0,1,0
1767987428.6483407,20260109153708.648306,18.189030833333334,-64.95881083333333,0.06981631273466574,0.5586001102372958,0.311059663525458,0.10631759708107812,-0.024916956246992746,4.340748559744652,4.989110474954552,111.35273784124178,1,42.46,2.0191361904144287,15.53,42.46,0,0,1,0,1,0
1767987428.7422762,20260109153708.742242,18.189030833333334,-64.95881083333333,0.01801406009379852,0.5586001102372958,0.311059663525458,0.10631759708107812,-0.11280787578922775,0.2509271792440654,7.198640322348481,111.06734511491578,1,42.46,2.0191361904144287,15.53,42.46,0,0,1,0,1,0
1767987428.8905203,20260109153708.890486,18.189030833333334,-64.95881083333333,0.01801406009379852,0.5586001102372958,0.311059663525458,0.10631759708107812,-0.11280787578922775,-5.726127423517406,6.973065987275546,110.77792257553857,1,42.46,3.4240427017211914,15.53,42.46,0,0,1,0,1,0
1767987428.9529595,20260109153708.952925,18.189029,-64.958809,-0.02836061309748231,0.5586001102372958,0.5040687158950858,-0.3317413063292144,-0.18487611456623182,-5.726127423517406,6.973065987275546,110.77792257553857,1,42.46,2.7519421577453613,15.53,42.46,0,0,1,0,1,0
1767987429.0484865,20260109153709.048452,18.189029,-64.958809,-0.02836061309748231,0.5586001102372958,0.5040687158950858,-0.3317413063292144,-0.18487611456623182,-6.635915776459876,5.331743622086946,110.96675005285066,1,42.46,0.37886568903923035,15.67,42.46,0,0,1,0,1,0
1767987429.1392941,20260109153709.139260,18.189029,-64.958809,-0.02693156869285264,0.5586001102372958,0.5040687158950858,-0.3317413063292144,-0.19074975286100207,-6.197529746228458,3.382655170729017,111.39299499060434,1,42.46,0.37886568903923035,15.67,42.46,0,0,1,0,1,0
1767987429.2519214,20260109153709.251887,18.189029,-64.958809,-0.02693156869285264,0.5586001102372958,0.5040687158950858,-0.3317413063292144,-0.19074975286100207,-2.299885385014864,-0.5961233824593891,111.66631193815988,1,42.46,0.5634331703186035,15.67,42.46,0,0,1,0,1,0
1767987429.3462265,20260109153709.346192,18.189029,-64.958809,0.007171042982947816,0.5586001102372958,0.5040687158950858,-0.3317413063292144,-0.12977741089970993,-2.299885385014864,-0.5961233824593891,111.66631193815988,1,42.46,0.5083874464035034,15.67,42.46,0,0,1,0,1,0
1767987429.4480574,20260109153709.448023,18.189026666666667,-64.95880833333334,0.007171042982947816,0.5586001102372958,0.3375153762911391,-0.4237074751327301,-0.12977741089970993,0.302870919857357,-2.52554445715248,111.12889880172533,1,42.46,0.6279746294021606,15.67,42.46,0,0,1,0,1,0
1767987429.5375426,20260109153709.537508,18.189026666666667,-64.95880833333334,0.00013586159290355365,0.5586001102372958,0.3375153762911391,-0.4237074751327301,-0.11083660533323644,2.079150027255711,-4.45891855860203,109.81606767193597,1,42.46,0.6279746294021606,15.67,42.46,0,0,1,0,1,0
1767987429.6421285,20260109153709.642094,18.189026666666667,-64.95880833333334,0.00013586159290355365,0.5586001102372958,0.3375153762911391,-0.4237074751327301,-0.11083660533323644,3.1425852480635,-6.809507230719916,106.01645939881128,1,42.46,0.6026792526245117,15.7,42.46,0,0,1,0,1,0
1767987429.7484944,20260109153709.748460,18.189026666666667,-64.95880833333334,0.03598721042142224,0.5586001102372958,0.3375153762911391,-0.4237074751327301,0.019592943315073125,3.1425852480635,-6.809507230719916,106.01645939881128,1,42.46,0.7283144593238831,15.7,42.46,0,0,1,0,1,0
1767987429.8533242,20260109153709.853290,18.189026666666667,-64.95880833333334,0.03598721042142224,0.5586001102372958,0.3375153762911391,-0.4237074751327301,0.019592943315073125,3.0528736694455105,-6.2427550062149715,104.81687284595296,1,42.46,0.9938067197799683,15.7,42.46,0,0,1,0,1,0
1767987429.936895,20260109153709.936861,18.189024833333335,-64.958809,0.0742762350361989,0.5586001102372958,0.1268444475281592,-0.363838655051095,0.12571776810573018,2.5855325359784036,-4.818814588147395,104.52570177752298,1,42.46,0.9938067197799683,15.7,42.46,0,0,1,0,1,0
1767987430.042963,20260109153710.042929,18.189024833333335,-64.958809,0.0742762350361989,0.5586001102372958,0.1268444475281592,-0.363838655051095,0.12571776810573018,1.7369244504634258,-2.0846720237307186,105.76232162930292,1,41.3,1.3089033365249634,15.7,41.3,0,0,1,0,1,0
1767987430.149169,20260109153710.149135,18.189024833333335,-64.958809,0.07746554112593522,0.5586001102372958,0.1268444475281592,-0.363838655051095,0.10394139098255457,1.7369244504634258,-2.0846720237307186,105.76232162930292,1,41.3,1.3001446723937988,15.7,41.3,0,0,1,0,1,0
1767987430.238235,20260109153710.238201,18.189024833333335,-64.958809,0.07746554112593522,0.5586001102372958,0.1268444475281592,-0.363838655051095,0.10394139098255457,2.1968397782653537,-1.707735733330244,106.45453422843738,1,41.3,1.3001446723937988,15.42,41.3,0,0,1,0,1,0
1767987430.367739,20260109153710.367705,18.189024833333335,-64.958809,0.049516910166204256,0.5586001102372958,0.1268444475281592,-0.363838655051095,0.04083516264969983,5.819150791293378,-2.072458787354076,106.6625272234134,1,41.3,1.3001446723937988,15.42,41.3,0,0,1,0,1,0
1767987430.465167,20260109153710.465133,18.189024833333335,-64.958809,0.049516910166204256,0.5586001102372958,0.1268444475281592,-0.363838655051095,0.04083516264969983,5.819150791293378,-2.072458787354076,106.6625272234134,1,41.3,0.8961673378944397,15.42,41.3,0,0,1,0,1,0
1767987430.5659864,20260109153710.565952,18.189024500000002,-64.95880916666667,0.058291216112813585,0.5586001102372958,0.0,0.06584832,0.02292949844971505,8.014221549931165,-2.4231603117719245,105.76125611941141,1,41.3,0.49327245354652405,15.42,41.3,0,0,1,0,1,0
1767987430.6950603,20260109153710.695026,18.189024500000002,-64.95880916666667,0.03629121611281512,0.5586001102372958,0.0,0.06584832,-0.021972439396349887,9.593928756585715,-2.935133759216213,104.15441256148144,1,41.21,0.49327245354652405,15.42,41.21,0,0,1,0,1,0
1767987430.7472444,20260109153710.747210,18.189024500000002,-64.95880916666667,0.03629121611281512,0.5586001102372958,0.0,0.06584832,-0.021972439396349887,11.119753435385224,-5.0660756353631555,99.81765069920343,1,41.21,0.5781927108764648,15.42,41.21,0,0,1,0,1,0
1767987430.846267,20260109153710.846233,18.189024500000002,-64.95880916666667,0.03629121611281512,0.5586001102372958,0.0,0.06584832,-0.021972439396349887,11.119753435385224,-5.0660756353631555,99.81765069920343,1,41.21,0.4989183247089386,15.56,41.21,0,0,1,0,1,0
1767987430.9405367,20260109153710.940502,18.189024500000002,-64.95880883333332,0.05664359414007607,0.5586001102372958,0.04332923724592795,-0.09047561510885734,-0.04327193104563733,11.30244483930766,-5.846723421058053,98.31796601747794,1,41.21,0.4989183247089386,15.56,41.21,0,0,1,0,1,0
1767987431.0452597,20260109153711.045225,18.189024500000002,-64.95880883333332,0.05664359414007607,0.5586001102372958,0.04332923724592795,-0.09047561510885734,-0.04327193104563733,11.063488878205415,-3.2748576716087685,98.367990340846,1,41.21,0.6603572368621826,15.56,41.21,0,0,1,0,1,0
1767987431.15311,20260109153711.153076,18.189024500000002,-64.95880883333332,0.05724473965055141,0.5586001102372958,0.04332923724592795,-0.09047561510885734,-0.021578189708564732,11.063488878205415,-3.2748576716087685,98.367990340846,1,41.21,2.0324976444244385,15.56,41.21,0,0,1,0,1,0
1767987431.2786255,20260109153711.278591,18.189024500000002,-64.95880883333332,0.05724473965055141,0.5586001102372958,0.04332923724592795,-0.09047561510885734,-0.021578189708564732,10.958601040711997,-0.7436278269912998,99.22258391536994,1,41.67,0.5505076050758362,15.56,41.67,0,0,1,0,1,0
1767987431.3372872,20260109153711.337253,18.189024500000002,-64.95880883333332,0.04924473965055051,0.5586001102372958,0.04332923724592795,-0.09047561510885734,-0.04116101288758446,10.650415964975949,1.3172302000746203,99.95884442021173,1,41.67,0.5505076050758362,15.56,41.67,0,0,1,0,1,0
1767987431.4455287,20260109153711.445494,18.189024500000002,-64.95880883333332,0.04924473965055051,0.5586001102372958,0.04332923724592795,-0.09047561510885734,-0.04116101288758446,8.638884407794473,1.4660346755303502,100.7131024799518,1,41.67,0.5505076050758362,15.53,41.67,0,0,1,0,1,0
1767987431.5378187,20260109153711.537784,18.189023833333334,-64.958808,0.008280214092241583,0.5586001102372958,0.2010355317546601,-0.17097368115508144,-0.07683243669708917,8.638884407794473,1.4660346755303502,100.71310361515238,1,41.67,2.217777729034424,15.53,41.67,0,0,1,0,1,0
1767987431.6444833,20260109153711.644449,18.189023833333334,-64.958808,0.008280214092241583,0.5586001102372958,0.2010355317546601,-0.17097368115508144,-0.07683243669708917,7.852604702228306,-0.06723112350459497,100.8715504001732,1,41.67,2.217777729034424,15.53,41.67,0,0,1,0,1,0
1767987431.7460685,20260109153711.746034,18.189023833333334,-64.958808,0.011416199365934503,0.5586001102372958,0.2010355317546601,-0.17097368115508144,-0.05961700070759314,7.557935721918936,-1.6357021847091544,100.94072658082202,1,41.67,0.4660334885120392,15.53,41.67,0,0,1,0,1,0
1767987431.8497443,20260109153711.849710,18.189023833333334,-64.958808,0.011416199365934503,0.5586001102372958,0.2010355317546601,-0.17097368115508144,-0.05961700070759314,7.761591545221206,-2.449466367879504,100.98106569248392,1,41.67,3.0971591472625732,15.53,41.67,0,0,1,0,1,0
1767987431.9372568,20260109153711.937223,18.189023000000002,-64.95880650000001,0.03314505349724073,0.5586001102372958,0.3432438741502824,-0.19356587019458452,-0.034779847598042854,9.176240341374278,-2.232298718020314,101.09021215444758,1,41.94,3.0971591472625732,15.53,41.94,0,0,1,0,1,0
1767987432.0588212,20260109153712.058787,18.189023000000002,-64.95880650000001,0.03314505349724073,0.5586001102372958,0.3432438741502824,-0.19356587019458452,-0.034779847598042854,14.993059476006028,-0.24444348645396038,100.76449397684293,1,41.94,2.270585775375366,15.67,41.94,0,0,1,0,1,0
1767987432.143644,20260109153712.143610,18.189023000000002,-64.95880650000001,0.04617403658890799,0.5586001102372958,0.3432438741502824,-0.19356587019458452,-0.01438428171899526,14.993059476006028,-0.24444348645396038,100.76449397684293,1,41.94,1.9366110563278198,15.67,41.94,0,0,1,0,1,0
1767987432.2450867,20260109153712.245052,18.189023000000002,-64.95880650000001,0.04617403658890799,0.5586001102372958,0.3432438741502824,-0.19356587019458452,-0.01438428171899526,16.439209115874764,0.4249440530559126,99.42423279753878,1,41.94,1.9536619186401367,15.67,41.94,0,0,1,0,1,0
1767987432.3405452,20260109153712.340511,18.189023000000002,-64.95880650000001,0.04068498381567533,0.5586001102372958,0.3432438741502824,-0.19356587019458452,-0.012215807880764165,15.798634472876781,0.5718214539812948,97.29275539168074,1,41.94,1.9536619186401367,15.67,41.94,0,0,1,0,1,0
1767987432.4452045,20260109153712.445170,18.189021833333335,-64.95880566666666,0.04068498381567533,0.5586001102372958,0.2665824966699208,-0.2217143221205732,-0.012215807880764165,11.296222534748908,-0.170304958155372,94.22371807378487,1,41.94,2.4168877601623535,15.67,41.94,0,0,1,0,1,0
1767987432.5734296,20260109153712.573395,18.189021833333335,-64.95880566666666,0.053607648430673324,0.5586001102372958,0.2665824966699208,-0.2217143221205732,0.05169206718517397,11.296222534748908,-0.170304958155372,94.22371807378487,1,41.43,2.4168877601623535,15.67,41.43,0,0,1,0,1,0
1767987432.6667912,20260109153712.666757,18.189021833333335,-64.95880566666666,0.053607648430673324,0.5586001102372958,0.2665824966699208,-0.2217143221205732,0.05169206718517397,9.216564085105054,-0.28092738183773436,94.33123211995319,1,41.43,2.4168877601623535,15.7,41.43,0,0,1,0,1,0
1767987432.737296,20260109153712.737262,18.189021833333335,-64.95880566666666,0.057607648430672884,0.5586001102372958,0.2665824966699208,-0.2217143221205732,0.030937838194101182,8.418457048988337,0.156200986002206,95.36291890259936,1,41.43,2.4168877601623535,15.7,41.43,0,0,1,0,1,0
1767987432.844092,20260109153712.844058,18.189021833333335,-64.95880566666666,0.057607648430672884,0.5586001102372958,0.2665824966699208,-0.2217143221205732,0.030937838194101182,14.571742521500584,1.3490392561867885,98.50888466862396,1,41.43,1.3474406003952026,15.7,41.43,0,0,1,0,1,0
1767987432.9478245,20260109153712.947790,18.189021500000003,-64.95880533333334,0.05558615977808948,0.5586001102372958,0.08605166812944785,-0.06783766524326858,0.022607265955662915,14.571742521500584,1.3490392561867885,98.50888466862396,1,41.43,0.9977450966835022,15.7,41.43,0,0,1,0,1,0
1767987433.0375826,20260109153713.037548,18.189021500000003,-64.95880533333334,0.05558615977808948,0.5586001102372958,0.08605166812944785,-0.06783766524326858,0.022607265955662915,20.679610634887215,0.6996560672482532,99.61562842689708,1,41.43,0.9977450966835022,15.7,41.43,0,0,1,0,1,0
1767987433.1480725,20260109153713.148038,18.189021500000003,-64.95880533333334,0.05918060389763819,0.5586001102372958,0.08605166812944785,-0.06783766524326858,0.021224015100433057,28.030302121585603,-4.500509729763858,99.43520891545965,1,42.44,0.5515125393867493,15.7,42.44,0,0,1,0,1,0
1767987433.270123,20260109153713.270089,18.189021500000003,-64.95880533333334,0.05918060389763819,0.5586001102372958,0.08605166812944785,-0.06783766524326858,0.021224015100433057,28.030302121585603,-4.500509729763858,99.43520891545965,1,42.44,0.6780440807342529,15.61,42.44,0,0,1,0,1,0
1767987433.3667648,20260109153713.366731,18.189021500000003,-64.95880533333334,0.08478650210126233,0.5586001102372958,0.08605166812944785,-0.06783766524326858,0.06562435420837376,23.40027232205271,-8.822947826457016,98.13407790390208,1,42.44,0.6655001640319824,15.61,42.44,0,0,1,0,1,0
1767987433.4627879,20260109153713.462754,18.189022833333336,-64.95880483333333,0.08955941985293392,0.5586001102372958,0.23110356094424228,0.27415282938972796,0.06641122634009759,23.40027232205271,-8.822947826457016,98.13407790390208,1,42.44,0.81672203540802,15.61,42.44,0,0,1,0,1,0
1767987433.5610833,20260109153713.561049,18.189022833333336,-64.95880483333333,0.08955941985293392,0.5586001102372958,0.23110356094424228,0.27415282938972796,0.06641122634009759,17.512187821912757,-7.886721509331458,98.03362627586083,1,42.44,1.0784196853637695,15.61,42.44,0,0,1,0,1,0
1767987433.6386685,20260109153713.638634,18.189022833333336,-64.95880483333333,0.08822495614561028,0.5586001102372958,0.23110356094424228,0.27415282938972796,0.050420160642255164,12.489194047030802,-5.282709249615663,97.86701741186336,1,42.44,1.0784196853637695,15.61,42.44,0,0,1,0,1,0
1767987433.737411,20260109153713.737377,18.189022833333336,-64.95880483333333,0.08822495614561028,0.5586001102372958,0.23110356094424228,0.27415282938972796,0.050420160642255164,10.029626679530736,-2.0594060777395877,97.71630240374758,1,42.44,1.0784196853637695,15.61,42.44,0,0,1,0,1,0
1767987433.838342,20260109153713.838308,18.189022833333336,-64.95880483333333,0.08822495614561028,0.5586001102372958,0.23110356094424228,0.27415282938972796,0.050420160642255164,9.060577876612543,0.6157147198816812,97.7350444495316,1,44.23,1.0784196853637695,15.64,44.23,0,0,1,0,1,0
1767987433.9431016,20260109153713.943067,18.189023833333334,-64.9588035,0.05389672051629058,0.5586001102372958,0.24682149873092,0.22099414856649952,0.027685863274789696,7.416658331063385,0.8979469351217229,98.38236902939036,1,44.23,2.0154616832733154,15.64,44.23,0,0,1,0,1,0
1767987434.0362601,20260109153714.036226,18.189023833333334,-64.9588035,0.05389672051629058,0.5586001102372958,0.24682149873092,0.22099414856649952,0.027685863274789696,7.416658331063385,0.8979469351217229,98.38236902939036,1,44.23,1.6191234588623047,15.64,44.23,0,0,1,0,1,0
1767987434.1377158,20260109153714.137682,18.189023833333334,-64.9588035,0.02847676371666682,0.5586001102372958,0.24682149873092,0.22099414856649952,-0.00012986854938409342,5.700348145937914,-0.5968869231764163,98.68684531108096,1,44.23,1.6191234588623047,15.64,44.23,0,0,1,0,1,0
1767987434.2371736,20260109153714.237139,18.189023833333334,-64.9588035,0.02847676371666682,0.5586001102372958,0.24682149873092,0.22099414856649952,-0.00012986854938409342,3.73251956978738,-1.632000114133574,98.95593437002852,1,44.23,1.6191234588623047,15.64,44.23,0,0,1,0,1,0
1767987434.3380625,20260109153714.338028,18.189023833333334,-64.9588035,0.033316187232162446,0.5586001102372958,0.24682149873092,0.22099414856649952,-0.04370588780592445,0.5716313825553241,0.06014666733742403,99.29103723090842,1,44.23,2.9352118968963623,15.64,44.23,0,0,1,0,1,0
1767987434.4374106,20260109153714.437376,18.189023833333334,-64.9588035,0.033316187232162446,0.5586001102372958,0.24682149873092,0.22099414856649952,-0.04370588780592445,0.5716313825553241,0.06014666733742403,99.29103723090842,1,42.09,0.8240655064582825,15.7,42.09,0,0,1,0,1,0
1767987434.5379083,20260109153714.537874,18.1890225,-64.95880116666667,0.008578587697077845,0.5586001102372958,0.5696993379086575,-0.2937919606229124,-0.07293376426063207,1.3224673562150402,1.785031944588578,99.2155244759871,1,42.09,0.8240655064582825,15.7,42.09,0,0,1,0,1,0
1767987434.6472309,20260109153714.647197,18.1890225,-64.95880116666667,0.008578587697077845,0.5586001102372958,0.5696993379086575,-0.2937919606229124,-0.07293376426063207,5.41661729060858,1.956616176288583,98.64269679604307,1,42.09,0.8501454591751099,15.7,42.09,0,0,1,0,1,0
1767987434.7534842,20260109153714.753450,18.1890225,-64.95880116666667,-0.007482398634467931,0.5586001102372958,0.5696993379086575,-0.2937919606229124,-0.07679287470819066,5.41661729060858,1.956616176288583,98.64269679604307,1,42.09,0.8501454591751099,15.7,42.09,0,0,1,0,1,0
1767987434.8560908,20260109153714.856057,18.1890225,-64.95880116666667,-0.007482398634467931,0.5586001102372958,0.5696993379086575,-0.2937919606229124,-0.07679287470819066,8.857406996914744,-1.6289545957267213,98.09113833277955,1,42.09,0.776872456073761,15.7,42.09,0,0,1,0,1,0
1767987434.9480703,20260109153714.948036,18.189021500000003,-64.95879933333335,0.004191527955426214,0.5586001102372958,0.3797770952947959,-0.205087796397721,-0.0308039839641803,8.857406996914744,-1.6289545957267213,98.09113833277955,1,42.09,0.7669541835784912,15.7,42.09,0,0,1,0,1,0
1767987435.0504837,20260109153715.050449,18.189021500000003,-64.95879933333335,0.004191527955426214,0.5586001102372958,0.3797770952947959,-0.205087796397721,-0.0308039839641803,9.36049671294987,-2.568744565325969,97.66759132071272,1,40.95,0.456648051738739,15.36,40.95,0,0,1,0,1,0
1767987435.1630194,20260109153715.162985,18.189021500000003,-64.95879933333335,0.046000971626030895,0.5586001102372958,0.3797770952947959,-0.205087796397721,0.013696920819912209,9.300670210844274,-2.6378987612955203,97.11562987614407,1,40.95,0.456648051738739,15.36,40.95,0,0,1,0,1,0
1767987435.2420137,20260109153715.241979,18.189021500000003,-64.95879933333335,0.046000971626030895,0.5586001102372958,0.3797770952947959,-0.205087796397721,0.013696920819912209,9.89997854366898,-1.6279947403617145,96.439352114041,1,40.95,0.3927863538265228,15.36,40.95,0,0,1,0,1,0
1767987435.34181,20260109153715.341776,18.189021500000003,-64.95879933333335,0.06698373894339338,0.5586001102372958,0.3797770952947959,-0.205087796397721,0.03336261569515912,9.89997854366898,-1.6279947403617145,96.439352114041,1,40.95,0.3927863538265228,15.36,40.95,0,0,1,0,1,0
1767987435.4377146,20260109153715.437680,18.18902166666667,-64.95879816666667,0.06698373894339338,0.5586001102372958,0.27436933941549957,-0.06912048142701561,0.03336261569515912,11.30303565088212,-1.115356843339645,96.93212311809793,1,40.95,1.0617520809173584,15.36,40.95,0,0,1,0,1,0
1767987435.5373223,20260109153715.537288,18.18902166666667,-64.95879816666667,0.03419871998738845,0.5586001102372958,0.27436933941549957,-0.06912048142701561,0.05182217655821659,12.727338922879099,-0.3576020456593433,98.01985162292257,1,40.95,1.0617520809173584,15.36,40.95,0,0,1,0,1,0
1767987435.6426802,20260109153715.642646,18.18902166666667,-64.95879816666667,0.03419871998738845,0.5586001102372958,0.27436933941549957,-0.06912048142701561,0.05182217655821659,11.999453086727858,2.5055339167200086,101.11693370757833,1,42.11,1.0789391994476318,15.36,42.11,0,0,1,0,1,0
1767987435.7570457,20260109153715.757011,18.18902166666667,-64.95879816666667,0.02183008895904303,0.5586001102372958,0.27436933941549957,-0.06912048142701561,0.022610679194870108,11.999453086727858,2.5055339167200086,101.11693370757833,1,42.11,1.839453935623169,15.36,42.11,0,0,1,0,1,0
1767987435.8378694,20260109153715.837835,18.18902166666667,-64.95879816666667,0.02183008895904303,0.5586001102372958,0.27436933941549957,-0.06912048142701561,0.022610679194870108,9.040886434194443,3.6898453863680443,102.11307617307439,1,42.11,1.839453935623169,15.36,42.11,0,0,1,0,1,0
1767987435.9449172,20260109153715.944883,18.189021,-64.95879683333332,-0.009169911040957554,0.5586001102372958,0.2919617966198148,-0.13589595369268176,-0.01386746044274561,0.5674867902684921,2.203782881482696,101.05800281434792,1,42.11,1.2957863807678223,15.36,42.11,0,0,1,0,1,0
1767987436.0762112,20260109153716.076177,18.189021,-64.95879683333332,-0.009169911040957554,0.5586001102372958,0.2919617966198148,-0.13589595369268176,-0.01386746044274561,0.5674867902684921,2.203782881482696,101.05800281434792,1,42.11,0.6391933560371399,15.36,42.11,0,0,1,0,1,0
1767987436.136994,20260109153716.136960,18.189021,-64.95879683333332,0.01159483288522364,0.5586001102372958,0.2919617966198148,-0.13589595369268176,-0.03408662551167826,-3.284695922295754,-0.39498939396645244,99.7152554452969,1,42.11,0.6391933560371399,15.36,42.11,0,0,1,0,1,0
1767987436.2468667,20260109153716.246832,18.189021,-64.95879683333332,0.01159483288522364,0.5586001102372958,0.2919617966198148,-0.13589595369268176,-0.03408662551167826,-6.748752676329021,-5.213103620669239,97.99087111991182,1,42.27,1.5078312158584595,15.5,42.27,0,0,1,0,1,0
1767987436.3466542,20260109153716.346620,18.189021,-64.95879683333332,0.06701302206970638,0.5586001102372958,0.2919617966198148,-0.13589595369268176,0.040539196333446215,-6.748752676329021,-5.213103620669239,97.99087111991182,1,42.27,0.39415213465690613,15.5,42.27,0,0,1,0,1,0
1767987436.4840949,20260109153716.484061,18.189019499999997,-64.95879599999999,0.06701302206970638,0.5586001102372958,0.268821605247556,-0.26882160524755594,0.040539196333446215,-5.835236319427198,-5.796623111808294,97.9460650629355,1,42.27,0.5593275427818298,15.5,42.27,0,0,1,0,1,0
1767987436.5634317,20260109153716.563397,18.189019499999997,-64.95879599999999,0.06709099610709146,0.5586001102372958,0.268821605247556,-0.26882160524755594,0.05567368142283174,-3.563312244768444,-4.785397875684494,98.65423298967615,1,42.27,0.5593275427818298,15.5,42.27,0,0,1,0,1,0
1767987436.6373687,20260109153716.637334,18.189019499999997,-64.95879599999999,0.06709099610709146,0.5586001102372958,0.268821605247556,-0.26882160524755594,0.05567368142283174,0.19891523009617418,0.3512840650571574,101.4367779203965,1,42.27,0.3675396740436554,15.5,42.27,0,0,1,0,1,0
1767987436.7384725,20260109153716.738438,18.189019499999997,-64.95879599999999,0.07720716857577105,0.5586001102372958,0.268821605247556,-0.26882160524755594,0.054997885369764535,0.19891523009617418,0.3512840650571574,101.4367779203965,1,42.27,0.4380897581577301,15.5,42.27,0,0,1,0,1,0
1767987436.850237,20260109153716.850203,18.189019499999997,-64.95879599999999,0.07720716857577105,0.5586001102372958,0.268821605247556,-0.26882160524755594,0.054997885369764535,0.3990422589143699,2.858796976435936,102.54407492419018,1,41.48,0.4380897581577301,15.67,41.48,0,0,1,0,1,0
1767987436.9443195,20260109153716.944285,18.189019,-64.95879533333333,0.03254684618684603,0.5586001102372958,0.12704405515512088,-0.11871947118085141,0.027667968790046536,-2.16293299955428,5.123290869838007,102.15696698437466,1,41.48,0.4380897581577301,15.67,41.48,0,0,1,0,1,0
1767987437.0523841,20260109153717.052350,18.189019,-64.95879533333333,0.03254684618684603,0.5586001102372958,0.12704405515512088,-0.11871947118085141,0.027667968790046536,-2.16293299955428,5.123290869838007,102.15696698437466,1,41.48,0.8602213859558105,15.67,41.48,0,0,1,0,1,0
1767987437.1540012,20260109153717.153967,18.189019,-64.95879533333333,-0.0008608031134898896,0.5586001102372958,0.12704405515512088,-0.11871947118085141,-0.08250950463267145,-2.8982110240213603,4.5686268038258016,100.85750936976211,1,41.48,0.5579646229743958,15.67,41.48,0,0,1,0,1,0
1767987437.24559,20260109153717.245556,18.189019,-64.95879533333333,-0.0008608031134898896,0.5586001102372958,0.12704405515512088,-0.11871947118085141,-0.08250950463267145,-2.2300863762684204,3.0116660562314155,99.35500381890073,1,41.48,0.5579646229743958,15.67,41.48,0,0,1,0,1,0
1767987437.3483605,20260109153717.348326,18.189019,-64.95879533333333,0.0009201684172220198,0.5586001102372958,0.12704405515512088,-0.11871947118085141,-0.06414332291036198,3.634775258946414,-1.4731711585476928,97.49144067903298,1,41.48,0.5243163704872131,15.67,41.48,0,0,1,0,1,0
1767987437.4643438,20260109153717.464310,18.189019166666665,-64.958795,0.0009201684172220198,0.5586001102372958,0.12038661689138937,-0.04525035440132868,-0.06414332291036198,3.634775258946414,-1.4731711585476928,97.49144353132283,1,41.48,0.4499993920326233,15.31,41.48,0,0,1,0,1,0
1767987437.5664585,20260109153717.566424,18.189019166666665,-64.958795,0.028213295252523543,0.5586001102372958,0.12038661689138937,-0.04525035440132868,-0.06235055400521393,8.620961985003945,-2.9867061882018984,97.70660139730009,1,41.18,0.7720146775245667,15.31,41.18,0,0,1,0,1,0
1767987437.6780505,20260109153717.678016,18.189019166666665,-64.958795,0.06046245177334086,0.5586001102372958,0.12038661689138937,-0.04525035440132868,0.030869671206458105,12.138524325692654,-3.1659479184731776,98.42300653512511,1,41.18,0.8124489188194275,15.31,41.18,0,0,1,0,1,0
1767987437.7422678,20260109153717.742234,18.189019166666665,-64.958795,0.06046245177334086,0.5586001102372958,0.12038661689138937,-0.04525035440132868,0.030869671206458105,13.268845051637289,-2.6003517038986033,99.05673903367553,1,41.18,0.8124489188194275,15.31,41.18,0,0,1,0,1,0
1767987437.8576543,20260109153717.857620,18.189019166666665,-64.958795,0.06046245177334086,0.5586001102372958,0.12038661689138937,-0.04525035440132868,0.030869671206458105,9.553825286534426,-2.505713636136792,97.49560311801467,1,41.18,1.7318419218063354,15.31,41.18,0,0,1,0,1,0
1767987437.94039,20260109153717.940356,18.18901933333333,-64.95879566666667,0.044316690202592574,0.5586001102372958,-0.04752506151846989,-0.11450947055185982,0.04779650448815675,9.553825286534426,-2.505713636136792,97.49560311801467,1,41.18,1.7318419218063354,15.31,41.18,0,0,1,0,1,0
1767987438.0384502,20260109153718.038416,18.18901933333333,-64.95879566666667,0.044316690202592574,0.5586001102372958,-0.04752506151846989,-0.11450947055185982,0.04779650448815675,3.6574514950990604,-4.455256295236938,92.4009495340589,1,41.18,0.6925779581069946,15.53,41.18,0,0,1,0,1,0
1767987438.1438036,20260109153718.143769,18.18901933333333,-64.95879566666667,0.07092064232946785,0.5586001102372958,-0.04752506151846989,-0.11450947055185982,0.06640507092144764,3.6574514950990604,-4.455256295236938,92.4009495340589,1,41.18,0.8253577351570129,15.53,41.18,0,0,1,0,1,0
1767987438.263308,20260109153718.263274,18.18901933333333,-64.95879566666667,0.07092064232946785,0.5586001102372958,-0.04752506151846989,-0.11450947055185982,0.06640507092144764,2.5740960204541627,-4.419626600691669,89.66181047103439,1,41.18,0.8253577351570129,15.53,41.18,0,0,1,0,1,0
1767987438.34748,20260109153718.347446,18.18901933333333,-64.95879566666667,0.07470482595023957,0.5586001102372958,-0.04752506151846989,-0.11450947055185982,0.05273030964398029,2.8306422862797906,-0.703226229748309,84.83802179584536,1,41.18,2.2919063568115234,15.53,41.18,0,0,1,0,1,0
1767987438.4533956,20260109153718.453361,18.189019166666665,-64.95879583333334,0.07470482595023957,0.5586001102372958,0.0,0.08385372,0.05273030964398029,2.8306422862797906,-0.703226229748309,84.83802179584536,1,41.18,0.5983713269233704,15.53,41.18,0,0,1,0,1,0
1767987438.5658016,20260109153718.565767,18.189019166666665,-64.95879583333334,0.026870459488709655,0.5586001102372958,0.0,0.08385372,-0.04720719464662354,4.310345669330649,3.403743814218796,82.29680802536043,1,41.18,0.5360493659973145,15.53,41.18,0,0,1,0,1,0
1767987438.6910844,20260109153718.691050,18.189019166666665,-64.95879583333334,-0.005886255986332559,0.5586001102372958,0.0,0.08385372,-0.10752550562165801,4.310345669330649,3.403743814218796,82.29680802536043,1,41.18,1.0361682176589966,15.42,41.18,0,0,1,0,1,0
1767987438.768209,20260109153718.768175,18.189019166666665,-64.95879583333334,-0.005886255986332559,0.5586001102372958,0.0,0.08385372,-0.10752550562165801,5.193074083766336,2.602532029127337,82.36681065919433,1,41.18,0.5074371099472046,15.42,41.18,0,0,1,0,1,0
1767987438.8363132,20260109153718.836279,18.189019166666665,-64.95879583333334,0.0071137440136673415,0.5586001102372958,0.0,0.08385372,-0.06249158644946171,6.073985240346188,-0.7960426107019102,82.8729415180448,1,41.18,0.5074371099472046,15.42,41.18,0,0,1,0,1,0
1767987438.9428637,20260109153718.942829,18.189019666666663,-64.958795,0.0071137440136673415,0.5586001102372958,0.2607334381239825,0.017729305054564496,-0.06249158644946171,6.90377113204747,-5.427644634966547,83.10195784280333,1,41.18,0.4194754660129547,15.42,41.18,0,0,1,0,1,0
1767987439.0437174,20260109153719.043683,18.189019666666663,-64.958795,0.0071137440136673415,0.5586001102372958,0.2607334381239825,0.017729305054564496,-0.06249158644946171,7.290783876067395,-8.902890096634616,82.94571037948165,1,41.18,0.4194754660129547,15.42,41.18,0,0,1,0,1,0
1767987439.1402724,20260109153719.140238,18.189019666666663,-64.958795,0.09230299680717718,0.5586001102372958,0.2607334381239825,0.017729305054564496,-0.03750528974050728,6.353232074882082,-9.376449479234212,82.77785159041915,1,41.18,0.4708668291568756,15.42,41.18,0,0,1,0,1,0
1767987439.2363098,20260109153719.236276,18.189019666666663,-64.958795,0.09230299680717718,0.5586001102372958,0.2607334381239825,0.017729305054564496,-0.03750528974050728,4.05168161721825,-6.884909131023282,82.62264914641413,1,41.18,0.4708668291568756,15.45,41.18,0,0,1,0,1,0
1767987439.3414512,20260109153719.341417,18.189019666666663,-64.958795,0.07865935677542814,0.5586001102372958,0.2607334381239825,0.017729305054564496,-0.03900448659971215,-0.8360014727901731,1.2571556766361065,82.25601812105212,1,41.18,0.7511417865753174,15.45,41.18,0,0,1,0,1,0
1767987439.443763,20260109153719.443729,18.189018833333332,-64.9587925,0.07865935677542814,0.5586001102372958,0.5750722021205928,-0.17592697275262165,-0.03900448659971215,-0.8360014727901731,1.2571556766361065,82.25601812105212,1,41.18,0.7511417865753174,15.45,41.18,0,0,1,0,1,0
1767987439.5376992,20260109153719.537665,18.189018833333332,-64.9587925,0.01821369126063879,0.5586001102372958,0.5750722021205928,-0.17592697275262165,0.017199279613365065,-4.86735419861377,2.252266996642208,80.62050824892555,1,41.18,0.7511417865753174,15.45,41.18,0,0,1,0,1,0
1767987439.6466222,20260109153719.646588,18.189018833333332,-64.9587925,0.01821369126063879,0.5586001102372958,0.5750722021205928,-0.17592697275262165,0.017199279613365065,-4.86735419861377,2.252266996642208,80.62050824892555,1,41.18,1.126952886581421,15.45,41.18,0,0,1,0,1,0
1767987439.7561524,20260109153719.756118,18.189018833333332,-64.9587925,0.011148987128930893,0.5586001102372958,0.5750722021205928,-0.17592697275262165,0.0024217252568799084,-4.024151249264188,0.43703957534898774,79.79197868559393,1,41.18,1.126952886581421,15.45,41.18,0,0,1,0,1,0
1767987439.8445225,20260109153719.844488,18.189018833333332,-64.9587925,0.011148987128930893,0.5586001102372958,0.5750722021205928,-0.17592697275262165,0.0024217252568799084,5.599905909410113,-0.8188094002542952,80.38058410816225,1,41.18,0.4671458601951599,15.25,41.18,0,0,1,0,1,0
1767987439.9445233,20260109153719.944489,18.189018666666666,-64.95878933333333,0.06256994950202022,0.5586001102372958,0.719632380453226,-0.08237346580503847,-0.0420838087016642,5.599905909410113,-0.8188094002542952,80.38058410816225,1,41.18,0.5452648997306824,15.25,41.18,0,0,1,0,1,0
1767987440.0719886,20260109153720.071954,18.189018666666666,-64.95878933333333,0.06256994950202022,0.5586001102372958,0.719632380453226,-0.08237346580503847,-0.0420838087016642,11.863314561286561,-0.1416507568767217,81.93203481211695,1,41.18,0.5452648997306824,15.25,41.18,0,0,1,0,1,0
1767987440.1370313,20260109153720.136997,18.189018666666666,-64.95878933333333,0.027569949502021858,0.5586001102372958,0.719632380453226,-0.08237346580503847,-0.06877297171703586,14.873018858420842,0.44934064372089355,83.83935215945277,1,41.13,0.5452648997306824,15.25,41.13,0,0,1,0,1,0
1767987440.24411,20260109153720.244076,18.189018666666666,-64.95878933333333,0.027569949502021858,0.5586001102372958,0.719632380453226,-0.08237346580503847,-0.06877297171703586,13.417777379742258,-1.4076495572984176,87.61472008254563,1,41.13,1.3885269165039062,15.25,41.13,0,0,1,0,1,0
1767987440.3368444,20260109153720.336810,18.189018666666666,-64.95878933333333,0.017857064617516197,0.5586001102372958,0.719632380453226,-0.08237346580503847,-0.06918185140973865,13.417777379742258,-1.4076495572984176,87.61472008254563,1,41.13,1.204359769821167,15.25,41.13,0,0,1,0,1,0
1767987440.444264,20260109153720.444230,18.189018833333332,-64.95878716666667,0.017857064617516197,0.5586001102372958,0.436823856934665,-0.01983605527123122,-0.06918185140973865,11.581285704329604,-3.699173293675474,89.07114440137478,1,41.13,1.204359769821167,15.17,41.13,0,0,1,0,1,0
1767987440.5444844,20260109153720.544450,18.189018833333332,-64.95878716666667,0.07999856776643437,0.5586001102372958,0.436823856934665,-0.01983605527123122,0.0620042616107761,10.211543710479132,-6.022291788902872,90.3499201957855,1,41.13,1.0830128192901611,15.17,41.13,0,0,1,0,1,0
