timestamp_ros,timestamp_sys (%Y%m%d%H%M%S.%f),latitude,longitude,depth,distance_to_ocean_floor,velX,velY,velZ,roll,pitch,yaw,navMode,acousticAltimeter,forwardStereo,battery_volts,altitudeUsed,cotsNumFound,cotsNumMaybe,missionState,errorState,storeData,storeImageData
1767893745.336535,20260108133545.336498,18.189015651026466,-64.95623798971582,0.33013972265904235,0.5467809930715942,0.010609454144396586,-0.0169835061974242,0.11790420879262542,6.372585849702355,-13.25585744228661,145.14497058049437,5,38.15,0.8400421738624573,15.89,38.15,0,0,1,0,1,0
1767893745.4290276,20260108133545.428991,18.189015636403244,-64.95623798140615,0.3587401762080713,0.5467809930715942,0.009512898246144829,-0.017621145449671957,0.1499285667125187,6.7688266094774034,-16.242333965295554,148.7749467716982,5,38.15,0.8400421738624573,15.89,38.15,0,0,1,0,1,0
1767893745.5378366,20260108133545.537800,18.18901561862655,-64.95623797433956,0.3587401762080713,0.5467809930715942,0.007074851485532395,-0.018733565503065885,0.1499285667125187,3.740000337150694,-22.499088302993776,156.4482845573237,5,38.15,0.5438058972358704,15.89,38.15,0,0,1,0,1,0
1767893745.646035,20260108133545.645998,18.189015600364037,-64.95623796707986,0.34348204380688696,0.5467809930715942,0.007074851485532395,-0.018733565503065885,0.06579139878400121,3.740000337150694,-22.499088302993776,156.4482845573237,5,38.15,0.7094409465789795,15.89,38.15,0,0,1,0,1,0
1767893745.76233,20260108133545.762293,18.18901558153834,-64.95623796110388,0.34348204380688696,0.5467809930715942,0.005781836475184295,-0.0191721247381251,0.06579139878400121,1.3230371436059514,-24.937994340866798,160.3556459333231,5,38.15,0.8729058504104614,15.67,38.15,0,0,1,0,1,0
1767893745.8607297,20260108133545.860693,18.18901556280998,-64.95623795671389,0.3898505140610281,0.5467809930715942,0.004352752866633907,-0.01954618997354754,0.14974822487168343,0.2893424447083862,-26.34157822660804,164.58327499402066,5,38.15,0.8729058504104614,15.67,38.15,0,0,1,0,1,0
1767893745.9348884,20260108133545.934852,18.189015550277567,-64.956237954733,0.3898505140610281,0.5467809930715942,0.0029736832022024436,-0.019802959582166983,0.14974822487168343,1.09930429222472,-26.76281151126623,-191.4024049665163,5,38.15,0.8729058504104614,15.67,38.15,0,0,1,0,1,0
1767893746.037662,20260108133546.037625,18.189015530736476,-64.95623795233688,0.4203731939399636,0.5467809930715942,0.002317091875844694,-0.019890477250154016,0.15430881708610142,0.5320263564091199,-27.00859937152862,-189.50705411488514,5,38.15,0.8729058504104614,15.67,38.15,0,0,1,0,1,0
1767893746.1457047,20260108133546.145668,18.18901551205384,-64.95623795043373,0.4203731939399636,0.5467809930715942,0.001928944344198458,-0.019931863277601138,0.15430881708610142,-0.8979290058687324,-27.038795648646353,-188.3901675220678,5,38.15,0.8729058504104614,15.67,38.15,0,0,1,0,1,0
1767893746.2520158,20260108133546.251979,18.189015492113132,-64.95623794874057,0.4184874994643571,0.5467809930715942,0.0016101289538321727,-0.019960147413083686,0.1155817366361924,-2.651351464006306,-27.166093344819558,-187.47437543069813,5,38.15,0.8729058504104614,15.67,38.15,0,0,1,0,1,0
1767893746.3289175,20260108133546.328881,18.189015478563636,-64.95623794766686,0.4184874994643571,0.5467809930715942,0.0015032935726651308,-0.019968477869742193,0.1155817366361924,-5.491686219070847,-27.311465435546634,-187.16776812922458,5,38.15,0.8729058504104614,15.67,38.15,0,0,1,0,1,0
1767893746.4364848,20260108133546.436448,18.18901545946058,-64.95623794617143,0.4020178302006674,0.5467809930715942,0.0014851731378413377,-0.019969833768728133,0.08014505021080802,-10.94937942826152,-26.7601750573039,-187.11577671067215,5,38.15,0.8729058504104614,15.67,38.15,0,0,1,0,1,0
1767893746.553261,20260108133546.553224,18.18901544056947,-64.95623794469259,0.4020178302006674,0.5467809930715942,0.0014851731378413377,-0.019969833768728133,0.08014505021080802,-10.94937942826152,-26.7601750573039,-187.11577671067215,5,38.15,0.8729058504104614,15.67,38.15,0,0,1,0,1,0
1767893746.6608903,20260108133546.660854,18.189015421383637,-64.95623794318475,0.42634997978064715,0.5467809930715942,0.001491010280246279,-0.019969398797765544,0.08441731870918234,-13.085075331214071,-25.81623745384811,-187.1325243405054,5,38.15,0.8729058504104614,15.67,38.15,0,0,1,0,1,0
1767893746.7303429,20260108133546.730306,18.18901540673265,-64.9562379419681,0.42634997978064715,0.5467809930715942,0.0015749298664120626,-0.019962955590690553,0.08441731870918234,-14.787754161429412,-24.543779586678745,-187.3733432363699,5,38.15,0.8729058504104614,15.67,38.15,0,0,1,0,1,0
1767893746.8385499,20260108133546.838513,18.18901538744293,-64.95623794028332,0.3846067116618732,0.5467809930715942,0.0016559050078764853,-0.019956401945363036,0.00595123513120991,-14.444082825171945,-21.657554054832463,-187.60578831731775,5,38.15,0.8729058504104614,15.67,38.15,0,0,1,0,1,0
1767893746.943618,20260108133546.943581,18.189015367913793,-64.95623793857764,0.3846067116618732,0.5467809930715942,0.0016559050078764853,-0.019956401945363036,0.00595123513120991,-14.444082825171945,-21.657554054832463,-187.60578831731775,5,38.15,0.8729058504104614,15.78,38.15,0,0,1,0,1,0
1767893747.0319567,20260108133547.031920,18.18901535281469,-64.95623793710007,0.3764947060242243,0.5467809930715942,0.001853695114053751,-0.01993900234274858,-0.010354477032390341,-14.137678721898794,-20.935191282373673,-188.17389633485772,5,38.15,4.231407165527344,15.78,38.15,0,0,1,0,1,0
1767893747.1586049,20260108133547.158568,18.189015335003756,-64.95623793503488,0.3764947060242243,0.5467809930715942,0.002192634187035451,-0.019904581264669787,-0.010354477032390341,-14.577650637245174,-21.06695592386127,-189.14867396099066,5,38.15,4.231407165527344,15.78,38.15,0,0,1,0,1,0
1767893747.2576,20260108133547.257563,18.189015317145653,-64.9562379325934,0.3754677923512611,0.5467809930715942,0.002579262396626276,-0.01985818233095239,-0.009403077361079721,-15.256237004113197,-22.01971471978426,-190.26285579792955,5,38.15,4.231407165527344,15.78,38.15,0,0,1,0,1,0
1767893747.3363461,20260108133547.336309,18.189015299401476,-64.95623792934988,0.3754677923512611,0.5467809930715942,0.003426236125663082,-0.01972969604457203,-0.009403077361079721,-15.513322001302239,-25.22954277738333,-192.71414326564766,5,38.15,4.231407165527344,15.78,38.15,0,0,1,0,1,0
1767893747.4344141,20260108133547.434377,18.189015281080714,-64.95623792600098,0.3804492878754028,0.5467809930715942,0.003426236125663082,-0.01972969604457203,0.006850354886696733,-15.513322001302239,-25.22954277738333,-192.71414326564766,5,38.15,4.231407165527344,15.78,38.15,0,0,1,0,1,0
1767893747.536482,20260108133547.536445,18.189015263986466,-64.95623792246289,0.3804492878754028,0.5467809930715942,0.00386360210654003,-0.01964872969843953,0.006850354886696733,-14.450554431724548,-26.514216442251204,166.0132985514929,5,38.15,4.231407165527344,15.86,38.15,0,0,1,0,1,0
1767893747.6408129,20260108133547.640776,18.189015246418908,-64.95623791829603,0.40086215516113693,0.5467809930715942,0.004402024986043009,-0.019535152316331014,-0.018817415107439315,-13.130720647984742,-27.266975274932392,164.43880278103848,5,38.15,4.231407165527344,15.86,38.15,0,0,1,0,1,0
1767893747.7272797,20260108133547.727243,18.189015228962944,-64.95623791364078,0.40086215516113693,0.5467809930715942,0.004918137129279703,-0.01941164411320176,-0.018817415107439315,-11.174291661635044,-27.09579701274633,162.92035556295414,5,38.15,4.231407165527344,15.86,38.15,0,0,1,0,1,0
1767893747.8334224,20260108133547.833386,18.18901521163749,-64.95623790845801,0.42122408811411793,0.5467809930715942,0.0054742033321486736,-0.019262219443207794,0.02984504877914591,-9.3519794640094,-25.982318685543532,161.27283138378164,5,38.15,4.231407165527344,15.86,38.15,0,0,1,0,1,0
1767893747.9300663,20260108133547.930030,18.189015282343398,-64.95623815866327,0.42122408811411793,0.5467809930715942,-0.26435357056000913,0.07863326097889038,0.02984504877914591,-7.243863874787091,-24.00337653386593,159.82017257130641,5,43.4,4.231407165527344,15.86,43.4,0,0,1,0,1,0
1767893748.0330346,20260108133548.032998,18.189015343370997,-64.95623841176916,0.435846888687476,0.5467809930715942,-0.26732542213887844,0.0678462871369571,0.05927531709089808,-3.3394027689009906,-19.08856872525215,157.49559881837865,5,43.4,4.231407165527344,15.86,43.4,0,0,1,0,1,0
1767893748.1400654,20260108133548.140029,18.18901540437251,-64.95623866476689,0.435846888687476,0.5467809930715942,-0.26732542213887844,0.0678462871369571,0.05927531709089808,-3.3394027689009906,-19.08856872525215,157.49559881837865,5,43.4,4.231407165527344,15.81,43.4,0,0,1,0,1,0
1767893748.230253,20260108133548.230216,18.189015459149612,-64.95623892445818,0.37111398729548756,0.5467809930715942,-0.2692442218763585,0.0597791684970128,0.015562019864759927,-0.6472462460987258,-16.30808480485082,155.77288788993854,5,43.4,4.231407165527344,15.81,43.4,0,0,1,0,1,0
1767893748.327744,20260108133548.327707,18.189015511905225,-64.95623917456584,0.37111398729548756,0.5467809930715942,-0.2692442218763585,0.0597791684970128,0.015562019864759927,-0.6472462460987258,-16.30808480485082,155.77288788993854,5,43.4,4.231407165527344,15.81,43.4,0,0,1,0,1,0
1767893748.427142,20260108133548.427105,18.18901556394921,-64.95623942980602,0.33111195133152393,0.5467809930715942,-0.26965970246914767,0.057876116527033394,-0.061919025368927946,1.8500096918307252,-17.40405222830772,155.36822788693453,5,43.4,4.231407165527344,15.81,43.4,0,0,1,0,1,0
1767893748.5268967,20260108133548.526860,18.189015616006596,-64.95623968511192,0.33111195133152393,0.5467809930715942,-0.26965970246914767,0.057876116527033394,-0.061919025368927946,1.8500096918307252,-17.40405222830772,155.36822788693453,5,43.4,0.7631688714027405,15.81,43.4,0,0,1,0,1,0
1767893748.6682782,20260108133548.668242,18.189015538977923,-64.95623981040507,0.36925492556005896,0.5467809930715942,-0.13238490738454128,-0.08566934280585108,0.02201631276222572,2.1973338999398075,-18.82943296303153,155.47924582139993,5,43.68,0.7631688714027405,15.81,43.68,0,0,1,0,1,0
1767893748.743217,20260108133548.743180,18.189015462217434,-64.95623993593739,0.36925492556005896,0.5467809930715942,-0.13259509065276875,-0.08534366956478982,0.02201631276222572,2.97155789042339,-20.434140378534792,155.62008437244438,5,43.68,0.6367413997650146,15.84,43.68,0,0,1,0,1,0
1767893748.8270473,20260108133548.827011,18.18901538590886,-64.95624006172437,0.3977265677577011,0.5467809930715942,-0.13290176148369828,-0.08486531561556919,0.01935360971068508,5.172811893461645,-22.039037331855305,155.8265474044993,5,43.68,0.6367413997650146,15.84,43.68,0,0,1,0,1,0
1767893748.9534285,20260108133548.953392,18.18901530985111,-64.9562401877343,0.3977265677577011,0.5467809930715942,-0.13309611818967138,-0.08456017574982348,0.01935360971068508,5.761671313780547,-22.617117429149143,155.95800127226855,5,43.68,0.6545757055282593,15.84,43.68,0,0,1,0,1,0
1767893749.0280595,20260108133549.028023,18.189015234801644,-64.9562403143946,0.4113813565558899,0.5467809930715942,-0.13379650430715304,-0.08344756099003717,0.09009620376856164,5.239142872416972,-22.23083081987499,156.43570487362882,5,43.68,0.6545757055282593,15.84,43.68,0,0,1,0,1,0
1767893749.1370244,20260108133549.136988,18.189015160808413,-64.95624044171855,0.4113813565558899,0.5467809930715942,-0.13451523915319413,-0.08228396220138519,0.09009620376856164,1.847279963064192,-19.9461880746603,156.93265595495248,5,43.68,1.2689015865325928,15.84,43.68,0,0,1,0,1,0
1767893749.236658,20260108133549.236621,18.189015272672776,-64.95624034884547,0.3676406767317567,0.5467809930715942,0.09810835532418462,0.12438549198191698,0.028274914769041797,1.847279963064192,-19.9461880746603,156.93265595495248,5,39.48,1.2689015865325928,15.84,39.48,0,0,1,0,1,0
1767893749.421661,20260108133549.421624,18.189015384147883,-64.95624025545769,0.3676406767317567,0.5467809930715942,0.09865307647792011,0.12395390474463337,0.028274914769041797,0.25909862305372755,-18.91607565118075,157.18400700628305,5,39.48,1.2689015865325928,15.78,39.48,0,0,1,0,1,0
1767893749.4271116,20260108133549.427075,18.189015494598,-64.95624016074704,0.39464067673175773,0.5467809930715942,0.10005762895893523,0.1228229249249343,0.09690628910735785,-0.41900293361199886,-17.879699941992758,157.83620834295297,5,39.48,1.2689015865325928,15.78,39.48,0,0,1,0,1,0
1767893749.52868,20260108133549.528643,18.18901560333466,-64.95624006383835,0.39464067673175773,0.5467809930715942,0.10236822808564576,0.12090387040374351,0.09690628910735785,-0.36110793498912785,-16.670224979227783,158.9225366584971,5,39.48,1.2689015865325928,15.78,39.48,0,0,1,0,1,0
1767893749.634842,20260108133549.634805,18.18901570952369,-64.95623996386458,0.3813580707093945,0.5467809930715942,0.10561350103653903,0.1180795850213108,0.012076534562752714,-0.1040075165080841,-15.456037184250352,160.47853627006555,5,39.48,1.2689015865325928,15.78,39.48,0,0,1,0,1,0
1767893749.7274415,20260108133549.727405,18.1890158126571,-64.95623986042328,0.3813580707093945,0.5467809930715942,0.10928468727493074,0.11469026605261928,0.012076534562752714,-0.28007491522757144,-14.52824786131382,162.28569568759943,5,39.48,1.2689015865325928,15.78,39.48,0,0,1,0,1,0
1767893749.8280094,20260108133549.827973,18.189015708262072,-64.95623974778199,0.3323832562401488,0.5467809930715942,0.11897276438276863,-0.11606240276300597,-0.08080061624539467,-0.8330712138667705,-15.63817448887825,-193.74066489418004,5,41.54,1.2689015865325928,15.78,41.54,0,0,1,0,1,0
1767893749.9320564,20260108133549.932020,18.189015603894315,-64.95623963517014,0.3323832562401488,0.5467809930715942,0.11897276438276863,-0.11606240276300597,-0.08080061624539467,-0.8330712138667705,-15.63817448887825,-193.74066489418004,5,41.54,1.2689015865325928,15.78,41.54,0,0,1,0,1,0
1767893750.0347598,20260108133550.034723,18.189015496351566,-64.95623952586101,0.3442327164152068,0.5467809930715942,0.11545430481332623,-0.11956296876571587,-0.04436509837264912,-0.9569498655293133,-17.685830075722933,-192.02966091416332,5,41.54,0.7219086289405823,15.78,41.54,0,0,1,0,1,0
1767893750.12961,20260108133550.129573,18.189015387039404,-64.95623941855017,0.3442327164152068,0.5467809930715942,0.1133614025598752,-0.12154913578326222,-0.04436509837264912,-1.166448917755858,-19.90702204840779,-191.03500743043875,5,41.54,0.7219086289405823,15.78,41.54,0,0,1,0,1,0
1767893750.2294445,20260108133550.229408,18.189015275525616,-64.9562393087772,0.3490196089796597,0.5467809930715942,0.11352766804051556,-0.12139385729633316,0.004220692151971027,-1.5335060830414318,-21.51329187024237,-191.11343169053052,5,41.54,0.6653760671615601,15.78,41.54,0,0,1,0,1,0
1767893750.328289,20260108133550.328252,18.18901516976573,-64.95623920245532,0.3490196089796597,0.5467809930715942,0.11479601646352795,-0.1201951521655737,0.004220692151971027,-1.686308568468689,-22.20565302604437,-191.71503496773695,5,41.54,0.6653760671615601,15.78,41.54,0,0,1,0,1,0
1767893750.4502976,20260108133550.450261,18.189015261153397,-64.95623924311911,0.39833269968495494,0.5467809930715942,-0.04295391828554149,0.10161181478508798,0.031677670466807126,-4.168619620263577,-21.47535527848005,165.94965635530497,5,39.17,1.054949164390564,15.78,39.17,0,0,1,0,1,0
1767893750.5619042,20260108133550.561868,18.189015352529335,-64.9562392837777,0.39833269968495494,0.5467809930715942,-0.04295391828554149,0.10161181478508798,0.031677670466807126,-4.168619620263577,-21.47535527848005,165.94965635530497,5,39.17,1.054949164390564,15.67,39.17,0,0,1,0,1,0
1767893750.6307518,20260108133550.630715,18.189015443172202,-64.95623932623873,0.3822837449798261,0.5467809930715942,-0.044854044284877284,0.10078747298791783,-0.0020655232652722786,-5.7993282945737255,-20.71980289742947,164.8739011763766,5,39.17,1.054949164390564,15.67,39.17,0,0,1,0,1,0
1767893750.740873,20260108133550.740836,18.1890155330349,-64.9562393704886,0.3822837449798261,0.5467809930715942,-0.04674567291615701,0.09992418157591117,-0.0020655232652722786,-7.659993298763035,-20.091599438989164,163.7939522597983,5,39.17,1.054949164390564,15.67,39.17,0,0,1,0,1,0
1767893750.828635,20260108133550.828598,18.18901562189247,-64.95623941693073,0.3553316812053141,0.5467809930715942,-0.04906203724781387,0.09880747188899291,0.005612764588832209,-10.564241998726128,-18.36932735036016,162.45836293155696,5,39.17,1.054949164390564,15.67,39.17,0,0,1,0,1,0
1767893750.9292161,20260108133550.929179,18.189015710749374,-64.9562394633725,0.3553316812053141,0.5467809930715942,-0.04906203724781387,0.09880747188899291,0.005612764588832209,-10.564241998726128,-18.36932735036016,162.45836293155696,5,39.17,1.054949164390564,15.67,39.17,0,0,1,0,1,0
1767893751.0304928,20260108133551.030456,18.189015554156548,-64.95623961909355,0.31304512177757454,0.5467809930715942,-0.16448778278792012,-0.1741084986826146,-0.07713269783161983,-10.866162081205843,-16.812748880052563,162.61299846965815,5,41.88,1.054949164390564,15.67,41.88,0,0,1,0,1,0
1767893751.1413221,20260108133551.141285,18.189015393014113,-64.95623978800944,0.31304512177757454,0.5467809930715942,-0.16901487923917827,-0.16971732556155245,-0.07713269783161983,-6.545514775376023,-12.495549540325998,164.12171949488666,5,41.88,1.054949164390564,15.81,41.88,0,0,1,0,1,0
1767893751.2520316,20260108133551.251995,18.18901523696488,-64.95623995158641,0.315900635791167,0.5467809930715942,-0.16901487923917827,-0.16971732556155245,-0.117264047020008,-6.545514775376023,-12.495549540325998,164.12171949488666,5,41.88,0.7392274141311646,15.81,41.88,0,0,1,0,1,0
1767893751.3273082,20260108133551.327271,18.189015098622107,-64.95624010152132,0.315900635791167,0.5467809930715942,-0.1718213262913403,-0.16687549799621504,-0.117264047020008,-2.406445552235841,-10.195870128276946,165.07714035799052,5,41.88,0.5148687958717346,15.81,41.88,0,0,1,0,1,0
1767893751.4279675,20260108133551.427931,18.189014950830927,-64.95624026645348,0.2373057072485748,0.5467809930715942,-0.17424242500817544,-0.1643459075464624,-0.17469173081076234,2.276916517840326,-8.282248514083028,165.9147451445116,5,41.88,0.5148687958717346,15.81,41.88,0,0,1,0,1,0
1767893751.529822,20260108133551.529785,18.18901480378822,-64.95624043217911,0.2373057072485748,0.5467809930715942,-0.17505027029850656,-0.16348517629565007,-0.17469173081076234,7.821452198284866,-7.154990275302528,-193.80300615448814,5,41.88,0.8226296305656433,15.81,41.88,0,0,1,0,1,0
1767893751.628464,20260108133551.628427,18.18901465353295,-64.9562405945824,0.21128350220765296,0.5467809930715942,-0.17159432035679298,-0.1671089142484335,-0.18298694151514666,16.267882297021153,-7.6852718379199505,164.99925358157293,5,41.88,0.8226296305656433,15.81,41.88,0,0,1,0,1,0
1767893751.7279038,20260108133551.727867,18.189014590850192,-64.95624023546628,0.21128350220765296,0.5467809930715942,0.37918278735552624,-0.06966644653844321,-0.18298694151514666,21.35099114960432,-7.607180549669259,164.57684721150528,5,41.28,0.8226296305656433,15.67,41.28,0,0,1,0,1,0
1767893751.8272173,20260108133551.827181,18.189014523761838,-64.95623987758194,0.1786473449963778,0.5467809930715942,0.3782366224913604,-0.07463281722089891,-0.17084036254210117,23.16024743596316,-7.109662989328798,165.3282092700018,5,41.28,0.8226296305656433,15.67,41.28,0,0,1,0,1,0
1767893751.984157,20260108133551.984120,18.18901438329948,-64.95623935942929,0.1786473449963778,0.5467809930715942,0.3707323938523249,-0.10578512252923204,-0.17084036254210117,21.402384926390646,-7.331893091833595,-189.90838991603718,5,41.28,0.41781461238861084,15.67,41.28,0,0,1,0,1,0
1767893752.0622454,20260108133552.062209,18.189014305587065,-64.95623907275538,0.16987769274271874,0.5467809930715942,0.3707323938523249,-0.10578512252923204,-0.1831922286196701,21.402384926390646,-7.331893091833595,-189.90838991603718,5,41.28,0.43149805068969727,15.67,41.28,0,0,1,0,1,0
1767893752.1277008,20260108133552.127664,18.18901422599118,-64.95623882879659,0.16987769274271874,0.5467809930715942,0.364626143685734,-0.12522290262116792,-0.1831922286196701,20.0015792210877,-9.171518971422316,-186.8800878609167,5,41.28,0.43149805068969727,15.67,41.28,0,0,1,0,1,0
1767893752.228054,20260108133552.228017,18.189014097545908,-64.95623848980325,0.18463719454189667,0.5467809930715942,0.358099344735075,-0.14282107442639505,-0.127182138739759,18.576702212995286,-11.755589632952216,-184.09036439881191,5,41.28,0.43149805068969727,15.67,41.28,0,0,1,0,1,0
1767893752.3282485,20260108133552.328212,18.18901404077385,-64.95623819677495,0.18463719454189667,0.5467809930715942,0.30957284689278897,-0.06313202409786854,-0.127182138739759,16.333417985540635,-15.262015346217156,-179.60574254851207,5,38.82,0.4550919234752655,15.67,38.82,0,0,1,0,1,0
1767893752.4468935,20260108133552.446857,18.189013984003633,-64.95623790375615,0.19898193116595903,0.5467809930715942,0.30957284689278897,-0.06313202409786854,-0.03196585689014543,16.333417985540635,-15.262015346217156,-179.60574254851207,5,38.82,0.4693760573863983,15.67,38.82,0,0,1,0,1,0
1767893752.5348012,20260108133552.534765,18.189013916191172,-64.95623761327836,0.19898193116595903,0.5467809930715942,0.30681707167404965,-0.07539419426826645,-0.03196585689014543,15.549923290604356,-15.123756900054225,-177.32641198482378,5,38.82,0.3644355237483978,15.67,38.82,0,0,1,0,1,0
1767893752.636168,20260108133552.636131,18.189013834663857,-64.95623732675571,0.22606728542823928,0.5467809930715942,0.30266115161015295,-0.09064892335828388,0.06710072322747986,15.036250192666055,-13.82159367578924,-174.4588789798723,5,38.82,0.3644355237483978,15.67,38.82,0,0,1,0,1,0
1767893752.7472665,20260108133552.747230,18.189013718311347,-64.95623705389784,0.22606728542823928,0.5467809930715942,0.28824062093422986,-0.1293767538758397,0.06710072322747986,16.243240673232076,-10.547932354930047,-166.95924662732943,5,38.82,0.5080456733703613,15.67,38.82,0,0,1,0,1,0
1767893752.850381,20260108133552.850344,18.189013601980754,-64.95623678109136,0.18669367225267738,0.5467809930715942,0.28824062093422986,-0.1293767538758397,0.01426813607099795,16.243240673232076,-10.547932354930047,-166.95924662732943,5,38.82,0.5080456733703613,15.67,38.82,0,0,1,0,1,0
1767893752.9345603,20260108133552.934524,18.18901366647931,-64.9562369226872,0.18669367225267738,0.5467809930715942,-0.1495696586980074,0.07171413526607973,0.01426813607099795,20.81344823952913,-11.037694659581783,-160.26619160227642,5,41.02,0.30681270360946655,15.78,41.02,0,0,1,0,1,0
1767893753.0288863,20260108133553.028850,18.18901373097643,-64.95623706427992,0.17510540711103303,0.5467809930715942,-0.1495696586980074,0.07171413526607973,0.009802993440646595,20.81344823952913,-11.037694659581783,-160.26619160227642,5,41.02,0.32076361775398254,15.78,41.02,0,0,1,0,1,0
1767893753.1602504,20260108133553.160214,18.189013798791493,-64.95623720411312,0.17510540711103303,0.5467809930715942,-0.14773731387339278,0.07541674939610321,0.009802993440646595,23.873993921703097,-12.507735455936201,-158.83915966873033,5,41.02,0.32076361775398254,15.78,41.02,0,0,1,0,1,0
1767893753.2296407,20260108133553.229604,18.18901387094503,-64.95623734155899,0.17641059598996633,0.5467809930715942,-0.1451830783086394,0.08022389776636062,-0.02825070823480563,25.543205666792396,-13.648593459990622,-156.95875327634676,5,41.02,0.35544779896736145,15.78,41.02,0,0,1,0,1,0
1767893753.3301008,20260108133553.330064,18.18901394888023,-64.95623747543301,0.17641059598996633,0.5467809930715942,-0.14143215946462237,0.08666570411168208,-0.02825070823480563,26.502441191911693,-13.900062332126499,-154.38368907623155,5,41.02,0.35544779896736145,15.78,41.02,0,0,1,0,1,0
1767893753.4476368,20260108133553.447600,18.189014034019532,-64.95623760436851,0.16568996476886627,0.5467809930715942,-0.13620446884587512,0.09466965018638783,-0.07552404201783205,27.231060419887303,-13.251198397833111,-151.08105920519694,5,41.02,0.35544779896736145,15.78,41.02,0,0,1,0,1,0
1767893753.5605173,20260108133553.560481,18.18901390453822,-64.95623767521198,0.16568996476886627,0.5467809930715942,-0.07483668923266765,-0.14397385160053586,-0.07552404201783205,28.97293515844346,-11.418605908057097,-142.95650530128344,5,39.61,0.39081770181655884,15.81,39.61,0,0,1,0,1,0
1767893753.6272852,20260108133553.627249,18.189013775035647,-64.95623774606709,0.1626530864205197,0.5467809930715942,-0.07483668923266765,-0.14397385160053586,-0.06345955448753379,28.97293515844346,-11.418605908057097,-142.95650530128344,5,39.61,0.31508132815361023,15.81,39.61,0,0,1,0,1,0
1767893753.7408886,20260108133553.740852,18.18901365090968,-64.95623782678352,0.1626530864205197,0.5467809930715942,-0.08528140779796417,-0.13804376655248632,-0.06345955448753379,29.446660173189635,-11.097531406974793,-138.71446453628405,5,39.61,0.31508132815361023,15.81,39.61,0,0,1,0,1,0
1767893753.8286023,20260108133553.828566,18.189013532190216,-64.95623791612061,0.14762776154499296,0.5467809930715942,-0.0943670355915317,-0.13199947952043822,-0.03435890932254296,29.08936601976157,-11.309028290247921,-134.8604742775427,5,39.61,0.37216508388519287,15.81,39.61,0,0,1,0,1,0
1767893753.9276066,20260108133553.927570,18.189013418445267,-64.95623801232682,0.14762776154499296,0.5467809930715942,-0.10163737357184677,-0.1264865379928507,-0.03435890932254296,27.668028758472193,-11.881700583332785,-131.6382494221674,5,39.61,0.37216508388519287,15.81,39.61,0,0,1,0,1,0
1767893754.0278072,20260108133554.027771,18.189013312434714,-64.95623811787063,0.17935696250098718,0.5467809930715942,-0.11150048815827744,-0.11788401562750496,-0.00849427980390165,23.043278697055573,-13.414905284169322,-127.0156918522583,5,39.61,0.6197179555892944,15.81,39.61,0,0,1,0,1,0
1767893754.138676,20260108133554.138639,18.189013206402745,-64.95623822343575,0.17935696250098718,0.5467809930715942,-0.11150048815827744,-0.11788401562750496,-0.00849427980390165,23.043278697055573,-13.414905284169322,-127.0156918522583,5,39.61,0.6197179555892944,15.56,39.61,0,0,1,0,1,0
1767893754.2272494,20260108133554.227213,18.189013263021454,-64.95623838025178,0.1866534149031181,0.5467809930715942,-0.1656681497419478,0.06296081448869256,0.006297138750701406,20.896689492255447,-14.247921429616223,-125.23210342597828,5,44.49,0.4947284162044525,15.56,44.49,0,0,1,0,1,0
1767893754.3270593,20260108133554.327023,18.18901332339467,-64.9562385355307,0.1866534149031181,0.5467809930715942,-0.16402403939737986,0.06712759864442328,0.006297138750701406,19.858196423667668,-14.739128319793949,-123.7839252192007,5,44.49,0.4947284162044525,15.56,44.49,0,0,1,0,1,0
1767893754.4277291,20260108133554.427692,18.189013389689993,-64.95623868810145,0.20905496088469466,0.5467809930715942,-0.16117073320553038,0.07371563442032998,0.0445229918604393,21.70756813291311,-13.98148846143187,-121.46276150323854,5,44.49,0.5941616296768188,15.56,44.49,0,0,1,0,1,0
1767893754.5280588,20260108133554.528022,18.189013455975978,-64.95623884065071,0.20905496088469466,0.5467809930715942,-0.16117073320553038,0.07371563442032998,0.0445229918604393,21.70756813291311,-13.98148846143187,-121.46276150323854,5,44.49,0.5941616296768188,15.56,44.49,0,0,1,0,1,0
1767893754.6290202,20260108133554.628984,18.18901352550035,-64.95623899161093,0.2086900814399169,0.5467809930715942,-0.1594777228284679,0.07731012819447636,0.06284166477948366,26.857534316092725,-12.846107417276505,-120.17823468749032,5,44.49,0.4026814103126526,15.56,44.49,0,0,1,0,1,0
1767893754.7333596,20260108133554.733323,18.18901359502799,-64.95623914257826,0.2086900814399169,0.5467809930715942,-0.1594777228284679,0.07731012819447636,0.06284166477948366,26.857534316092725,-12.846107417276505,-120.17823468749032,5,44.49,0.4046820402145386,15.7,44.49,0,0,1,0,1,0
1767893754.8303242,20260108133554.830287,18.18901357931527,-64.9562393053488,0.23002732923739536,0.5467809930715942,-0.17192677451474375,-0.017469522173100785,0.09105944739763398,29.134670680725566,-13.044209441024073,-119.6971296507071,5,43.28,0.4046820402145386,15.7,43.28,0,0,1,0,1,0
1767893754.9299085,20260108133554.929872,18.18901356731364,-64.95623946842137,0.23002732923739536,0.5467809930715942,-0.17229581490353837,-0.013347365535027474,0.09105944739763398,32.07278347070216,-14.235627084714185,-118.32493049542413,5,43.28,0.5134958624839783,15.7,43.28,0,0,1,0,1,0
1767893755.0277677,20260108133555.027731,18.18901355531058,-64.95623963151351,0.2510046372663041,0.5467809930715942,-0.17229581490353837,-0.013347365535027474,0.0900335731086344,32.07278347070216,-14.235627084714185,-118.32493049542413,5,43.28,0.7810899615287781,15.7,43.28,0,0,1,0,1,0
1767893755.1347513,20260108133555.134715,18.189013546374653,-64.95623979482414,0.2510046372663041,0.5467809930715942,-0.17252612024114541,-0.009936691327490713,0.0900335731086344,32.55738215049504,-14.726738352209336,-117.19152849928841,5,43.28,0.7810899615287781,15.7,43.28,0,0,1,0,1,0
1767893755.2346897,20260108133555.234653,18.189013547187187,-64.95623995842404,0.25413863007869997,0.5467809930715942,-0.17280967516410878,0.000903421095176854,0.07956847528972959,31.596206850957877,-15.109111261689673,-113.59567167214854,5,43.28,0.5601420998573303,15.7,43.28,0,0,1,0,1,0
1767893755.3281186,20260108133555.328082,18.189013547999558,-64.95624012199059,0.25413863007869997,0.5467809930715942,-0.17280967516410878,0.000903421095176854,0.07956847528972959,31.596206850957877,-15.109111261689673,-113.59567167214854,5,43.28,0.5601420998573303,15.89,43.28,0,0,1,0,1,0
1767893755.4291718,20260108133555.429135,18.18901327873107,-64.95624058657747,0.29293269886863393,0.5467809930715942,-0.4906643573095409,-0.2993400883042817,0.12744540447849045,29.94278138623236,-14.816188249111175,-111.36666596025928,5,44.16,0.6564895510673523,15.89,44.16,0,0,1,0,1,0
1767893755.528971,20260108133555.528934,18.189013158393553,-64.95624129806143,0.29293269886863393,0.5467809930715942,-0.7516700638251077,-0.13382120590234797,0.12744540447849045,27.919536904209846,-14.033595993241672,-109.1375987766455,5,0.19,0.6564895510673523,15.89,0.19,0,0,1,0,1,0
1767893755.6617224,20260108133555.661686,18.18901300001212,-64.95624205191328,0.3174189340512217,0.5467809930715942,-0.7964319695946493,-0.17612812895045293,0.15227084210407812,26.2922471676886,-12.887837326705462,-107.1112380196999,5,0.12,0.6564895510673523,15.89,0.12,0,0,1,0,1,0
1767893755.7362576,20260108133555.736221,18.189012888637574,-64.95624281853132,0.3174189340512217,0.5467809930715942,-0.8097569459432189,-0.12382927156658427,0.15227084210407812,24.495312546998253,-10.37225982666314,-103.73689113673672,5,0.09,0.6383639574050903,15.89,0.09,0,0,1,0,1,0
1767893755.8648763,20260108133555.864840,18.189012777297453,-64.95624358491239,0.3198708872257172,0.5467809930715942,-0.8097569459432189,-0.12382927156658427,0.11620490387149518,24.495312546998253,-10.37225982666314,-103.73689113673672,5,0.09,0.6383639574050903,15.89,0.09,0,0,1,0,1,0
1767893755.936836,20260108133555.936799,18.18901265745929,-64.95624448294257,0.3198708872257172,0.5467809930715942,-0.9486278936000536,-0.1332483376403813,0.11620490387149518,23.540526891714325,-9.297460020786529,-102.48618742985231,5,0.13,0.782014787197113,15.47,0.13,0,0,1,0,1,0
1767893756.079488,20260108133556.079451,18.18901265623047,-64.95624507888378,0.34187088722571746,0.5467809930715942,-0.6295332660938764,-0.001366338602504527,0.11502908892371264,22.64156951512098,-8.490375551569466,-101.57711624702915,5,0.11,0.782014787197113,15.47,0.11,0,0,1,0,1,0
1767893756.1442425,20260108133556.144206,18.189012579616072,-64.95624571420541,0.34187088722571746,0.5467809930715942,-0.671113360872097,-0.08518718717599774,0.11502908892371264,21.513281624954928,-7.892942106342319,-101.04821352934344,5,0.2,0.782014787197113,15.47,0.2,0,0,1,0,1,0
1767893756.2361467,20260108133556.236110,18.1890125874531,-64.95624635633824,0.35557456358573925,0.5467809930715942,-0.6344088406783756,0.008150022645335583,0.07240923036075307,19.72413342270254,-7.1029497647479225,-101.08756226322159,5,0.1,0.4996791183948517,15.47,0.1,0,0,1,0,1,0
1767893756.3280315,20260108133556.327995,18.189012594276118,-64.95624691538771,0.35557456358573925,0.5467809930715942,-0.6344088406783756,0.008150022645335583,0.07240923036075307,19.72413342270254,-7.1029497647479225,-101.08756226322159,5,0.1,0.4996791183948517,15.47,0.1,0,0,1,0,1,0
1767893756.4304507,20260108133556.430414,18.189012498235627,-64.95624744114494,0.3904841392909135,0.5467809930715942,-0.5401957328596511,-0.10386804224699946,0.0863622758222081,19.26051879909038,-6.8215595307067085,-101.92557896270259,5,0.2,0.5227838158607483,15.47,0.2,0,0,1,0,1,0
1767893756.52731,20260108133556.527273,18.189012437622324,-64.95624785453266,0.3904841392909135,0.5467809930715942,-0.4493673103019321,-0.06935431083939235,0.0863622758222081,19.26051879909038,-6.8215595307067085,-101.92557896270259,5,0.11,0.5227838158607483,15.59,0.11,0,0,1,0,1,0
1767893756.662418,20260108133556.662381,18.189012439004628,-64.95624838386863,0.4066313912248729,0.5467809930715942,-0.5472318862280418,0.0015042258140377102,0.10354724220232432,19.293276398062698,-7.186154732081302,-102.93917939795952,5,0.13,0.830111026763916,15.59,0.13,0,0,1,0,1,0
1767893756.7279959,20260108133556.727959,18.189012440327936,-64.95624889061693,0.4066313912248729,0.5467809930715942,-0.5472318862280418,0.0015042258140377102,0.10354724220232432,19.293276398062698,-7.186154732081302,-102.93917939795952,5,0.13,0.5275533199310303,15.59,0.13,0,0,1,0,1,0
1767893756.8285203,20260108133556.828484,18.189012444537113,-64.95624949315301,0.3951301543952207,0.5467809930715942,-0.6366404674381297,0.004681369474810321,0.05939827074102753,19.60847437303662,-7.618007257148632,-103.48401695267661,5,0.12,0.5275533199310303,15.59,0.12,0,0,1,0,1,0
1767893756.9278457,20260108133556.927809,18.189012364703757,-64.9562500730878,0.3951301543952207,0.5467809930715942,-0.6127134583103057,-0.08878185628508417,0.05939827074102753,20.188545471185442,-8.218118991261727,-103.99221052939399,5,0.15,0.5275533199310303,15.59,0.15,0,0,1,0,1,0
1767893757.028314,20260108133557.028277,18.18901216783632,-64.95625065082827,0.4110444734276125,0.5467809930715942,-0.6102692284580318,-0.21888917012323533,0.04881653992535725,20.892217424297325,-9.89980266623498,-104.86536173452838,5,0.22,0.4930533468723297,15.59,0.22,0,0,1,0,1,0
1767893757.1292002,20260108133557.129164,18.189011970975443,-64.95625122854949,0.4110444734276125,0.5467809930715942,-0.6102692284580318,-0.21888917012323533,0.04881653992535725,20.892217424297325,-9.89980266623498,-104.86536173452838,5,0.22,0.4930533468723297,15.28,0.22,0,0,1,0,1,0
1767893757.2322106,20260108133557.232174,18.189011684838515,-64.95625186502419,0.4133805148924165,0.5467809930715942,-0.6700558430770676,-0.3170775412391741,0.041372779485223075,21.0420445075035,-12.139140750485664,-106.24292942041858,5,0.11,1.6596156358718872,15.28,0.11,0,0,1,0,1,0
1767893757.3386734,20260108133557.338637,18.18901140063267,-64.95625249720342,0.4133805148924165,0.5467809930715942,-0.6700558430770676,-0.3170775412391741,0.041372779485223075,21.0420445075035,-12.139140750485664,-106.24292942041858,5,0.11,1.6596156358718872,15.28,0.11,0,0,1,0,1,0
1767893757.4276636,20260108133557.427627,18.189011145428015,-64.95625316852549,0.44648800245499753,0.5467809930715942,-0.709316631119894,-0.283830789057009,0.04098558197565091,22.550709183651204,-14.888646336829662,-108.88262821475843,5,0.1,1.8213413953781128,15.28,0.1,0,0,1,0,1,0
1767893757.5468292,20260108133557.546793,18.189010890153575,-64.95625384003111,0.44648800245499753,0.5467809930715942,-0.709316631119894,-0.283830789057009,0.04098558197565091,22.550709183651204,-14.888646336829662,-108.88262821475843,5,0.1,0.3129817843437195,15.28,0.1,0,0,1,0,1,0
1767893757.635183,20260108133557.635146,18.189010593101067,-64.95625467292011,0.4555525172088457,0.5467809930715942,-0.8798443600482331,-0.3303038526338628,0.04091663386700813,23.814053867661947,-16.27324570498467,-110.5767616214929,3,-1.0,0.3129817843437195,15.28,0.5467809930715942,0,0,1,0,1,0
1767893757.7370894,20260108133557.737053,18.189010275562207,-64.95625547844985,0.4555525172088457,0.5467809930715942,-0.8510199784039862,-0.35311546160392965,0.04091663386700813,25.204882370567308,-17.422411783361436,-112.5351688020883,3,-1.0,0.3129817843437195,15.33,0.5467809930715942,0,0,1,0,1,0
1767893757.829193,20260108133557.829156,18.189009921642604,-64.95625624910342,0.5026640311969016,0.5467809930715942,-0.813902290868019,-0.39344077763982666,0.1081467100569696,28.91886736164093,-19.2122703255415,-115.7991875999389,3,-1.0,0.3129817843437195,15.33,0.5467809930715942,0,0,1,0,1,0
1767893757.9717464,20260108133557.971710,18.189009579885564,-64.95625699327324,0.5026640311969016,0.5467809930715942,-0.7862922355884768,-0.3800940630012961,0.1081467100569696,28.91886736164093,-19.2122703255415,-115.7991875999389,3,-1.0,0.3129817843437195,15.33,0.5467809930715942,0,0,1,0,1,0
1767893758.0541677,20260108133558.054131,18.189009227373326,-64.9562577283317,0.5394241923363394,0.5467809930715942,-0.7764305636778632,-0.3919373146445246,0.15175848436345882,30.42099725196361,-19.755374719136952,-116.78440175885538,3,-1.0,0.3129817843437195,15.33,0.5467809930715942,0,0,1,0,1,0
1767893758.131779,20260108133558.131742,18.18900887475368,-64.95625844934504,0.5394241923363394,0.5467809930715942,-0.7616755238844869,-0.3920982361394838,0.15175848436345882,31.241555981683724,-20.06446308771373,-117.23871878413537,3,-1.0,0.3129817843437195,15.33,0.5467809930715942,0,0,1,0,1,0
1767893758.229212,20260108133558.229175,18.189008522597263,-64.95625916894144,0.5973237252317123,0.5467809930715942,-0.7537650541332594,-0.38827934078707343,0.20714732251648896,31.74773123677968,-20.131805361914633,-117.25393645104745,3,-1.0,0.3129817843437195,15.33,0.5467809930715942,0,0,1,0,1,0
1767893758.3883007,20260108133558.388264,18.189008183900903,-64.95625987542192,0.5973237252317123,0.5467809930715942,-0.7526592508406301,-0.37981352853835926,0.20714732251648896,31.81684253060817,-20.063561502420914,-116.77686805750707,3,-1.0,0.3129817843437195,15.39,0.5467809930715942,0,0,1,0,1,0
1767893758.4329875,20260108133558.432951,18.189007872279255,-64.9562606047286,0.6671699939527599,0.5467809930715942,-0.7685223048190412,-0.3456491980765819,0.25307174535981614,30.287962194836126,-19.85749291393161,-114.21626337303499,3,-1.0,1.5748785734176636,15.39,0.5467809930715942,0,0,1,0,1,0
1767893758.527353,20260108133558.527316,18.18900755599082,-64.95626134495723,0.6671699939527599,0.5467809930715942,-0.7840184978791764,-0.35261873776448577,0.25307174535981614,30.287962194836126,-19.85749291393161,-114.21626337303499,3,-1.0,1.7151373624801636,15.39,0.5467809930715942,0,0,1,0,1,0
1767893758.6343422,20260108133558.634306,18.18900726339583,-64.95626209378563,0.715237446273824,0.5467809930715942,-0.7910117895937027,-0.325333785808479,0.2984632527379167,28.6993928145647,-19.54498432690502,-112.35682566890101,3,-1.0,1.7151373624801636,15.39,0.5467809930715942,0,0,1,0,1,0
1767893758.7296073,20260108133558.729571,18.18900699271012,-64.95626286288298,0.715237446273824,0.5467809930715942,-0.8124905870827064,-0.30099823331931486,0.2984632527379167,26.75223837465048,-18.986293436050424,-110.32787626933435,3,-1.0,1.7151373624801636,15.39,0.5467809930715942,0,0,1,0,1,0
1767893758.8394303,20260108133558.839394,18.18900675999153,-64.95626370269729,0.7656169672394117,0.5467809930715942,-0.8439667434735665,-0.2461697673589181,0.31600133105099604,23.837869038265932,-17.612928025549657,-106.26104357957223,3,-1.0,2.03691029548645,15.39,0.5467809930715942,0,0,1,0,1,0
1767893758.9399664,20260108133558.939930,18.189006543289235,-64.95626448471334,0.7656169672394117,0.5467809930715942,-0.8706290281425424,-0.25394667144308314,0.31600133105099604,23.837869038265932,-17.612928025549657,-106.26104357957223,3,-1.0,2.03691029548645,15.56,0.5467809930715942,0,0,1,0,1,0
1767893759.027423,20260108133559.027386,18.189006367455804,-64.95626531994476,0.7981883687673494,0.5467809930715942,-0.8824445995886753,-0.19554357918088547,0.2685456370008184,22.39540770186781,-16.66427075968981,-102.49448660365918,3,-1.0,2.6504082679748535,15.56,0.5467809930715942,0,0,1,0,1,0
1767893759.1282802,20260108133559.128243,18.189006187236398,-64.95626617601012,0.7981883687673494,0.5467809930715942,-0.9041344567638883,-0.20034990051362445,0.2685456370008184,22.39540770186781,-16.66427075968981,-102.49448660365918,3,-1.0,2.6504082679748535,15.56,0.5467809930715942,0,0,1,0,1,0
1767893759.2327032,20260108133559.232667,18.18900603203625,-64.95626703456959,0.8452776040574468,0.5467809930715942,-0.9071461469225134,-0.17260779842796278,0.3081179624102689,22.077530584233994,-16.313369665610796,-100.77324416641572,3,-1.0,2.6504082679748535,15.56,0.5467809930715942,0,0,1,0,1,0
1767893759.3278766,20260108133559.327840,18.189005899058966,-64.95626790497762,0.8452776040574468,0.5467809930715942,-0.9193912411432522,-0.14784827904077416,0.3081179624102689,21.757295342946044,-16.08983456962109,-99.13561693488936,3,47.69,2.6504082679748535,15.56,0.5467809930715942,0,0,1,0,1,0
1767893759.4386823,20260108133559.438646,18.189005789007627,-64.95626878499822,0.9036290745420127,0.5467809930715942,-0.929853924400431,-0.12239916191936892,0.31972577030586435,21.590372290134425,-15.949149697887908,-97.49891860942222,3,47.69,2.6504082679748535,15.56,0.5467809930715942,0,0,1,0,1,0
1767893759.5277479,20260108133559.527711,18.189005701080497,-64.9562696739487,0.9036290745420127,0.5467809930715942,-0.938936506539151,-0.09775582364376716,0.31972577030586435,21.422629614329328,-15.81986441595555,-95.94387522467949,3,47.69,3.4859018325805664,15.28,0.5467809930715942,0,0,1,0,1,0
1767893759.6290705,20260108133559.629034,18.189005635296393,-64.95627057007482,0.9669150563314886,0.5467809930715942,-0.9466000468704031,-0.07314406747523912,0.29574629361480115,21.179372340059277,-15.658741903370622,-94.41851585268358,3,47.69,3.4859018325805664,15.28,0.5467809930715942,0,0,1,0,1,0
1767893759.8349292,20260108133559.834893,18.189005591144603,-64.95627147241078,0.9669150563314886,0.5467809930715942,-0.9532191964535706,-0.0490945264860845,0.29574629361480115,21.0902400470674,-15.561901739144334,-92.94838541006426,3,47.69,2.917001485824585,15.28,0.5467809930715942,0,0,1,0,1,0
1767893759.836368,20260108133559.836331,18.18900556759628,-64.9562723797556,1.0098982401137777,0.5467809930715942,-0.9585241013948603,-0.026184821512002125,0.3223059008259397,21.17800971683263,-15.494388710153109,-91.56484130651334,3,47.69,2.917001485824585,15.28,0.5467809930715942,0,0,1,0,1,0
1767893760.011872,20260108133600.011835,18.18900556759628,-64.9562723797556,1.0098982401137777,0.5467809930715942,-0.0,0.0,0.3223059008259397,21.50912203826308,-15.303474609303484,-88.94635757831911,3,47.69,2.917001485824585,15.28,0.5467809930715942,0,0,1,0,1,0
1767893760.0321708,20260108133600.032134,18.18900556759628,-64.9562723797556,1.0214936822066352,0.5467809930715942,-0.0,0.0,0.21528306397358862,21.50912203826308,-15.303474609303484,-88.94635757831911,3,42.98,2.917001485824585,15.28,0.5467809930715942,0,0,1,0,1,0
1767893760.1344993,20260108133600.134463,18.18900556759628,-64.9562723797556,1.0214936822066352,0.5467809930715942,-0.0,0.0,0.21528306397358862,19.28622764031886,-16.00126918253303,-87.96206549527027,3,42.98,2.4366915225982666,15.03,0.5467809930715942,0,0,1,0,1,0
1767893760.2287447,20260108133600.228708,18.18900556759628,-64.9562723797556,1.034482731639676,0.5467809930715942,-0.0,0.0,0.1744882613050771,19.28622764031886,-16.00126918253303,-87.96206549527027,3,42.98,2.4366915225982666,15.03,0.5467809930715942,0,0,1,0,1,0
1767893760.3282337,20260108133600.328197,18.18900556759628,-64.9562723797556,1.034482731639676,0.5467809930715942,-0.0,0.0,0.1744882613050771,17.134780461734525,-16.752352910721314,-87.8644483967481,3,42.98,2.4366915225982666,15.03,0.5467809930715942,0,0,1,0,1,0
1767893760.4408216,20260108133600.440785,18.18900556759628,-64.9562723797556,1.0564827316396763,0.5467809930715942,-0.0,0.0,0.16202413697125492,13.394104789388171,-16.93473780979514,-87.4807210606711,3,42.98,2.9472339153289795,15.03,0.5467809930715942,0,0,1,0,1,0
1767893760.528874,20260108133600.528837,18.18900556759628,-64.9562723797556,1.0564827316396763,0.5467809930715942,-0.0,0.0,0.16202413697125492,10.337417311701167,-16.50674263544083,-86.65624863115715,3,42.98,2.9472339153289795,15.03,0.5467809930715942,0,0,1,0,1,0
1767893760.6340709,20260108133600.634034,18.18900556759628,-64.9562723797556,1.1269479331104197,0.5467809930715942,-0.0,0.0,0.12769239650283856,6.054865399588635,-14.408883432698255,-84.40953223241736,3,42.11,1.4572627544403076,15.03,0.5467809930715942,0,0,1,0,1,0
1767893760.7598913,20260108133600.759855,18.18900556759628,-64.9562723797556,1.1269479331104197,0.5467809930715942,-0.0,0.0,0.12769239650283856,6.054865399588635,-14.408883432698255,-84.40953223241736,3,42.11,1.4572627544403076,15.72,0.5467809930715942,0,0,1,0,1,0
1767893760.8306577,20260108133600.830621,18.18900556759628,-64.9562723797556,1.126430231716444,0.5467809930715942,-0.0,0.0,0.1168807847046245,5.010301998205474,-12.982600258907683,-82.91804378062655,3,42.11,1.4572627544403076,15.72,0.5467809930715942,0,0,1,0,1,0
1767893760.92761,20260108133600.927573,18.18900556759628,-64.9562723797556,1.126430231716444,0.5467809930715942,-0.0,0.0,0.1168807847046245,4.602763674616802,-11.43839980334938,-81.23649158684181,3,42.11,1.4572627544403076,15.72,0.5467809930715942,0,0,1,0,1,0
1767893761.04971,20260108133601.049673,18.18900556759628,-64.9562723797556,1.1646350095343998,0.5467809930715942,-0.0,0.0,0.11981915772152714,4.271092131248105,-8.031828076359636,-77.71605373548438,3,42.11,1.4572627544403076,15.72,0.5467809930715942,0,0,1,0,1,0
1767893761.1362553,20260108133601.136219,18.18900556759628,-64.9562723797556,1.1646350095343998,0.5467809930715942,-0.0,0.0,0.11981915772152714,4.271092131248105,-8.031828076359636,-77.71605373548438,3,42.11,1.0250743627548218,15.72,0.5467809930715942,0,0,1,0,1,0
1767893761.2367306,20260108133601.236694,18.189005583754852,-64.95627281647697,1.171512472129757,0.5467809930715942,-0.4481967280660541,0.017455456192364854,0.10593962088866017,4.269414465433351,-6.221502011239536,-75.93368791350295,5,39.4,2.240194320678711,15.72,39.4,0,0,1,0,1,0
1767893761.3278728,20260108133601.327836,18.189005609977396,-64.9562732073921,1.171512472129757,0.5467809930715942,-0.4474225779383874,0.031591719658284,0.10593962088866017,4.423014802618313,-4.385423135532445,-74.12514879726338,5,39.4,2.240194320678711,15.64,39.4,0,0,1,0,1,0
1767893761.450218,20260108133601.450181,18.189005666511537,-64.95627363655112,1.2084092180662884,0.5467809930715942,-0.444285720010816,0.06160518642509541,0.07902923094288386,5.200725179032971,-0.6079646401975356,-70.26963540579249,5,39.4,3.1161959171295166,15.64,39.4,0,0,1,0,1,0
1767893761.5399013,20260108133601.539865,18.189005726751052,-64.95627409383823,1.2084092180662884,0.5467809930715942,-0.444285720010816,0.06160518642509541,0.07902923094288386,5.200725179032971,-0.6079646401975356,-70.26963540579249,5,39.4,3.2319908142089844,15.64,39.4,0,0,1,0,1,0
1767893761.6282434,20260108133601.628207,18.18900578876957,-64.95627446706803,1.2171191284232643,0.5467809930715942,-0.44182909842820445,0.0772790254992907,0.07916542489772155,5.418198479966809,1.2623197283819259,-68.24291947888304,5,39.4,3.2319908142089844,15.64,39.4,0,0,1,0,1,0
1767893761.7495406,20260108133601.749504,18.18900589527298,-64.95627491673255,1.2171191284232643,0.5467809930715942,-0.4352150520029523,0.10850280415762313,0.07916542489772155,5.398036608101417,4.503795478816324,-64.16504919947555,5,39.4,2.117187023162842,15.64,39.4,0,0,1,0,1,0
1767893761.8465505,20260108133601.846514,18.189005978518964,-64.9562754985931,1.2383646879020802,0.5467809930715942,-0.5695475936036791,0.08577026652785044,0.09406151241403368,5.398036608101417,4.503795478816324,-64.16504919947555,5,37.11,2.117187023162842,15.64,37.11,0,0,1,0,1,0
1767893761.9352422,20260108133601.935205,18.18900605691061,-64.95627594317959,1.2383646879020802,0.5467809930715942,-0.5662985484404621,0.10510449102786018,0.09406151241403368,5.264280111984895,5.744982167462997,-62.21467432421614,5,37.11,2.117187023162842,15.7,37.11,0,0,1,0,1,0
1767893762.039597,20260108133602.039560,18.18900619671075,-64.95627653011637,1.260683061754058,0.5467809930715942,-0.5586786312133041,0.14006850832942075,0.09630016124881415,4.770287357403324,7.262995241492982,-58.654341323651565,5,37.11,3.1006383895874023,15.7,37.11,0,0,1,0,1,0
1767893762.158571,20260108133602.158534,18.189006317815537,-64.95627703856262,1.260683061754058,0.5467809930715942,-0.5586786312133041,0.14006850832942075,0.09630016124881415,4.770287357403324,7.262995241492982,-58.654341323651565,5,37.11,2.235466957092285,15.7,37.11,0,0,1,0,1,0
1767893762.2493653,20260108133602.249329,18.189006464601757,-64.95627758734437,1.2940866397167268,0.5467809930715942,-0.5544150515061257,0.15609276300796285,0.15176087015544665,4.65399736878722,7.512136725836988,-57.0047783322828,5,37.11,1.6917436122894287,15.7,37.11,0,0,1,0,1,0
1767893762.3384264,20260108133602.338390,18.189006601121857,-64.95627804686546,1.2940866397167268,0.5467809930715942,-0.5497172945401062,0.17190664932894892,0.15176087015544665,4.656907457301007,7.434688329371805,-55.36365745774673,5,37.11,1.6917436122894287,15.7,37.11,0,0,1,0,1,0
1767893762.466139,20260108133602.466102,18.18900680119423,-64.95627860210793,1.3098912209412419,0.5467809930715942,-0.5385345618221665,0.2042584777261575,0.14494720515122927,4.483853026856469,6.584883999828989,-51.95805220287015,5,37.11,2.646696090698242,15.7,37.11,0,0,1,0,1,0
1767893762.5280004,20260108133602.527964,18.189006885246933,-64.95627901461226,1.3098912209412419,0.5467809930715942,-0.4784012608647628,0.10260718104989108,0.14494720515122927,4.483853026856469,6.584883999828989,-51.95805220287015,5,36.85,2.646696090698242,15.5,36.85,0,0,1,0,1,0
1767893762.6298065,20260108133602.629770,18.189007005359652,-64.95627946016718,1.3518408676597282,0.5467809930715942,-0.470697820491143,0.1335648224080268,0.1748514981535209,3.9491809316933013,5.299310030329221,-48.22163686254191,5,36.85,2.8760087490081787,15.5,36.85,0,0,1,0,1,0
1767893762.7391524,20260108133602.739116,18.189007134839624,-64.9562799404697,1.3518408676597282,0.5467809930715942,-0.470697820491143,0.1335648224080268,0.1748514981535209,3.9491809316933013,5.299310030329221,-48.22163686254191,5,36.85,3.002487897872925,15.5,36.85,0,0,1,0,1,0
1767893762.8274138,20260108133602.827377,18.189007259096545,-64.95628034712932,1.3958574192954647,0.5467809930715942,-0.4657827378028063,0.1498080143547807,0.21659526816407731,3.5682528211824462,4.6308097220376085,-46.23425259403156,5,36.85,3.002487897872925,15.5,36.85,0,0,1,0,1,0
1767893762.9388788,20260108133602.938842,18.189007438680473,-64.95628081506344,1.3958574192954647,0.5467809930715942,-0.4536630284236763,0.18326444456429272,0.21659526816407731,2.5894692876688996,3.303933797302092,-42.06637746465375,5,36.85,2.633784294128418,15.5,36.85,0,0,1,0,1,0
1767893763.0730004,20260108133603.072964,18.189007606850524,-64.9562812532569,1.457866533505766,0.5467809930715942,-0.4536630284236763,0.18326444456429272,0.21693040800556598,2.5894692876688996,3.303933797302092,-42.06637746465375,5,36.85,2.5366122722625732,15.5,36.85,0,0,1,0,1,0
1767893763.160843,20260108133603.160806,18.189007635298285,-64.95628144073538,1.457866533505766,0.5467809930715942,-0.22257629328072576,0.03554987580023809,0.21693040800556598,2.1100587787359824,2.6690087899848787,-39.88293596100976,5,36.46,4.2905964851379395,15.67,36.46,0,0,1,0,1,0
1767893763.2276158,20260108133603.227579,18.189007675102836,-64.9562816499395,1.4888665335057647,0.5467809930715942,-0.22100870275506262,0.04426232378134218,0.24261971885294997,1.6658913114700329,2.08763995542973,-37.632532966347206,5,36.46,4.2905964851379395,15.67,36.46,0,0,1,0,1,0
1767893763.3344696,20260108133603.334433,18.189007722905902,-64.95628185728826,1.4888665335057647,0.5467809930715942,-0.2190401703695718,0.05315452722458314,0.24261971885294997,1.2366330852761729,1.573899622792748,-35.31726022684742,5,36.46,4.2027506828308105,15.67,36.46,0,0,1,0,1,0
1767893763.4282703,20260108133603.428234,18.189007778853977,-64.95628206236314,1.5633961705120276,0.5467809930715942,-0.21664168228543484,0.06221239021719625,0.306791910705452,0.7579229377878696,1.1193053344219899,-32.93523421161995,5,36.46,4.2027506828308105,15.67,36.46,0,0,1,0,1,0
1767893763.5340612,20260108133603.534025,18.189007855906578,-64.95628227354572,1.5633961705120276,0.5467809930715942,-0.21041330933866842,0.0808098957625231,0.306791910705452,-0.40760526480257026,0.47064401135947387,-27.94811943327708,5,36.46,2.666318893432617,15.67,36.46,0,0,1,0,1,0
1767893763.6340237,20260108133603.633987,18.189007924292095,-64.95628246097388,1.6001779258045854,0.5467809930715942,-0.21041330933866842,0.0808098957625231,0.2971717229684613,-0.40760526480257026,0.47064401135947387,-27.94811943327708,5,36.46,2.666318893432617,15.67,36.46,0,0,1,0,1,0
1767893763.7363765,20260108133603.736340,18.189007910041177,-64.95628254875105,1.6001779258045854,0.5467809930715942,-0.08703324000581716,-0.01487330272971768,0.2971717229684613,-1.7237173144854747,0.2974301386294875,-22.789623194547758,5,36.36,3.1120879650115967,15.75,36.36,0,0,1,0,1,0
1767893763.8527741,20260108133603.852737,18.189007895552333,-64.95628263799374,1.6357125518553348,0.5467809930715942,-0.08703324000581716,-0.01487330272971768,0.2558629835376877,-1.7237173144854747,0.2974301386294875,-22.789623194547758,5,36.36,3.1120879650115967,15.75,36.36,0,0,1,0,1,0
1767893763.931382,20260108133603.931345,18.1890078871947,-64.95628270849336,1.6357125518553348,0.5467809930715942,-0.08761546664829004,-0.010932977819531793,0.2558629835376877,-2.3113131493561103,0.41757150154095046,-20.2047111387886,5,36.36,3.1120879650115967,15.75,36.36,0,0,1,0,1,0
1767893764.0547934,20260108133604.054757,18.189007884369143,-64.95628279225417,1.6850596253157362,0.5467809930715942,-0.08823935209401793,-0.0031331680497435344,0.24853474767549436,-3.42508453446777,0.97916517046988,-15.125480020771551,5,36.36,3.1120879650115967,15.75,36.36,0,0,1,0,1,0
1767893764.1272476,20260108133604.127211,18.189007881559142,-64.95628287555402,1.6850596253157362,0.5467809930715942,-0.08823935209401793,-0.0031331680497435344,0.24853474767549436,-3.42508453446777,0.97916517046988,-15.125480020771551,5,36.36,3.1120879650115967,15.75,36.36,0,0,1,0,1,0
1767893764.2403967,20260108133604.240360,18.18900788223332,-64.95628296486812,1.7421065128755429,0.5467809930715942,-0.08829217315165593,0.0007015412732031094,0.29329713763342413,-3.888336304150535,1.3516370768778025,-12.636653286343815,5,36.36,3.1120879650115967,15.75,36.36,0,0,1,0,1,0
1767893764.3532913,20260108133604.353255,18.189007886594702,-64.95628305588076,1.7421065128755429,0.5467809930715942,-0.08818284860301759,0.0044480571328704335,0.29329713763342413,-4.289773132194594,1.7071598627999434,-10.204270721790943,5,36.36,4.017076015472412,15.72,36.36,0,0,1,0,1,0
1767893764.4270384,20260108133604.427002,18.189007893146147,-64.95628308174558,1.7704872867535224,0.5467809930715942,-0.03248083550274064,0.00865998412492211,0.26148706858456333,-4.572089710973218,2.0318848878555014,-7.822150896982106,5,36.27,4.017076015472412,15.72,36.27,0,0,1,0,1,0
1767893764.5366368,20260108133604.536600,18.1890079039701,-64.95628311375778,1.7704872867535224,0.5467809930715942,-0.03166951022802891,0.011271296372501786,0.26148706858456333,-4.854938617810621,2.555253869674357,-3.16014427475557,5,36.27,3.781688928604126,15.72,36.27,0,0,1,0,1,0
1767893764.636324,20260108133604.636287,18.189007914218717,-64.9562831440684,1.7917034780985486,0.5467809930715942,-0.03166951022802891,0.011271296372501786,0.24503887220809858,-4.854938617810621,2.555253869674357,-3.16014427475557,5,36.27,4.064441680908203,15.72,36.27,0,0,1,0,1,0
1767893764.7548134,20260108133604.754777,18.18900792594863,-64.95628317481209,1.7917034780985486,0.5467809930715942,-0.031193870239112638,0.012527667760018337,0.24503887220809858,-4.916549080587937,2.7246895792253323,-0.8702508197389569,5,36.27,4.064441680908203,15.72,36.27,0,0,1,0,1,0
1767893764.8361187,20260108133604.836082,18.18900793683093,-64.95628320036633,1.8410295248231179,0.5467809930715942,-0.03067473395349702,0.013749934431922836,0.26305410296273235,-5.002850686043515,2.8233158385582287,1.3933088315166506,5,36.27,4.064441680908203,15.72,36.27,0,0,1,0,1,0
1767893764.9481146,20260108133604.948078,18.189007952755663,-64.95628323101695,1.8410295248231179,0.5467809930715942,-0.0294931399785411,0.016129311647004055,0.26305410296273235,-4.977130318866684,2.799878462927791,5.922547200975565,5,36.27,4.325170516967773,15.67,36.27,0,0,1,0,1,0
1767893765.0432303,20260108133605.043194,18.18900795001988,-64.95628326974044,1.8833121511206639,0.5467809930715942,-0.03951411692782291,-0.00293846276381701,0.25313566654216185,-4.977130318866684,2.799878462927791,5.922547200975565,5,35.96,2.1047656536102295,15.67,35.96,0,0,1,0,1,0
1767893765.1395671,20260108133605.139530,18.18900794882211,-64.9562833064854,1.8833121511206639,0.5467809930715942,-0.03959992307779029,-0.0013587097677914568,0.25313566654216185,-4.856499743480995,2.690012269522997,8.210413796631231,5,35.96,2.407578706741333,15.67,35.96,0,0,1,0,1,0
1767893765.2363124,20260108133605.236276,18.189007949030618,-64.95628333973836,1.9493121511206646,0.5467809930715942,-0.039622362492000414,0.0002615158743148778,0.22328895807357313,-4.756060495162024,2.554920257502798,10.553673246262232,5,35.96,2.407578706741333,15.67,35.96,0,0,1,0,1,0
1767893765.3382204,20260108133605.338184,18.189007952540482,-64.95628338001815,1.9493121511206646,0.5467809930715942,-0.039457601747053955,0.0036190695449085514,0.22328895807357313,-4.906554802711321,2.2522518421545663,15.416049088964622,5,35.96,3.1901302337646484,15.67,35.96,0,0,1,0,1,0
1767893765.4486473,20260108133605.448611,18.189007955760648,-64.95628341697332,1.9791473459490232,0.5467809930715942,-0.039457601747053955,0.0036190695449085514,0.20889875267353517,-4.906554802711321,2.2522518421545663,15.416049088964622,5,35.96,3.095604419708252,15.67,35.96,0,0,1,0,1,0
1767893765.5409758,20260108133605.540939,18.18900796074423,-64.95628345546335,1.9791473459490232,0.5467809930715942,-0.03926028762036862,0.005350683691448278,0.20889875267353517,-5.014135870134843,2.0895848524913214,17.936396624074142,5,35.96,3.095604419708252,15.75,35.96,0,0,1,0,1,0
1767893765.6416569,20260108133605.641620,18.18900790514628,-64.95628346373586,2.027147345949023,0.5467809930715942,-0.009746465992571866,-0.06894930311943435,0.23266979812186894,-5.069505245326473,1.9356812121100755,20.485420718667648,5,36.17,3.095604419708252,15.75,36.17,0,0,1,0,1,0
1767893765.7436175,20260108133605.743581,18.189007833976227,-64.95628347780178,2.027147345949023,0.5467809930715942,-0.012850261256553058,-0.06843881052179628,0.23266979812186894,-5.110584579004359,1.7825542925812352,23.073769641468672,5,36.17,3.095604419708252,15.75,36.17,0,0,1,0,1,0
1767893765.8522263,20260108133605.852190,18.18900776756904,-64.95628349421848,2.0664237142593955,0.5467809930715942,-0.0159212298645479,-0.06779022377600054,0.22702958585215632,-5.108712679615628,1.6043567278526771,25.656534882626673,5,36.17,3.095604419708252,15.75,36.17,0,0,1,0,1,0
1767893765.962323,20260108133605.962286,18.189007705986512,-64.95628351255343,2.0664237142593955,0.5467809930715942,-0.018952822873385143,-0.06700589903232468,0.22702958585215632,-5.0403877115965035,1.3932570629105026,28.233289555165896,5,36.17,3.4671342372894287,15.75,36.17,0,0,1,0,1,0
1767893766.0316765,20260108133606.031640,18.189007662460284,-64.95628352777435,2.115670057273538,0.5467809930715942,-0.021954341307153912,-0.06608333298017735,0.20328950978132884,-4.908699055990588,1.143511106608812,30.817198853418997,5,36.17,3.4671342372894287,15.75,36.17,0,0,1,0,1,0
