timestamp_ros,timestamp_sys (%Y%m%d%H%M%S.%f),latitude,longitude,depth,distance_to_ocean_floor,velX,velY,velZ,roll,pitch,yaw,navMode,acousticAltimeter,forwardStereo,battery_volts,altitudeUsed,cotsNumFound,cotsNumMaybe,missionState,errorState,storeData,storeImageData
1767802569.7023175,20260107121609.702278,18.340568333333334,-64.97714316666666,0.0789916007037902,5.131750882794092,-0.012062168742574009,0.16624153045764248,0.13472213995053753,1.2386391338970462,-11.645113844946021,100.58224389818874,1,2.41,1.9027915000915527,16.51,2.41,0,0,1,0,1,0
1767802569.7926142,20260107121609.792575,18.340568333333334,-64.97714316666666,0.10711526954776435,5.131750882794092,-0.012062168742574009,0.16624153045764248,0.1565338778717703,1.6546987618524498,-12.510238721162068,98.94887187603678,1,2.41,1.9027915000915527,16.51,2.41,0,0,1,0,1,0
1767802569.8581176,20260107121609.858078,18.340568333333334,-64.97714316666666,0.10711526954776435,5.131750882794092,-0.012062168742574009,0.16624153045764248,0.12522710229741624,2.0763857206441405,-13.336434920284145,97.38301629797186,1,2.43,1.9027915000915527,16.51,2.43,0,0,1,0,1,0
1767802569.9930756,20260107121609.993036,18.340568333333334,-64.97714316666666,0.10711526954776435,5.131750882794092,-0.012062168742574009,0.16624153045764248,0.12522710229741624,3.3509310651250126,-14.495806158703555,93.94512814243998,1,2.43,3.497358798980713,16.42,2.43,0,0,1,0,1,0
1767802570.1262631,20260107121610.126224,18.340568333333334,-64.97714316666666,0.10711526954776435,5.131750882794092,-0.012062168742574009,0.16624153045764248,0.12522710229741624,3.3509310651250126,-14.495806158703555,93.94512814243998,1,2.47,3.497358798980713,16.42,2.47,0,0,1,0,1,0
1767802570.1975315,20260107121610.197492,18.34056766666667,-64.97714233333333,0.12111894045408542,5.131750882794092,0.0,0.08436816000000001,0.11279417046571563,3.8657638015329776,-14.478170603960747,92.0084341409799,1,2.47,2.4857170581817627,16.42,2.47,0,0,1,0,1,0
1767802570.3121128,20260107121610.312073,18.34056766666667,-64.97714233333333,0.12098561522335008,5.131750882794092,0.0,0.08436816000000001,0.09000305629641345,3.8704898672416768,-13.883528999555098,89.971985191023,1,2.47,3.270937442779541,16.42,2.47,0,0,1,0,1,0
1767802570.3635514,20260107121610.363512,18.34056766666667,-64.97714233333333,0.12098561522335008,5.131750882794092,0.0,0.08436816000000001,0.09000305629641345,3.2535203664556094,-12.937664428290715,87.8810244818088,1,2.47,3.270937442779541,16.42,2.47,0,0,1,0,1,0
1767802570.473687,20260107121610.473648,18.34056766666667,-64.97714233333333,0.12098561522335008,5.131750882794092,0.0,0.08436816000000001,0.09000305629641345,2.2666165888890557,-11.524144321301574,83.51655253215996,1,2.45,3.158292293548584,16.42,2.45,0,0,1,0,1,0
1767802570.586679,20260107121610.586640,18.34056766666667,-64.97714233333333,0.14574760688471422,5.131750882794092,0.0,0.08436816000000001,0.034651817180442517,2.2666165888890557,-11.524144321301574,83.51655253215996,1,2.45,2.700864315032959,16.42,2.45,0,0,1,0,1,0
1767802570.7269979,20260107121610.726958,18.340567333333336,-64.97714233333333,0.15428453378454346,5.131750882794092,0.0,0.037554119999999996,0.04289691433242235,2.373819647895537,-11.021579676246638,81.08669820572106,1,2.44,2.2460126876831055,16.42,2.44,0,0,1,0,1,0
1767802570.8186328,20260107121610.818593,18.340567333333336,-64.97714233333333,0.15428453378454346,5.131750882794092,0.0,0.037554119999999996,0.04289691433242235,2.5791081004366223,-10.361402383321515,78.40786973463263,1,2.44,2.2460126876831055,16.42,2.44,0,0,1,0,1,0
1767802570.870994,20260107121610.870955,18.340567333333336,-64.97714233333333,0.15428453378454346,5.131750882794092,0.0,0.037554119999999996,0.04289691433242235,2.3854467684544547,-8.506058525285116,71.82805928651062,1,2.41,3.140346050262451,16.42,2.41,0,0,1,0,1,0
1767802571.0083241,20260107121611.008285,18.340567333333336,-64.97714233333333,0.12080987111048369,5.131750882794092,0.0,0.037554119999999996,0.012686522623534747,2.3854467684544547,-8.506058525285116,71.82805928651062,1,2.41,2.8872039318084717,16.42,2.41,0,0,1,0,1,0
1767802571.094103,20260107121611.094064,18.340567333333336,-64.97714233333333,0.11180987111048335,5.131750882794092,0.0,0.037554119999999996,-0.006614714300615434,1.895999292947344,-7.730342564821234,68.6861506543037,1,2.41,2.8753905296325684,16.42,2.41,0,0,1,0,1,0
1767802571.1719317,20260107121611.171892,18.340567333333336,-64.97714216666667,0.11180987111048335,5.131750882794092,0.0,0.05247288,-0.006614714300615434,1.0610005776632487,-7.084207292076937,65.07748038769928,1,2.41,2.8753905296325684,16.34,2.41,0,0,1,0,1,0
1767802571.271727,20260107121611.271688,18.340567333333336,-64.97714216666667,0.11180987111048335,5.131750882794092,0.0,0.05247288,-0.006614714300615434,-1.6875621220730326,-6.5049007485017105,57.81737602480616,1,2.39,2.8753905296325684,16.34,2.39,0,0,1,0,1,0
1767802571.3827214,20260107121611.382682,18.340567333333336,-64.97714216666667,0.08009703773663279,5.131750882794092,0.0,0.05247288,-0.05811310780833169,-1.6875621220730326,-6.5049007485017105,57.81737602480616,1,2.39,3.6348705291748047,16.34,2.39,0,0,1,0,1,0
1767802571.4921832,20260107121611.492144,18.340567333333336,-64.97714216666667,0.08010920024679948,5.131750882794092,0.0,0.05247288,-0.07706754767929519,-2.773423209822188,-6.266435280534619,54.16355819164481,1,2.38,3.6348705291748047,16.34,2.38,0,0,1,0,1,0
1767802571.5638883,20260107121611.563849,18.340567333333336,-64.97714216666667,0.08010920024679948,5.131750882794092,0.0,0.05247288,-0.07706754767929519,-2.8599459427312115,-5.751099457825715,50.29455517173972,1,2.38,3.6348705291748047,16.34,2.38,0,0,1,0,1,0
1767802571.691023,20260107121611.690984,18.340567166666666,-64.97714133333334,0.08010920024679948,5.131750882794092,0.0,0.07047828,-0.07706754767929519,-0.8874427407525592,-3.7582740879222696,41.72906483221169,1,2.33,4.138646602630615,16.34,2.33,0,0,1,0,1,0
1767802571.7842803,20260107121611.784241,18.340567166666666,-64.97714133333334,0.07089466791597647,5.131750882794092,0.0,0.07047828,-0.06041357206969756,-0.8874427407525592,-3.7582740879222696,41.72906483221169,1,2.33,4.138646602630615,16.2,2.33,0,0,1,0,1,0
1767802571.8968992,20260107121611.896860,18.340567166666666,-64.97714133333334,0.07089466791597647,5.131750882794092,0.0,0.07047828,-0.06041357206969756,0.0860063063900802,-3.0305814181275603,37.243657509876456,1,2.35,4.138646602630615,16.2,2.35,0,0,1,0,1,0
1767802571.9673502,20260107121611.967311,18.340567166666666,-64.97714133333334,0.07015077576640177,5.131750882794092,0.0,0.07047828,-0.04032869263952311,0.5357400596547753,-2.9635836417160872,32.718016943849264,1,2.34,4.138646602630615,16.2,2.34,0,0,1,0,1,0
1767802572.060094,20260107121612.060055,18.340567166666666,-64.97714133333334,0.07015077576640177,5.131750882794092,0.0,0.07047828,-0.04032869263952311,0.4058557485736781,-4.00960166046917,23.31532928353662,1,2.34,4.138646602630615,16.2,2.34,0,0,1,0,1,0
1767802572.198646,20260107121612.198607,18.340567166666666,-64.97714133333334,0.05563905342137038,5.131750882794092,0.0,0.07047828,-0.032847160010596885,0.4058557485736781,-4.00960166046917,23.31532928353662,1,2.34,4.138646602630615,16.2,2.34,0,0,1,0,1,0
1767802572.2584448,20260107121612.258405,18.340566833333334,-64.97714049999999,0.05563905342137038,5.131750882794092,0.11345489881149386,0.07083943432180757,-0.032847160010596885,0.3319763673498163,-4.097767481347915,18.385361864639485,1,2.31,4.138646602630615,16.2,2.31,0,0,1,0,1,0
1767802572.361819,20260107121612.361780,18.340566833333334,-64.97714049999999,0.05950622629080361,5.131750882794092,0.11345489881149386,0.07083943432180757,-0.029446821081677715,1.1861430282175405,-2.1036279398895763,8.76016875972266,1,2.31,4.138646602630615,16.25,2.31,0,0,1,0,1,0
1767802572.4582446,20260107121612.458205,18.340566833333334,-64.97714049999999,0.05950622629080361,5.131750882794092,0.11345489881149386,0.07083943432180757,-0.029446821081677715,1.1861430282175405,-2.1036279398895763,8.76016875972266,1,2.3,4.138646602630615,16.25,2.3,0,0,1,0,1,0
1767802572.5576494,20260107121612.557610,18.340566833333334,-64.97714049999999,0.01965614706511782,5.131750882794092,0.11345489881149386,0.07083943432180757,-0.09224324774800806,2.13188017371966,-0.9931440113782859,5.2172442100297785,1,2.3,4.138646602630615,16.25,2.3,0,0,1,0,1,0
1767802572.658918,20260107121612.658879,18.3405665,-64.97713983333333,0.01965614706511782,5.131750882794092,0.09183546457873286,0.06164109819567057,-0.09224324774800806,3.278744050636129,-0.08481609214078414,1.6327698972117284,1,2.3,4.138646602630615,16.25,2.3,0,0,1,0,1,0
1767802572.8047369,20260107121612.804697,18.3405665,-64.97713983333333,0.055907835434338284,5.131750882794092,0.09183546457873286,0.06164109819567057,-0.04616812678099469,4.183666105498359,0.3848696113189696,-1.6852150983411562,1,2.29,4.138646602630615,16.25,2.29,0,0,1,0,1,0
1767802572.8616343,20260107121612.861595,18.3405665,-64.97713983333333,0.055907835434338284,5.131750882794092,0.09183546457873286,0.06164109819567057,-0.04616812678099469,4.652772630053745,0.517906589437836,-4.835121031152071,1,2.29,4.138646602630615,16.25,2.29,0,0,1,0,1,0
1767802573.0175383,20260107121613.017499,18.3405665,-64.97713983333333,0.03723250891078929,5.131750882794092,0.09183546457873286,0.06164109819567057,-0.0641333547013877,5.0057650434270355,0.06172855038698821,-10.316946161082734,1,2.33,4.138646602630615,16.31,2.33,0,0,1,0,1,0
1767802573.0607622,20260107121613.060723,18.3405665,-64.97713983333333,0.03723250891078929,5.131750882794092,0.09183546457873286,0.06164109819567057,-0.0641333547013877,5.0057650434270355,0.06172855038698821,-10.316946161082734,1,2.33,4.138646602630615,16.31,2.33,0,0,1,0,1,0
1767802573.1587725,20260107121613.158733,18.3405665,-64.97713983333333,0.034454614101968366,5.131750882794092,0.09183546457873286,0.06164109819567057,-0.05113959458926648,5.761816028465316,-0.6218960432907562,-14.30607026676795,1,2.36,4.138646602630615,16.31,2.36,0,0,1,0,1,0
1767802573.2667422,20260107121613.266703,18.340567333333336,-64.97713900000001,0.034454614101968366,5.131750882794092,0.1317857179835912,0.1738101714989746,-0.05113959458926648,5.761816028465316,-0.6218960432907562,-14.30607026676795,1,2.36,4.138646602630615,16.31,2.36,0,0,1,0,1,0
1767802573.3584175,20260107121613.358378,18.340567333333336,-64.97713900000001,0.044188243557579776,5.131750882794092,0.1317857179835912,0.1738101714989746,-0.044230822618312245,6.246381411074089,-0.9063804074931886,-15.772051581426323,1,2.38,4.138646602630615,16.31,2.38,0,0,1,0,1,0
1767802573.4597251,20260107121613.459686,18.340567333333336,-64.97713900000001,0.044188243557579776,5.131750882794092,0.1317857179835912,0.1738101714989746,-0.044230822618312245,7.490831650650484,-0.7964736598256982,-17.56697641823474,1,2.38,1.0805994272232056,16.31,2.38,0,0,1,0,1,0
1767802573.5668004,20260107121613.566761,18.340567333333336,-64.97713900000001,0.03230135245929617,5.131750882794092,0.1317857179835912,0.1738101714989746,-0.029605796961201115,7.490831650650484,-0.7964736598256982,-17.56697641823474,1,2.4,1.9239914417266846,16.34,2.4,0,0,1,0,1,0
1767802573.6937602,20260107121613.693721,18.340567333333336,-64.97713900000001,0.03230135245929617,5.131750882794092,0.1317857179835912,0.1738101714989746,-0.029605796961201115,8.322518470054849,-0.4546112571280462,-17.839352933782685,1,2.4,1.9239914417266846,16.34,2.4,0,0,1,0,1,0
1767802573.7614467,20260107121613.761407,18.340569333333335,-64.9771395,0.03630135245929573,5.131750882794092,0.08396898894617294,0.18391277055268318,-0.019643757316942144,9.359950297620879,-0.09189003621619193,-17.623005760690916,1,2.38,1.0390876531600952,16.34,2.38,0,0,1,0,1,0
1767802573.8738883,20260107121613.873849,18.340569333333335,-64.9771395,0.03630135245929573,5.131750882794092,0.08396898894617294,0.18391277055268318,-0.019643757316942144,9.359950297620879,-0.09189003621619193,-17.623005760690916,1,2.38,1.1505080461502075,16.34,2.38,0,0,1,0,1,0
1767802573.9590917,20260107121613.959052,18.340569333333335,-64.9771395,0.009242057743898031,5.131750882794092,0.08396898894617294,0.18391277055268318,-0.031194109397082878,9.652962102690324,-0.2668588946644226,-17.30543770922755,1,2.43,1.1505080461502075,16.34,2.43,0,0,1,0,1,0
1767802574.058963,20260107121614.058924,18.340569333333335,-64.9771395,0.009242057743898031,5.131750882794092,0.08396898894617294,0.18391277055268318,-0.031194109397082878,10.184360401636347,-0.5375791421072552,-16.0654164220247,1,2.43,1.1505080461502075,16.34,2.43,0,0,1,0,1,0
1767802574.161297,20260107121614.161258,18.340569333333335,-64.9771395,0.03243794248467241,5.131750882794092,0.08396898894617294,0.18391277055268318,-0.001496028609537728,10.184360401636347,-0.5375791421072552,-16.0654164220247,1,2.4,1.1505080461502075,16.37,2.4,0,0,1,0,1,0
1767802574.2615335,20260107121614.261494,18.340571166666667,-64.97713983333333,0.03243794248467241,5.131750882794092,0.016188650735876397,0.263926137937146,-0.001496028609537728,11.16972226344644,-0.3386791065193702,-13.313444762982614,1,2.4,0.9945077300071716,16.37,2.4,0,0,1,0,1,0
1767802574.3647995,20260107121614.364760,18.340571166666667,-64.97713983333333,0.02879562763985996,5.131750882794092,0.016188650735876397,0.263926137937146,-0.014772369099039387,11.16972226344644,-0.3386791065193702,-13.313444762982614,1,2.41,1.9541511535644531,16.37,2.41,0,0,1,0,1,0
1767802574.4799566,20260107121614.479917,18.340571166666667,-64.97713983333333,0.02879562763985996,5.131750882794092,0.016188650735876397,0.263926137937146,-0.014772369099039387,11.528533573186381,-0.77452804073207,-11.68102016311248,1,2.43,0.48272576928138733,16.37,2.43,0,0,1,0,1,0
1767802574.5612385,20260107121614.561199,18.340571166666667,-64.97713983333333,0.0507956276398602,5.131750882794092,0.016188650735876397,0.263926137937146,0.019164623757322606,11.378259112429603,-1.4616298422709095,-10.114433967988527,1,2.43,0.48272576928138733,16.37,2.43,0,0,1,0,1,0
1767802574.6709287,20260107121614.670889,18.340571166666667,-64.97713983333333,0.0507956276398602,5.131750882794092,0.016188650735876397,0.263926137937146,0.019164623757322606,10.323971225738514,-1.880950459834187,-7.005920277008786,1,2.43,0.48272576928138733,16.37,2.43,0,0,1,0,1,0
1767802574.7619047,20260107121614.761865,18.340572666666667,-64.97714066666667,0.040603805265085724,5.131750882794092,-0.06620536863235425,0.2824897922870129,0.03998217911744602,10.323971225738514,-1.880950459834187,-7.005919503547798,1,2.43,0.48272576928138733,16.37,2.43,0,0,1,0,1,0
1767802574.8593538,20260107121614.859314,18.340572666666667,-64.97714066666667,0.040603805265085724,5.131750882794092,-0.06620536863235425,0.2824897922870129,0.03998217911744602,9.896355980792624,-1.682246312007306,-5.239039860386164,1,2.42,0.48272576928138733,16.37,2.42,0,0,1,0,1,0
1767802574.9586968,20260107121614.958657,18.340572666666667,-64.97714066666667,0.04228347392011809,5.131750882794092,-0.06620536863235425,0.2824897922870129,0.012186022211709602,9.230665015688523,-2.0196865925230068,-1.602337633631167,1,2.42,0.48272576928138733,16.37,2.42,0,0,1,0,1,0
1767802575.0600402,20260107121615.060001,18.340572666666667,-64.97714066666667,0.04228347392011809,5.131750882794092,-0.06620536863235425,0.2824897922870129,0.012186022211709602,9.230665015688523,-2.0196865925230068,-1.602337633631167,1,2.41,0.48272576928138733,16.37,2.41,0,0,1,0,1,0
1767802575.171097,20260107121615.171058,18.340572666666667,-64.97714066666667,0.022690268993659564,5.131750882794092,-0.06620536863235425,0.2824897922870129,-0.023162327848118138,8.803241016107783,-2.2767444823890894,0.1345672867531209,1,2.41,0.48272576928138733,16.37,2.41,0,0,1,0,1,0
1767802575.2598472,20260107121615.259808,18.340573833333334,-64.9771415,0.022690268993659564,5.131750882794092,-0.16235828374489797,0.25583571815920625,-0.023162327848118138,8.340907053422915,-2.297530036126074,1.929621043428245,1,2.38,0.48272576928138733,16.37,2.38,0,0,1,0,1,0
1767802575.3784807,20260107121615.378441,18.340573833333334,-64.9771415,0.05951367574927202,5.131750882794092,-0.16235828374489797,0.25583571815920625,0.017288329944525102,7.828366913518298,-2.1691512486867586,3.8383027215386063,1,2.38,0.48272576928138733,16.39,2.38,0,0,1,0,1,0
1767802575.4589648,20260107121615.458925,18.340573833333334,-64.9771415,0.05951367574927202,5.131750882794092,-0.16235828374489797,0.25583571815920625,0.017288329944525102,6.768269948860989,-1.8845792125716783,7.933955404808584,1,2.38,0.48272576928138733,16.39,2.38,0,0,1,0,1,0
1767802575.6144936,20260107121615.614454,18.340573833333334,-64.9771415,0.05483902939753071,5.131750882794092,-0.16235828374489797,0.25583571815920625,0.0005703296735046406,6.768269948860989,-1.8845792125716783,7.933955404808584,1,2.38,0.48272576928138733,16.39,2.38,0,0,1,0,1,0
1767802575.6732643,20260107121615.673225,18.3405755,-64.9771425,0.05483902939753071,5.131750882794092,-0.18281023999438784,0.3066670305876455,0.0005703296735046406,6.319659121786044,-1.7098699547655856,9.40206411071071,1,2.4,0.48272576928138733,16.39,2.4,0,0,1,0,1,0
1767802575.7662113,20260107121615.766172,18.3405755,-64.9771425,0.029739788864766005,5.131750882794092,-0.18281023999438784,0.3066670305876455,-0.02282664713515141,5.355893898966894,-0.5498227408200472,11.983015935995654,1,2.4,0.48272576928138733,16.39,2.4,0,0,1,0,1,0
1767802575.8682911,20260107121615.868252,18.3405755,-64.9771425,0.029739788864766005,5.131750882794092,-0.18281023999438784,0.3066670305876455,-0.02282664713515141,5.355893898966894,-0.5498227408200472,11.983015935995654,1,2.4,0.48272576928138733,16.39,2.4,0,0,1,0,1,0
1767802575.9604945,20260107121615.960455,18.3405755,-64.9771425,0.021706074808561182,5.131750882794092,-0.18281023999438784,0.3066670305876455,-0.03250065776513798,4.219500705791996,0.10884267851952784,14.130520386471812,1,2.4,0.48272576928138733,16.34,2.4,0,0,1,0,1,0
1767802576.0627763,20260107121616.062737,18.3405755,-64.9771425,0.021706074808561182,5.131750882794092,-0.18281023999438784,0.3066670305876455,-0.03250065776513798,4.219500705791996,0.10884267851952784,14.130520386471812,1,2.4,0.48272576928138733,16.34,2.4,0,0,1,0,1,0
1767802576.1748378,20260107121616.174798,18.3405755,-64.9771425,0.030158766341953157,5.131750882794092,-0.18281023999438784,0.3066670305876455,-0.03497781833109325,1.7508338155165177,-0.2979474722832404,15.464899063249888,1,2.4,0.48272576928138733,16.34,2.4,0,0,1,0,1,0
1767802576.2583416,20260107121616.258302,18.340577,-64.97714283333333,0.030158766341953157,5.131750882794092,-0.0826484495247111,0.27973347990526926,-0.03497781833109325,1.7508338155165177,-0.2979474722832404,15.464899063249888,1,2.4,0.48272576928138733,16.34,2.4,0,0,1,0,1,0
1767802576.3747494,20260107121616.374710,18.340577,-64.97714283333333,0.05906564460146145,5.131750882794092,-0.0826484495247111,0.27973347990526926,0.007108292312069116,0.7457262966424096,-0.5901777540218051,16.094745182772936,1,2.4,0.48272576928138733,16.34,2.4,0,0,1,0,1,0
1767802576.4599082,20260107121616.459869,18.340577,-64.97714283333333,0.05906564460146145,5.131750882794092,-0.0826484495247111,0.27973347990526926,0.007108292312069116,0.18427671540801974,-1.416917593707513,16.934158656438637,1,2.4,0.48272576928138733,16.34,2.4,0,0,1,0,1,0
1767802576.5597293,20260107121616.559690,18.340577,-64.97714283333333,0.022116011326932652,5.131750882794092,-0.0826484495247111,0.27973347990526926,-0.0312651010547962,0.18427671540801974,-1.416917593707513,16.934158656438637,1,2.4,0.48272576928138733,16.25,2.4,0,0,1,0,1,0
1767802576.6597679,20260107121616.659728,18.340577,-64.97714283333333,0.022116011326932652,5.131750882794092,-0.0826484495247111,0.27973347990526926,-0.0312651010547962,-0.23937081520139605,-1.3570246039554443,16.821648325105965,1,2.38,0.48272576928138733,16.25,2.38,0,0,1,0,1,0
1767802576.7766638,20260107121616.776624,18.340578833333332,-64.97714266666667,0.02788161098269664,5.131750882794092,0.029459304156214512,0.3408318329108824,-0.007999906633106981,-1.4430670890167485,-0.6659544610898906,16.40225406953937,1,2.38,0.48272576928138733,16.25,2.38,0,0,1,0,1,0
1767802576.8935597,20260107121616.893520,18.340578833333332,-64.97714266666667,0.02788161098269664,5.131750882794092,0.029459304156214512,0.3408318329108824,-0.007999906633106981,-2.7263153782725458,0.21805050548594787,15.996219668766333,1,2.37,0.48272576928138733,16.25,2.37,0,0,1,0,1,0
1767802576.9592261,20260107121616.959187,18.340578833333332,-64.97714266666667,0.031637592367731844,5.131750882794092,0.029459304156214512,0.3408318329108824,0.001964193931233954,-3.9241265081986896,1.3362448131926392,15.201574686023095,1,2.37,0.48272576928138733,16.25,2.37,0,0,1,0,1,0
1767802577.0601199,20260107121617.060080,18.340578833333332,-64.97714266666667,0.031637592367731844,5.131750882794092,0.029459304156214512,0.3408318329108824,0.001964193931233954,-3.9241265081986896,1.3362448131926392,15.201574686023095,1,2.37,0.48272576928138733,16.25,2.37,0,0,1,0,1,0
1767802577.161191,20260107121617.161152,18.340578833333332,-64.97714266666667,0.00859362774469976,5.131750882794092,0.029459304156214512,0.3408318329108824,-0.021466384565586423,-3.5637741364762316,1.150195302875343,14.595668388100911,1,2.41,0.48272576928138733,16.31,2.41,0,0,1,0,1,0
1767802577.2613413,20260107121617.261302,18.340580499999998,-64.97714233333333,0.00859362774469976,5.131750882794092,0.15480374548378417,0.3601421551484222,-0.021466384565586423,-2.8693013842485966,0.5241231310224194,13.65073528421771,1,2.41,0.48272576928138733,16.31,2.41,0,0,1,0,1,0
1767802577.3637648,20260107121617.363725,18.340580499999998,-64.97714233333333,0.03190661806511445,5.131750882794092,0.15480374548378417,0.3601421551484222,-0.02714704709932026,-2.6956817554481454,0.12768931161258745,12.726217623063402,1,2.39,0.48272576928138733,16.31,2.39,0,0,1,0,1,0
1767802577.4639275,20260107121617.463888,18.340580499999998,-64.97714233333333,0.03190661806511445,5.131750882794092,0.15480374548378417,0.3601421551484222,-0.02714704709932026,-4.315802992428851,0.4069542888449535,10.952635427495329,1,2.39,0.48272576928138733,16.31,2.39,0,0,1,0,1,0
1767802577.558569,20260107121617.558530,18.340580499999998,-64.97714233333333,0.0040752897729555496,5.131750882794092,0.15480374548378417,0.3601421551484222,-0.02877263413299567,-4.315802992428851,0.4069542888449535,10.952635427495329,1,2.39,0.48272576928138733,16.31,2.39,0,0,1,0,1,0
1767802577.6584356,20260107121617.658396,18.3405825,-64.977142,0.0040752897729555496,5.131750882794092,0.17301747924084507,0.37341665814629077,-0.02877263413299567,-4.716414221061779,0.40834380595106934,10.371615715512378,1,2.39,0.48272576928138733,16.31,2.39,0,0,1,0,1,0
1767802577.8024805,20260107121617.802441,18.3405825,-64.977142,0.006046904511263319,5.131750882794092,0.17301747924084507,0.37341665814629077,-0.030930616970164426,-4.399784040284172,0.11059120757226171,9.653929916760033,1,2.39,0.48272576928138733,16.37,2.39,0,0,1,0,1,0
1767802577.8581586,20260107121617.858119,18.3405825,-64.977142,0.006046904511263319,5.131750882794092,0.17301747924084507,0.37341665814629077,-0.030930616970164426,-1.6224065764054785,-0.6164351450141492,7.728090797319767,1,2.39,0.48272576928138733,16.37,2.39,0,0,1,0,1,0
1767802577.9583998,20260107121617.958360,18.3405825,-64.977142,0.03413946406278262,5.131750882794092,0.17301747924084507,0.37341665814629077,0.03300186682619903,-1.6224065764054785,-0.6164351450141492,7.728090797319767,1,2.38,0.48272576928138733,16.37,2.38,0,0,1,0,1,0
1767802578.0577142,20260107121618.057675,18.3405825,-64.977142,0.03413946406278262,5.131750882794092,0.17301747924084507,0.37341665814629077,0.03300186682619903,0.008066376252738225,-0.5253880504924777,6.702057705780635,1,2.38,0.48272576928138733,16.37,2.38,0,0,1,0,1,0
1767802578.1842043,20260107121618.184165,18.3405825,-64.977142,0.044289682618541985,5.131750882794092,0.17301747924084507,0.37341665814629077,0.036556743130509876,1.0630076935015487,-0.3145967046685493,5.931096412452788,1,2.39,0.48272576928138733,16.37,2.39,0,0,1,0,1,0
1767802578.2593343,20260107121618.259295,18.340584333333332,-64.97714166666667,0.044289682618541985,5.131750882794092,0.18983530828239115,0.3761362218135593,0.036556743130509876,1.7483323645602773,-0.1980029859691837,5.299441999700424,1,2.39,0.48272576928138733,16.37,2.39,0,0,1,0,1,0
1767802578.3586516,20260107121618.358612,18.340584333333332,-64.97714166666667,0.04219067231184985,5.131750882794092,0.18983530828239115,0.3761362218135593,0.04774102642213764,2.45959383449255,-0.48960419638808617,3.7991135724154548,1,2.37,0.48272576928138733,16.34,2.37,0,0,1,0,1,0
1767802578.4678345,20260107121618.467795,18.340584333333332,-64.97714166666667,0.04219067231184985,5.131750882794092,0.18983530828239115,0.3761362218135593,0.04774102642213764,2.45959383449255,-0.48960419638808617,3.7991135724154548,1,2.37,0.48272576928138733,16.34,2.37,0,0,1,0,1,0
1767802578.5677779,20260107121618.567738,18.340584333333332,-64.97714166666667,0.025389307044538824,5.131750882794092,0.18983530828239115,0.3761362218135593,0.02139260038543784,2.6139179585449264,-0.6925677157374082,3.264787682589621,1,2.42,0.48272576928138733,16.34,5.131750882794092,0,0,1,0,1,0
1767802578.664844,20260107121618.664805,18.340584333333332,-64.97714166666667,0.025389307044538824,5.131750882794092,0.18983530828239115,0.3761362218135593,0.02139260038543784,2.9372393792241667,-0.6979031092431371,2.8368095837143623,1,2.42,0.48272576928138733,16.34,5.131750882794092,0,0,1,0,1,0
1767802578.76256,20260107121618.762521,18.34058633333333,-64.97714166666667,0.0488015116188833,5.131750882794092,0.14287067727711336,0.37551729864062,0.0183051362448377,3.2993095441371065,-0.49150037497356336,2.664787792864187,1,2.42,0.48272576928138733,16.34,5.131750882794092,0,0,1,0,1,0
1767802578.8585231,20260107121618.858484,18.34058633333333,-64.97714166666667,0.0488015116188833,5.131750882794092,0.14287067727711336,0.37551729864062,0.0183051362448377,3.496981692700073,-0.289995635142175,2.618895735421522,1,2.41,0.48272576928138733,16.34,2.41,0,0,1,0,1,0
1767802578.9600818,20260107121618.960042,18.34058633333333,-64.97714166666667,0.04338044998808785,5.131750882794092,0.14287067727711336,0.37551729864062,0.009217110472905521,3.5978004435405007,-0.3822702698430953,2.6256593326655335,1,2.41,0.48272576928138733,16.31,2.41,0,0,1,0,1,0
1767802579.0587785,20260107121619.058739,18.34058633333333,-64.97714166666667,0.04338044998808785,5.131750882794092,0.14287067727711336,0.37551729864062,0.009217110472905521,3.9839145904764397,-0.8078230904068774,2.554500688901276,1,2.41,0.48272576928138733,16.31,2.41,0,0,1,0,1,0
1767802579.181009,20260107121619.180970,18.34058633333333,-64.97714166666667,0.06860893698105672,5.131750882794092,0.14287067727711336,0.37551729864062,0.03298788809210981,4.754193291529999,-1.3511344174638371,2.3613360399154386,1,2.41,0.48272576928138733,16.31,2.41,0,0,1,0,1,0
1767802579.2688956,20260107121619.268856,18.340588500000003,-64.9771415,0.06860893698105672,5.131750882794092,0.13656770713074673,0.3904129799792884,0.03298788809210981,5.693219133442627,-1.7273469209969026,1.813833002921684,1,2.42,0.48272576928138733,16.31,2.42,0,0,1,0,1,0
1767802579.3656607,20260107121619.365621,18.340588500000003,-64.9771415,0.04432029095474527,5.131750882794092,0.13656770713074673,0.3904129799792884,0.0020984761441206453,5.693219133442627,-1.7273469209969026,1.813833002921684,1,2.42,0.48272576928138733,16.31,2.42,0,0,1,0,1,0
1767802579.4605906,20260107121619.460551,18.340588500000003,-64.9771415,0.04432029095474527,5.131750882794092,0.13656770713074673,0.3904129799792884,0.0020984761441206453,4.217611730924236,-0.5819282165760155,1.940968482044059,1,2.43,0.48272576928138733,16.31,2.43,0,0,1,0,1,0
1767802579.5597036,20260107121619.559664,18.340588500000003,-64.9771415,0.038895779941567996,5.131750882794092,0.13656770713074673,0.3904129799792884,0.013473526969202143,4.217611730924236,-0.5819282165760155,1.940968482044059,1,2.43,0.48272576928138733,16.31,2.43,0,0,1,0,1,0
1767802579.66309,20260107121619.663051,18.340588500000003,-64.9771415,0.038895779941567996,5.131750882794092,0.13656770713074673,0.3904129799792884,0.013473526969202143,3.4993763151906276,0.1872118701914349,2.4067841349033205,1,2.43,0.48272576928138733,16.31,2.43,0,0,1,0,1,0
1767802579.7660236,20260107121619.765984,18.34059016666667,-64.97714133333334,0.02597976852109557,5.131750882794092,0.11605828391226058,0.3544521825244431,-0.022822030764002035,3.56456900002508,1.2089708092466018,3.76068179176125,1,2.43,0.48272576928138733,16.31,2.43,0,0,1,0,1,0
1767802579.8984265,20260107121619.898387,18.34059016666667,-64.97714133333334,0.02597976852109557,5.131750882794092,0.11605828391226058,0.3544521825244431,-0.022822030764002035,3.56456900002508,1.2089708092466018,3.76068179176125,1,2.42,0.48272576928138733,16.31,2.42,0,0,1,0,1,0
1767802579.9758418,20260107121619.975802,18.34059016666667,-64.97714133333334,0.0484957165675053,5.131750882794092,0.11605828391226058,0.3544521825244431,-0.03284439899738015,4.9725976329579815,0.6507077125025933,5.144137102821227,1,2.42,0.48272576928138733,16.31,2.42,0,0,1,0,1,0
1767802580.0604048,20260107121620.060365,18.34059016666667,-64.97714133333334,0.0484957165675053,5.131750882794092,0.11605828391226058,0.3544521825244431,-0.03284439899738015,4.9725976329579815,0.6507077125025933,5.144137102821227,1,2.41,0.48272576928138733,16.31,2.41,0,0,1,0,1,0
1767802580.169527,20260107121620.169488,18.34059016666667,-64.97714133333334,0.026342463146472525,5.131750882794092,0.11605828391226058,0.3544521825244431,-0.046806813733458325,5.432553408300864,0.21794581145514055,5.59355005052361,1,2.41,0.48272576928138733,16.34,2.41,0,0,1,0,1,0
1767802580.2927728,20260107121620.292733,18.340592,-64.97714116666666,0.026342463146472525,5.131750882794092,0.09235750879170744,0.3576349408194284,-0.046806813733458325,5.2091425364211075,0.23961779599730168,6.202818510266871,1,2.39,0.48272576928138733,16.34,2.39,0,0,1,0,1,0
1767802580.360052,20260107121620.360013,18.340592,-64.97714116666666,0.033343489491388226,5.131750882794092,0.09235750879170744,0.3576349408194284,-0.03125318335265289,5.2091425364211075,0.23961779599730168,6.202818510266871,1,2.39,0.48272576928138733,16.34,2.39,0,0,1,0,1,0
1767802580.458545,20260107121620.458506,18.340592,-64.97714116666666,0.033343489491388226,5.131750882794092,0.09235750879170744,0.3576349408194284,-0.03125318335265289,4.568640037322032,0.6523909278480369,6.755712275990564,1,2.41,0.48272576928138733,16.34,2.41,0,0,1,0,1,0
1767802580.5668435,20260107121620.566804,18.340592,-64.97714116666666,0.042202994218782916,5.131750882794092,0.09235750879170744,0.3576349408194284,-0.004047158533499181,4.05810711997746,1.1111784736208643,7.638820192947729,1,2.41,0.48272576928138733,16.34,2.41,0,0,1,0,1,0
1767802580.6757581,20260107121620.675719,18.340592,-64.97714116666666,0.042202994218782916,5.131750882794092,0.09235750879170744,0.3576349408194284,-0.004047158533499181,4.129169287285195,1.1139203686662047,9.793668806954951,1,2.39,0.48272576928138733,16.34,5.131750882794092,0,0,1,0,1,0
1767802580.7585568,20260107121620.758517,18.340593666666667,-64.97714116666666,0.019140334410724668,5.131750882794092,0.05316128616686137,0.36396265470271133,-0.0532625028071356,4.129169287285195,1.1139203686662047,9.793669125207236,1,2.38,0.48272576928138733,16.37,5.131750882794092,0,0,1,0,1,0
1767802580.867533,20260107121620.867494,18.340593666666667,-64.97714116666666,0.019140334410724668,5.131750882794092,0.05316128616686137,0.36396265470271133,-0.0532625028071356,4.421280787722753,1.0812304312795435,10.576221253701009,1,2.38,0.48272576928138733,16.37,5.131750882794092,0,0,1,0,1,0
1767802580.9586918,20260107121620.958652,18.340593666666667,-64.97714116666666,0.032357438348434596,5.131750882794092,0.05316128616686137,0.36396265470271133,0.0025971191055839202,5.358717329424606,0.9797858641326459,12.247710867692984,1,2.39,0.48272576928138733,16.37,2.39,0,0,1,0,1,0
1767802581.0836406,20260107121621.083601,18.340593666666667,-64.97714116666666,0.032357438348434596,5.131750882794092,0.05316128616686137,0.36396265470271133,0.0025971191055839202,5.358717329424606,0.9797858641326459,12.247710867692984,1,2.39,0.48272576928138733,16.37,2.39,0,0,1,0,1,0
1767802581.159868,20260107121621.159829,18.340593666666667,-64.97714116666666,0.0370246584608389,5.131750882794092,0.05316128616686137,0.36396265470271133,0.010330854681054184,5.698103147332357,0.7335148211745576,13.075799883665612,1,2.41,0.48272576928138733,16.37,2.41,0,0,1,0,1,0
1767802581.2584774,20260107121621.258438,18.3405955,-64.97714133333334,0.0370246584608389,5.131750882794092,0.03623894993905736,0.36500114892645596,0.010330854681054184,5.247131208394453,0.3859087609397277,13.754362344862988,1,2.41,0.48272576928138733,16.37,2.41,0,0,1,0,1,0
1767802581.3583922,20260107121621.358353,18.3405955,-64.97714133333334,0.028179477635727083,5.131750882794092,0.03623894993905736,0.36500114892645596,-0.01451398512232012,3.1326155161879843,-0.38016542356777644,14.648118530543604,1,2.41,0.48272576928138733,16.31,2.41,0,0,1,0,1,0
1767802581.4642546,20260107121621.464215,18.3405955,-64.97714133333334,0.028179477635727083,5.131750882794092,0.03623894993905736,0.36500114892645596,-0.01451398512232012,3.1326155161879843,-0.38016542356777644,14.648118530543604,1,2.41,0.48272576928138733,16.31,2.41,0,0,1,0,1,0
1767802581.5600066,20260107121621.559967,18.3405955,-64.97714133333334,0.020608547288498834,5.131750882794092,0.03623894993905736,0.36500114892645596,-0.025573318577440142,2.7067547767124935,-0.5705968753304299,15.121175894059736,1,2.38,0.48272576928138733,16.31,2.38,0,0,1,0,1,0
1767802581.663907,20260107121621.663868,18.3405955,-64.97714133333334,0.020608547288498834,5.131750882794092,0.03623894993905736,0.36500114892645596,-0.025573318577440142,3.4778234321147066,-0.33940481437816866,16.225880840136593,1,2.38,0.48272576928138733,16.31,2.38,0,0,1,0,1,0
1767802581.7664604,20260107121621.766421,18.340597166666665,-64.97714166666667,0.029313703132376703,5.131750882794092,0.009876935693101087,0.39290803623186427,0.006142835233018652,3.4778234321147066,-0.33940481437816866,16.225880840136593,1,2.38,0.48272576928138733,16.31,2.38,0,0,1,0,1,0
1767802581.8625646,20260107121621.862525,18.340597166666665,-64.97714166666667,0.029313703132376703,5.131750882794092,0.009876935693101087,0.39290803623186427,0.006142835233018652,3.787238796114908,-0.19852298766653637,16.50838781050642,1,2.38,0.48272576928138733,16.31,2.38,0,0,1,0,1,0
1767802581.962451,20260107121621.962412,18.340597166666665,-64.97714166666667,0.051313703132376945,5.131750882794092,0.009876935693101087,0.39290803623186427,0.01895250508957212,3.4736203029513226,-0.08599456699825442,16.480851893021622,1,2.36,0.48272576928138733,16.37,2.36,0,0,1,0,1,0
1767802582.0582325,20260107121622.058193,18.340597166666665,-64.97714166666667,0.051313703132376945,5.131750882794092,0.009876935693101087,0.39290803623186427,0.01895250508957212,2.5756526638112835,0.07479182545412713,16.32264757980303,1,2.36,0.48272576928138733,16.37,2.36,0,0,1,0,1,0
1767802582.179229,20260107121622.179190,18.340597166666665,-64.97714166666667,0.03154520520894727,5.131750882794092,0.009876935693101087,0.39290803623186427,-0.0037490026056375345,1.6786747621245548,0.07197703945767497,16.26075238341289,1,2.36,0.48272576928138733,16.37,2.36,0,0,1,0,1,0
1767802582.2632744,20260107121622.263235,18.340599166666667,-64.97714183333332,0.03154520520894727,5.131750882794092,0.01345967834578022,0.40361103472525145,-0.0037490026056375345,0.6325388158444185,-0.17897220450695256,16.318692898859553,1,2.36,0.48272576928138733,16.37,2.36,0,0,1,0,1,0
1767802582.381138,20260107121622.381099,18.340599166666667,-64.97714183333332,0.01248460710545534,5.131750882794092,0.01345967834578022,0.40361103472525145,-0.022060935886101855,0.016718628199292335,-0.40249969657240087,16.360158992137485,1,2.38,0.48272576928138733,16.37,2.38,0,0,1,0,1,0
1767802582.4579728,20260107121622.457933,18.340599166666667,-64.97714183333332,0.01248460710545534,5.131750882794092,0.01345967834578022,0.40361103472525145,-0.022060935886101855,-0.38853222152973893,-0.07709632143191637,16.245999169530467,1,2.38,0.48272576928138733,16.37,2.38,0,0,1,0,1,0
1767802582.5575309,20260107121622.557492,18.340599166666667,-64.97714183333332,0.02480921233939133,5.131750882794092,0.01345967834578022,0.40361103472525145,-0.005593658792404007,-0.38853222152973893,-0.07709632143191637,16.245999169530467,1,2.36,0.48272576928138733,16.25,2.36,0,0,1,0,1,0
1767802582.6658008,20260107121622.665761,18.340599166666667,-64.97714183333332,0.02480921233939133,5.131750882794092,0.01345967834578022,0.40361103472525145,-0.005593658792404007,-0.21175496313042386,0.15024132365528842,15.66310378714997,1,2.36,0.48272576928138733,16.25,2.36,0,0,1,0,1,0
1767802582.776969,20260107121622.776930,18.340601166666666,-64.9771415,0.011950811244261082,5.131750882794092,0.04963497493543046,0.4349656164121399,-0.04918442794284554,-0.21175496313042386,0.15024132365528842,15.66310378714997,1,2.37,0.48272576928138733,16.25,2.37,0,0,1,0,1,0
1767802582.8588915,20260107121622.858852,18.340601166666666,-64.9771415,0.011950811244261082,5.131750882794092,0.04963497493543046,0.4349656164121399,-0.04918442794284554,0.7751908894836771,-0.3477381283929539,14.501597260077766,1,2.37,0.48272576928138733,16.25,2.37,0,0,1,0,1,0
1767802582.9733078,20260107121622.973268,18.340601166666666,-64.9771415,0.02595081124426043,5.131750882794092,0.04963497493543046,0.4349656164121399,-0.006938033310714579,0.7751908894836771,-0.3477381283929539,14.501597260077766,1,2.37,0.48272576928138733,16.25,2.37,0,0,1,0,1,0
1767802583.0658894,20260107121623.065850,18.340601166666666,-64.9771415,0.02595081124426043,5.131750882794092,0.04963497493543046,0.4349656164121399,-0.006938033310714579,0.676739973976077,-0.3336372511703488,13.32016535652478,1,2.37,0.48272576928138733,16.25,2.37,0,0,1,0,1,0
1767802583.1742623,20260107121623.174223,18.340601166666666,-64.9771415,0.05142435614674179,5.131750882794092,0.04963497493543046,0.4349656164121399,0.048723152883139,0.676739973976077,-0.3336372511703488,13.32016535652478,1,2.36,0.48272576928138733,16.31,2.36,0,0,1,0,1,0
1767802583.2589831,20260107121623.258944,18.340603166666664,-64.97714083333334,0.05142435614674179,5.131750882794092,0.11607572478412383,0.42372021601587284,0.048723152883139,0.10693310635516953,-0.1531577621128379,12.828722824736394,1,2.37,0.48272576928138733,16.31,2.37,0,0,1,0,1,0
1767802583.3588617,20260107121623.358822,18.340603166666664,-64.97714083333334,0.06832661224463711,5.131750882794092,0.11607572478412383,0.42372021601587284,0.05588837380240293,-0.6834869226280732,0.24744423508923793,12.374445073058178,1,2.37,0.48272576928138733,16.31,2.37,0,0,1,0,1,0
1767802583.4631903,20260107121623.463151,18.340603166666664,-64.97714083333334,0.06832661224463711,5.131750882794092,0.11607572478412383,0.42372021601587284,0.05588837380240293,-1.316163302800445,0.42763738970775456,11.716327082904163,1,2.36,0.48272576928138733,16.31,2.36,0,0,1,0,1,0
1767802583.5588663,20260107121623.558827,18.340603166666664,-64.97714083333334,0.01000580631787576,5.131750882794092,0.11607572478412383,0.42372021601587284,-0.0022347185685753918,-1.316163302800445,0.42763738970775456,11.716327082904163,1,2.36,0.48272576928138733,16.31,2.36,0,0,1,0,1,0
1767802583.6575913,20260107121623.657552,18.340603166666664,-64.97714083333334,0.01000580631787576,5.131750882794092,0.11607572478412383,0.42372021601587284,-0.0022347185685753918,-0.06555423142250101,-0.04661499053612053,11.123980422880223,1,2.34,0.48272576928138733,16.31,2.34,0,0,1,0,1,0
1767802583.784653,20260107121623.784614,18.340605166666666,-64.97714016666667,0.04600580631787535,5.131750882794092,0.12389988641364819,0.4375614093935692,0.034282035196559944,-0.06555423142250101,-0.04661499053612053,11.123980457495893,1,2.34,0.48272576928138733,16.31,2.34,0,0,1,0,1,0
1767802583.857978,20260107121623.857939,18.340605166666666,-64.97714016666667,0.04600580631787535,5.131750882794092,0.12389988641364819,0.4375614093935692,0.034282035196559944,1.147416695550071,-0.27541488359793714,10.78859755875988,1,2.35,0.48272576928138733,16.31,2.35,0,0,1,0,1,0
1767802583.959525,20260107121623.959486,18.340605166666666,-64.97714016666667,0.049325404309463514,5.131750882794092,0.12389988641364819,0.4375614093935692,0.02357121292792231,2.163433951420323,-0.3813362678205565,10.2999690659158,1,2.35,0.48272576928138733,16.31,2.35,0,0,1,0,1,0
1767802584.074208,20260107121624.074169,18.340605166666666,-64.97714016666667,0.049325404309463514,5.131750882794092,0.12389988641364819,0.4375614093935692,0.02357121292792231,2.1613567193962497,-0.015514726886336802,9.16030378407165,1,2.35,0.48272576928138733,16.31,2.35,0,0,1,0,1,0
1767802584.1591542,20260107121624.159115,18.340605166666666,-64.97714016666667,0.018086969499413474,5.131750882794092,0.12389988641364819,0.4375614093935692,-0.06245969207348553,2.1613567193962497,-0.015514726886336802,9.16030378407165,1,2.35,0.48272576928138733,16.31,2.35,0,0,1,0,1,0
1767802584.2580602,20260107121624.258021,18.340607166666665,-64.97713983333333,0.018086969499413474,5.131750882794092,0.10427065514378356,0.4151188783398468,-0.06245969207348553,1.3343784633345768,-0.38002692542457667,8.234647188466049,1,2.34,0.48272576928138733,16.31,2.34,0,0,1,0,1,0
1767802584.3696125,20260107121624.369573,18.340607166666665,-64.97713983333333,0.020644272826263292,5.131750882794092,0.10427065514378356,0.4151188783398468,0.013485794452083092,1.3343784633345768,-0.38002692542457667,8.234647188466049,1,2.34,0.48272576928138733,16.37,2.34,0,0,1,0,1,0
1767802584.459129,20260107121624.459090,18.340607166666665,-64.97713983333333,0.020644272826263292,5.131750882794092,0.10427065514378356,0.4151188783398468,0.013485794452083092,1.1751257157035035,-0.8023334839811521,8.019610558389866,1,2.35,0.48272576928138733,16.37,2.35,0,0,1,0,1,0
1767802584.5789826,20260107121624.578943,18.340607166666665,-64.97713983333333,0.04664427282626309,5.131750882794092,0.10427065514378356,0.4151188783398468,0.0368125124687285,1.1751257157035035,-0.8023334839811521,8.019610558389866,1,2.35,0.48272576928138733,16.37,2.35,0,0,1,0,1,0
1767802584.658898,20260107121624.658859,18.340607166666665,-64.97713983333333,0.04664427282626309,5.131750882794092,0.10427065514378356,0.4151188783398468,0.0368125124687285,1.3165624421227586,-0.5722060257855776,8.113892815857389,1,2.33,0.48272576928138733,16.37,2.33,0,0,1,0,1,0
1767802584.8196275,20260107121624.819588,18.340608999999997,-64.9771395,0.05859190902816721,5.131750882794092,0.0760887870377424,0.41910533644308023,0.01269289297244352,1.963289913824187,-0.4694615877974749,8.166526272421338,1,2.33,0.48272576928138733,16.37,2.33,0,0,1,0,1,0
1767802584.8629322,20260107121624.862893,18.340608999999997,-64.9771395,0.05859190902816721,5.131750882794092,0.0760887870377424,0.41910533644308023,0.01269289297244352,1.963289913824187,-0.4694615877974749,8.166526272421338,1,2.34,0.48272576928138733,16.37,2.34,0,0,1,0,1,0
1767802584.9594924,20260107121624.959453,18.340608999999997,-64.9771395,0.04325880536694259,5.131750882794092,0.0760887870377424,0.41910533644308023,0.031503516977077824,2.1638076909676065,-0.6798526203598801,7.982768504833412,1,2.34,0.48272576928138733,16.31,2.34,0,0,1,0,1,0
1767802585.0592256,20260107121625.059186,18.340608999999997,-64.9771395,0.04325880536694259,5.131750882794092,0.0760887870377424,0.41910533644308023,0.031503516977077824,2.3648069966196883,-0.8525983581600687,7.804951296400261,1,2.35,0.48272576928138733,16.31,5.131750882794092,0,0,1,0,1,0
1767802585.167038,20260107121625.166999,18.340608999999997,-64.9771395,0.035722652197662665,5.131750882794092,0.0760887870377424,0.41910533644308023,0.017670580337207413,2.979411330116526,-0.2400347578508753,7.941860779719807,1,2.35,0.48272576928138733,16.31,5.131750882794092,0,0,1,0,1,0
1767802585.2582088,20260107121625.258169,18.34061116666667,-64.97713916666666,0.035722652197662665,5.131750882794092,0.06080891288516328,0.4688433527397549,0.017670580337207413,2.979411330116526,-0.2400347578508753,7.941860779719807,1,2.36,0.48272576928138733,16.31,5.131750882794092,0,0,1,0,1,0
1767802585.3755367,20260107121625.375497,18.34061116666667,-64.97713916666666,0.03263493865675882,5.131750882794092,0.06080891288516328,0.4688433527397549,-0.01749391178977851,2.853500376284109,0.6424201287550877,8.223566910123061,1,2.36,0.48272576928138733,16.31,5.131750882794092,0,0,1,0,1,0
1767802585.4589987,20260107121625.458959,18.34061116666667,-64.97713916666666,0.03263493865675882,5.131750882794092,0.06080891288516328,0.4688433527397549,-0.01749391178977851,1.4233369066055728,1.5544927005440021,8.809237057846047,1,2.35,0.48272576928138733,16.31,2.35,0,0,1,0,1,0
1767802585.578915,20260107121625.578876,18.34061116666667,-64.97713916666666,0.02012863527853946,5.131750882794092,0.06080891288516328,0.4688433527397549,-0.04806628481961753,1.4233369066055728,1.5544927005440021,8.809237057846047,1,2.35,0.48272576928138733,16.25,2.35,0,0,1,0,1,0
1767802585.6668665,20260107121625.666827,18.34061116666667,-64.97713916666666,0.02012863527853946,5.131750882794092,0.06080891288516328,0.4688433527397549,-0.04806628481961753,0.8593263637024776,1.1479780519232181,9.008772568058218,1,2.37,0.48272576928138733,16.25,2.37,0,0,1,0,1,0
1767802585.7599006,20260107121625.759861,18.340613333333334,-64.97713900000001,0.007128635278539561,5.131750882794092,0.05271661161541504,0.44341120934224915,-0.045191854003986946,1.2515884301416436,0.31216617031116284,9.690125162529233,1,2.36,0.48272576928138733,16.25,2.36,0,0,1,0,1,0
1767802585.8596969,20260107121625.859657,18.340613333333334,-64.97713900000001,0.007128635278539561,5.131750882794092,0.05271661161541504,0.44341120934224915,-0.045191854003986946,1.2515884301416436,0.31216617031116284,9.690125162529233,1,2.36,0.48272576928138733,16.25,2.36,0,0,1,0,1,0
1767802585.9601507,20260107121625.960111,18.340613333333334,-64.97713900000001,0.050813078073201665,5.131750882794092,0.05271661161541504,0.44341120934224915,0.01881313737723437,1.8266128704629703,0.25930219478030037,10.383652573549009,1,2.37,0.48272576928138733,16.25,2.37,0,0,1,0,1,0
1767802586.078645,20260107121626.078606,18.340613333333334,-64.97713900000001,0.050813078073201665,5.131750882794092,0.05271661161541504,0.44341120934224915,0.01881313737723437,2.211267063941793,0.2073960469013112,11.894222873156526,1,2.37,0.48272576928138733,16.25,2.37,0,0,1,0,1,0
1767802586.158454,20260107121626.158415,18.340613333333334,-64.97713900000001,0.038529570201295785,5.131750882794092,0.05271661161541504,0.44341120934224915,0.007338409987074933,2.211267063941793,0.2073960469013112,11.894222873156526,1,2.35,0.48272576928138733,16.31,2.35,0,0,1,0,1,0
1767802586.2933726,20260107121626.293333,18.340615333333336,-64.97713866666666,0.038529570201295785,5.131750882794092,0.0650108631130795,0.4381359246030369,0.007338409987074933,1.8025104049242897,0.2797463456584171,12.19257588806676,1,2.35,0.48272576928138733,16.31,2.35,0,0,1,0,1,0
1767802586.3587377,20260107121626.358698,18.340615333333336,-64.97713866666666,0.047529570201296126,5.131750882794092,0.0650108631130795,0.4381359246030369,0.014889471915724145,0.45217527996169926,0.6175429700771378,12.498158660798527,1,2.35,0.48272576928138733,16.31,2.35,0,0,1,0,1,0
1767802586.460124,20260107121626.460085,18.340615333333336,-64.97713866666666,0.047529570201296126,5.131750882794092,0.0650108631130795,0.4381359246030369,0.014889471915724145,0.45217527996169926,0.6175429700771378,12.498158660798527,1,2.35,0.48272576928138733,16.31,2.35,0,0,1,0,1,0
1767802586.5589082,20260107121626.558869,18.340615333333336,-64.97713866666666,0.03068614507812622,5.131750882794092,0.0650108631130795,0.4381359246030369,0.01056602036871441,0.256944391291389,0.5096777026494995,12.887944035726047,1,2.33,0.48272576928138733,16.31,2.33,0,0,1,0,1,0
1767802586.662975,20260107121626.662936,18.340615333333336,-64.97713866666666,0.03068614507812622,5.131750882794092,0.0650108631130795,0.4381359246030369,0.01056602036871441,0.4506579102063418,0.4641711241459507,13.302664732681967,1,2.33,0.48272576928138733,16.31,2.33,0,0,1,0,1,0
1767802586.776782,20260107121626.776743,18.340617166666668,-64.97713816666666,0.023440337979055533,5.131750882794092,0.07962346231074663,0.4174008067967798,-0.03414183130623364,0.6747560167562083,0.5341740781450678,14.316269239745084,1,2.34,0.48272576928138733,16.28,2.34,0,0,1,0,1,0
1767802586.8643003,20260107121626.864261,18.340617166666668,-64.97713816666666,0.023440337979055533,5.131750882794092,0.07962346231074663,0.4174008067967798,-0.03414183130623364,0.6747560167562083,0.5341740781450678,14.316269239745084,1,2.34,0.48272576928138733,16.28,2.34,0,0,1,0,1,0
1767802586.9587257,20260107121626.958686,18.340617166666668,-64.97713816666666,0.027267432739959435,5.131750882794092,0.07962346231074663,0.4174008067967798,-0.01546880168350118,0.7973707628052551,-0.17025869427937668,15.146120445153631,1,2.33,0.48272576928138733,16.28,2.33,0,0,1,0,1,0
1767802587.0587354,20260107121627.058696,18.340617166666668,-64.97713816666666,0.027267432739959435,5.131750882794092,0.07962346231074663,0.4174008067967798,-0.01546880168350118,0.7973707628052551,-0.17025869427937668,15.146120445153631,1,2.33,0.48272576928138733,16.28,2.33,0,0,1,0,1,0
1767802587.1738064,20260107121627.173767,18.340617166666668,-64.97713816666666,0.023185590214993106,5.131750882794092,0.07962346231074663,0.4174008067967798,-0.03565373430254966,0.655491834839979,-0.37942568179964675,15.401999913523127,1,2.32,0.48272576928138733,16.28,5.131750882794092,0,0,1,0,1,0
1767802587.2648602,20260107121627.264821,18.340619166666666,-64.977138,0.023185590214993106,5.131750882794092,0.0744453808803652,0.4350661945398743,-0.03565373430254966,0.34141366444480226,-0.41135672086514175,15.623981140921046,1,2.32,0.48272576928138733,16.28,5.131750882794092,0,0,1,0,1,0
1767802587.3652675,20260107121627.365228,18.340619166666666,-64.977138,0.020870480200231432,5.131750882794092,0.0744453808803652,0.4350661945398743,-0.016656609141617672,-0.14701605915121174,-0.42207625303314633,15.899575957379284,1,2.31,0.48272576928138733,16.34,5.131750882794092,0,0,1,0,1,0
1767802587.4690642,20260107121627.469025,18.340619166666666,-64.977138,0.020870480200231432,5.131750882794092,0.0744453808803652,0.4350661945398743,-0.016656609141617672,-0.14701605915121174,-0.42207625303314633,15.899575957379284,1,2.31,0.48272576928138733,16.34,5.131750882794092,0,0,1,0,1,0
1767802587.5582848,20260107121627.558245,18.340619166666666,-64.977138,0.04294570766134746,5.131750882794092,0.0744453808803652,0.4350661945398743,0.024804505372825487,0.04441406801080882,-0.3872427026976797,15.75971753883115,1,2.31,0.48272576928138733,16.34,5.131750882794092,0,0,1,0,1,0
1767802587.6578689,20260107121627.657829,18.340619166666666,-64.977138,0.04294570766134746,5.131750882794092,0.0744453808803652,0.4350661945398743,0.024804505372825487,0.5148502387739586,-0.2050522773217376,15.531701837143816,1,2.31,0.48272576928138733,16.34,5.131750882794092,0,0,1,0,1,0
1767802587.7606986,20260107121627.760659,18.340621166666665,-64.97713766666668,0.05570274831545799,5.131750882794092,0.07337615791293375,0.43942084624575767,0.04480148920369396,0.8531203875705469,0.028799076046052998,15.290859035608724,1,2.32,0.48272576928138733,16.34,5.131750882794092,0,0,1,0,1,0
1767802587.8592973,20260107121627.859258,18.340621166666665,-64.97713766666668,0.05570274831545799,5.131750882794092,0.07337615791293375,0.43942084624575767,0.04480148920369396,0.4656406291991339,0.30696999532040536,14.991901548740818,1,2.3,0.48272576928138733,16.34,2.3,0,0,1,0,1,0
1767802587.999235,20260107121627.999196,18.340621166666665,-64.97713766666668,0.021795615301350206,5.131750882794092,0.07337615791293375,0.43942084624575767,0.008224422932047264,0.4656406291991339,0.30696999532040536,14.991901548740818,1,2.3,0.48272576928138733,16.25,2.3,0,0,1,0,1,0
1767802588.0619805,20260107121628.061941,18.340621166666665,-64.97713766666668,0.021795615301350206,5.131750882794092,0.07337615791293375,0.43942084624575767,0.008224422932047264,0.24552767265065173,0.3347687684604932,14.826102062449412,1,2.3,0.48272576928138733,16.25,2.3,0,0,1,0,1,0
1767802588.1650226,20260107121628.164983,18.340621166666665,-64.97713766666668,0.028662099713150445,5.131750882794092,0.07337615791293375,0.43942084624575767,0.022204490977505993,0.16576345436259715,0.2913055911881883,14.691888797268822,1,2.3,0.48272576928138733,16.25,2.3,0,0,1,0,1,0
1767802588.265658,20260107121628.265619,18.340623,-64.97713716666667,0.028662099713150445,5.131750882794092,0.07547384983164505,0.39829085430176364,0.022204490977505993,0.6671697015881406,0.12380741489846597,14.619741483268655,1,2.32,0.48272576928138733,16.25,2.32,0,0,1,0,1,0
1767802588.3670936,20260107121628.367054,18.340623,-64.97713716666667,0.0419657995187796,5.131750882794092,0.07547384983164505,0.39829085430176364,0.03717488684974527,0.6671697015881406,0.12380741489846597,14.619741483268655,1,2.32,0.48272576928138733,16.25,2.32,0,0,1,0,1,0
1767802588.4594688,20260107121628.459429,18.340623,-64.97713716666667,0.0419657995187796,5.131750882794092,0.07547384983164505,0.39829085430176364,0.03717488684974527,1.0981122103448826,0.03498899055552076,14.548572594216992,1,2.34,0.48272576928138733,16.25,2.34,0,0,1,0,1,0
1767802588.5600822,20260107121628.560043,18.340623,-64.97713716666667,0.048750215601786356,5.131750882794092,0.07547384983164505,0.39829085430176364,-0.008677496827525638,1.4485875913873179,-0.07303289103135124,14.410121195141032,1,2.34,0.48272576928138733,16.25,2.34,0,0,1,0,1,0
1767802588.6611362,20260107121628.661097,18.340623,-64.97713716666667,0.048750215601786356,5.131750882794092,0.07547384983164505,0.39829085430176364,-0.008677496827525638,1.4317871342908461,-0.1447141511756895,13.993964450398629,1,2.32,0.48272576928138733,16.25,2.32,0,0,1,0,1,0
1767802588.826866,20260107121628.826827,18.340624833333333,-64.9771365,0.023000831711855636,5.131750882794092,0.13285872704056162,0.4198405077054514,0.0015306175573508093,1.4317871342908461,-0.1447141511756895,13.993964450398629,1,2.32,3.8635826110839844,16.25,2.32,0,0,1,0,1,0
1767802588.8664167,20260107121628.866377,18.340624833333333,-64.9771365,0.023000831711855636,5.131750882794092,0.13285872704056162,0.4198405077054514,0.0015306175573508093,1.12933685818723,0.1802094296844709,13.819984102103655,1,2.32,3.8635826110839844,16.25,2.32,0,0,1,0,1,0
1767802588.989394,20260107121628.989355,18.340624833333333,-64.9771365,0.033735927557025674,5.131750882794092,0.13285872704056162,0.4198405077054514,0.006291933902050791,0.5940758724409956,0.41432620002944354,13.757655188546112,1,2.32,3.8635826110839844,16.25,2.32,0,0,1,0,1,0
1767802589.082418,20260107121629.082379,18.340624833333333,-64.9771365,0.033735927557025674,5.131750882794092,0.13285872704056162,0.4198405077054514,0.006291933902050791,0.5981602203033735,-0.28781952542233885,13.653073002127341,1,2.32,3.8635826110839844,16.25,2.32,0,0,1,0,1,0
1767802589.1628935,20260107121629.162854,18.340624833333333,-64.9771365,0.046105086759037545,5.131750882794092,0.13285872704056162,0.4198405077054514,0.01752846504865514,0.5981602203033735,-0.28781952542233885,13.653073002127341,1,2.32,3.8635826110839844,16.31,2.32,0,0,1,0,1,0
1767802589.2597048,20260107121629.259665,18.340626666666665,-64.97713566666667,0.046105086759037545,5.131750882794092,0.1572683769861711,0.410769201930446,0.01752846504865514,1.1448096967890733,-0.5840169211875615,13.483178815964392,1,2.32,3.8635826110839844,16.31,2.32,0,0,1,0,1,0
1767802589.3609385,20260107121629.360899,18.340626666666665,-64.97713566666667,0.033007336836662,5.131750882794092,0.1572683769861711,0.410769201930446,-0.019585157874088564,1.7735590369496368,-0.5336859862491458,13.449917490360656,1,2.32,3.8635826110839844,16.31,2.32,0,0,1,0,1,0
1767802589.462662,20260107121629.462623,18.340626666666665,-64.97713566666667,0.033007336836662,5.131750882794092,0.1572683769861711,0.410769201930446,-0.019585157874088564,2.327834742535638,-0.2662680830899595,13.576129186067513,1,2.31,3.8635826110839844,16.31,2.31,0,0,1,0,1,0
1767802589.5662146,20260107121629.566175,18.340626666666665,-64.97713566666667,0.034710103551057685,5.131750882794092,0.1572683769861711,0.410769201930446,-0.013965189640311288,2.4665388587012758,0.3648651540258935,13.828883841774408,1,2.31,1.0681769847869873,16.31,2.31,0,0,1,0,1,0
1767802589.6588986,20260107121629.658859,18.340626666666665,-64.97713566666667,0.034710103551057685,5.131750882794092,0.1572683769861711,0.410769201930446,-0.013965189640311288,2.4665388587012758,0.3648651540258935,13.828883841774408,1,2.31,1.0681769847869873,16.31,2.31,0,0,1,0,1,0
1767802589.7596962,20260107121629.759657,18.340628499999998,-64.97713466666667,0.01042437687460987,5.131750882794092,0.1776756639047209,0.42308705177663747,-0.01251857789096987,2.1673886323638127,0.3305847424892742,14.037857917929243,1,2.33,1.0681769847869873,16.28,2.31,0,0,1,0,1,0
1767802589.8650832,20260107121629.865044,18.340628499999998,-64.97713466666667,0.01042437687460987,5.131750882794092,0.1776756639047209,0.42308705177663747,-0.01251857789096987,2.022186015766101,-0.6536953343633528,14.676031748575507,1,2.33,1.0681769847869873,16.28,2.31,0,0,1,0,1,0
1767802589.9611342,20260107121629.961095,18.340628499999998,-64.97713466666667,0.02467013588069063,5.131750882794092,0.1776756639047209,0.42308705177663747,-0.008958118226484239,2.022186015766101,-0.6536953343633528,14.676031748575507,1,2.31,1.0681769847869873,16.28,2.31,0,0,1,0,1,0
1767802590.0594337,20260107121630.059394,18.340628499999998,-64.97713466666667,0.02467013588069063,5.131750882794092,0.1776756639047209,0.42308705177663747,-0.008958118226484239,2.0366662354275453,-0.7731807854365521,14.877974901331006,1,2.31,1.0681769847869873,16.28,2.31,0,0,1,0,1,0
1767802590.165393,20260107121630.165354,18.340628499999998,-64.97713466666667,0.040375973308908214,5.131750882794092,0.1776756639047209,0.42308705177663747,0.003528917191876292,2.459810906519728,-0.23155918375141601,15.028146909213602,1,2.3,1.0681769847869873,16.28,2.3,0,0,1,0,1,0
1767802590.2612824,20260107121630.261243,18.340630333333333,-64.97713399999999,0.040375973308908214,5.131750882794092,0.1484293974792475,0.38109472677011363,0.003528917191876292,2.459810906519728,-0.23155918375141601,15.028146909213602,1,2.3,1.0681769847869873,16.28,2.3,0,0,1,0,1,0
1767802590.3660052,20260107121630.365966,18.340630333333333,-64.97713399999999,0.054588695488239435,5.131750882794092,0.1484293974792475,0.38109472677011363,0.03128388259948018,7.476751210641846,0.2932557176152275,14.378148309338641,1,2.29,1.0681769847869873,16.28,2.29,0,0,1,0,1,0
1767802590.4706175,20260107121630.470578,18.340630333333333,-64.97713399999999,0.054588695488239435,5.131750882794092,0.1484293974792475,0.38109472677011363,0.03128388259948018,7.476751210641846,0.2932557176152275,14.378148309338641,1,2.29,1.0681769847869873,16.28,2.29,0,0,1,0,1,0
1767802590.563668,20260107121630.563629,18.340630333333333,-64.97713399999999,0.04669724140733947,5.131750882794092,0.1484293974792475,0.38109472677011363,0.017133874363969504,9.11722321697472,0.28088869520556503,13.957756845796668,1,2.28,1.0681769847869873,16.28,2.28,0,0,1,0,1,0
1767802590.6575148,20260107121630.657475,18.340630333333333,-64.97713399999999,0.04669724140733947,5.131750882794092,0.1484293974792475,0.38109472677011363,0.017133874363969504,8.024308889168486,-0.09392489970791731,11.808778781480118,1,2.28,1.0681769847869873,16.28,2.28,0,0,1,0,1,0
1767802590.7609553,20260107121630.760916,18.340631666666663,-64.97713333333333,0.03265966643524388,5.131750882794092,0.1415763487531981,0.3361397282956515,0.02737409163296562,8.024308889168486,-0.09392489970791731,11.808778781480118,1,2.27,1.0681769847869873,16.28,2.27,0,0,1,0,1,0
