timestamp_ros,timestamp_sys (%Y%m%d%H%M%S.%f),latitude,longitude,depth,distance_to_ocean_floor,velX,velY,velZ,roll,pitch,yaw,navMode,acousticAltimeter,forwardStereo,battery_volts,altitudeUsed,cotsNumFound,cotsNumMaybe,missionState,errorState,storeData,storeImageData
1741018692.2783768,20250304021812.278342,18.33848985361122,-64.98324904669713,0.2876999999999992,10.214195145991964,0.32697258865483503,-0.08138919210664176,0.026706280106829162,-6.1664357258006905,6.1660852515936035,103.97789031354962,3,24.517000198364258,0.3039633333683014,16.7,24.517000198364258,0,0,1,0,1,0
1741018692.3770077,20250304021812.376973,18.33848977939237,-64.98324873827653,0.2876999999999992,10.214195145991964,0.3255077869863116,-0.0825216614397619,0.026706280106829162,-5.665493678140634,5.914102407538901,104.22576308980172,3,24.517000198364258,1.130651593208313,16.67,24.517000198364258,0,0,1,0,1,0
1741018692.4833877,20250304021812.483353,18.33848970321986,-64.98324843286669,0.0907,10.214195145991964,0.322390818170039,-0.08470978850653252,0.020357685972763752,-5.143207281692325,5.401404319453253,104.72200724629339,3,24.4950008392334,0.347047358751297,16.67,24.4950008392334,0,0,1,0,1,0
1741018692.577041,20250304021812.577006,18.33848962501759,-64.98324813188798,0.0907,10.214195145991964,0.31761099598977965,-0.08693903261939805,0.020357685972763752,-4.869115534275767,4.916807347208275,105.30851238494097,3,24.4950008392334,0.30744603276252747,16.67,24.4950008392334,0,0,1,0,1,0
1741018692.6834724,20250304021812.683437,18.338489546255822,-64.9832478358109,0.07269999999999932,10.214195145991964,0.3125486492815838,-0.08759191206884566,0.006482513451327221,-4.814312638100978,4.669484828268007,105.65559198681294,3,24.4950008392334,0.38227587938308716,16.67,24.4950008392334,0,0,1,0,1,0
1741018692.7800958,20250304021812.780061,18.33848946927926,-64.98324754234099,0.07269999999999932,10.214195145991964,0.3097547360757823,-0.0855950316334059,0.006482513451327221,-4.762919288201628,4.671891617037369,105.44719737206373,3,24.4950008392334,0.5113769173622131,16.67,24.4950008392334,0,0,1,0,1,0
1741018692.87768,20250304021812.877645,18.338489396261284,-64.9832472473703,0.06869999999999976,10.214195145991964,0.3113578780536928,-0.0811982161157058,-0.03311182513687028,-4.452368831732866,4.8382558747977145,104.61650434553894,3,24.493999481201172,0.5324654579162598,16.67,24.493999481201172,0,0,1,0,1,0
1741018692.9820561,20250304021812.982021,18.338489337441434,-64.98324694447324,0.06869999999999976,10.214195145991964,0.31964481329282834,-0.06539314225370951,-0.03311182513687028,-2.9337815947204797,4.69444362908007,101.56210242072021,3,24.493999481201172,0.4904652535915375,16.64,24.493999481201172,0,0,1,0,1,0
1741018693.0969532,20250304021813.096918,18.338489275242893,-64.98324662417738,0.06869999999999976,10.214195145991964,0.3380705387723863,-0.06916268906724941,-0.03311182513687028,-2.9337815947204797,4.69444362908007,101.56210242072021,3,24.493999481201172,0.4338935613632202,16.64,24.493999481201172,0,0,1,0,1,0
1741018693.1791797,20250304021813.179145,18.338489222143203,-64.98324630299776,0.06869999999999976,10.214195145991964,0.33901946214058276,-0.05904788093913499,-0.27312697085281806,-2.136121295823899,4.120100927259042,99.8802736041752,3,24.48200035095215,0.5398538708686829,16.64,24.48200035095215,0,0,1,0,1,0
1741018693.2778869,20250304021813.277852,18.338489175657614,-64.983245971265,0.06869999999999976,10.214195145991964,0.35003799354469795,-0.05167503904955567,-0.27312697085281806,-1.43603220509961,3.4093070052869754,98.3977805147377,3,24.48200035095215,0.3040168285369873,16.64,24.48200035095215,0,0,1,0,1,0
1741018693.3853862,20250304021813.385351,18.338489135849294,-64.9832456308447,0.06869999999999976,10.214195145991964,0.3593841189737185,-0.04427442654816016,-0.027255254323567964,-1.0742625686176097,2.8035665529549254,97.02321640560898,3,24.48200035095215,0.3975350558757782,16.64,24.48200035095215,0,0,1,0,1,0
1741018693.477125,20250304021813.477090,18.33848910391419,-64.9832452824366,0.06869999999999976,10.214195145991964,0.3677867040693364,-0.035514990103268064,-0.027255254323567964,-1.19305347458124,2.3100030332274875,95.51564797521503,3,24.48200035095215,0.40697938203811646,16.64,24.48200035095215,0,0,1,0,1,0
1741018693.588595,20250304021813.588560,18.338489082692583,-64.98324492546799,0.05969999999999942,10.214195145991964,0.3767170654286136,-0.023593862686679963,-0.015101226427435211,-1.7621994678027908,1.9205117834262686,93.58379828715596,3,24.47800064086914,0.31172943115234375,16.7,24.47800064086914,0,0,1,0,1,0
1741018693.6796596,20250304021813.679625,18.338489075319163,-64.98324455842074,0.05969999999999942,10.214195145991964,0.3874477049999709,-0.008199645769324986,-0.015101226427435211,-2.543991524036226,1.7046017425976836,91.21241552356157,3,24.47800064086914,0.3439122140407562,16.7,24.47800064086914,0,0,1,0,1,0
1741018693.7832117,20250304021813.783177,18.338489084818725,-64.98324417998171,0.05469999999999864,10.214195145991964,0.39940405754217495,0.010562241032864832,-0.016346768085536117,-3.1738971942923944,1.811714088121816,88.4851977062223,3,24.47800064086914,0.596541702747345,16.7,24.47800064086914,0,0,1,0,1,0
1741018693.8772352,20250304021813.877200,18.338489113132386,-64.9832437901704,0.05469999999999864,10.214195145991964,0.4114883010487373,0.03148727497212285,-0.016346768085536117,-3.5163183920413252,2.2726696327619393,85.62425839749848,3,24.47599983215332,0.35264360904693604,16.7,24.47599983215332,0,0,1,0,1,0
1741018693.9767444,20250304021813.976709,18.338489161408667,-64.98324339017988,0.05969999999999942,10.214195145991964,0.4221813287492453,0.05368079433613588,-0.010312169316955399,-3.50552562207654,2.8434599946141375,82.75369620256699,3,24.47599983215332,0.43395906686782837,16.7,24.47599983215332,0,0,1,0,1,0
1741018694.0771985,20250304021814.077164,18.338489230145516,-64.98324298198254,0.05969999999999942,10.214195145991964,0.430805386854071,0.07642516189487748,-0.010312169316955399,-3.1573337661892174,3.2275150522224747,79.94037698976372,3,24.47599983215332,0.41367989778518677,16.7,24.47599983215332,0,0,1,0,1,0
1741018694.1948884,20250304021814.194853,18.338489320022525,-64.98324256794227,0.06869999999999976,10.214195145991964,0.43702218828847655,0.0999413709630244,0.0006304285974026727,-2.9687000955641265,3.201998737020059,77.11872350244998,3,24.47599983215332,0.356867253780365,16.67,24.47599983215332,0,0,1,0,1,0
1741018694.2766075,20250304021814.276573,18.338489431089666,-64.98324214987889,0.06869999999999976,10.214195145991964,0.4412753943304692,0.1235062555530538,0.0006304285974026727,-3.6686530093431466,2.676911108236774,74.36390333334035,3,24.466999053955078,0.4362318813800812,16.67,24.466999053955078,0,0,1,0,1,0
1741018694.3818161,20250304021814.381781,18.33848956212299,-64.98324172940092,0.26569999999999894,10.214195145991964,0.4437661761895315,0.14568957552767184,0.23605770149176583,-5.44517517551333,1.8697397675201448,71.82488461568477,3,24.466999053955078,0.4362318813800812,16.67,24.466999053955078,0,0,1,0,1,0
1741018694.4903522,20250304021814.490317,18.338489711323792,-64.98324130838975,0.26569999999999894,10.214195145991964,0.4444037027542781,0.1659170361649539,0.23605770149176583,-7.670420440033077,1.3048937000837315,69.52703014545715,3,24.466999053955078,0.711955189704895,16.67,24.466999053955078,0,0,1,0,1,0
1741018694.5775335,20250304021814.577499,18.33848987707692,-64.98324088824285,0.08569999999999922,10.214195145991964,0.4433983046037351,0.18428515811859916,0.1162694785393695,-9.553974696975947,1.477297661498948,67.43128147192273,3,24.46500015258789,0.5320696234703064,16.67,24.46500015258789,0,0,1,0,1,0
1741018694.679397,20250304021814.679362,18.338490058723977,-64.98324047080553,0.08569999999999922,10.214195145991964,0.44066267903176876,0.20201291527124177,0.1162694785393695,-10.694060035604238,2.4038342846051015,65.37188990834031,3,24.46500015258789,0.5641443133354187,16.67,24.46500015258789,0,0,1,0,1,0
1741018694.7820969,20250304021814.782062,18.338490257443215,-64.98324005791098,0.08569999999999922,10.214195145991964,0.4357631060969827,0.22094643035108386,0.1102348797707888,-10.877110024586324,3.4874017086334668,63.113493881943555,3,24.46500015258789,1.487240195274353,16.62,24.46500015258789,0,0,1,0,1,0
1741018694.8784058,20250304021814.878371,18.338490474356725,-64.98323965168689,0.08569999999999922,10.214195145991964,0.42881375672281635,0.24122672261231604,0.1102348797707888,-10.278935503569246,3.935275088457776,60.64034126332676,3,24.46500015258789,0.7848222851753235,16.62,24.46500015258789,0,0,1,0,1,0
1741018694.9834607,20250304021814.983426,18.33849070926473,-64.98323925313501,0.08569999999999922,10.214195145991964,0.4206034454935283,0.2611689593543964,0.08818790381663104,-9.525921392476567,3.4107439068474026,58.1622743218449,3,24.479000091552734,0.4908386766910553,16.62,24.479000091552734,0,0,1,0,1,0
1741018695.0862086,20250304021815.086174,18.33849095939409,-64.9832388622685,0.08569999999999922,10.214195145991964,0.41258034071085087,0.2781509174997035,0.08818790381663104,-9.010511718320851,2.158039167264118,56.01319721975003,3,24.479000091552734,0.8581727147102356,16.62,24.479000091552734,0,0,1,0,1,0
1741018695.177203,20250304021815.177168,18.338491220691903,-64.98323847772457,0.07269999999999932,10.214195145991964,0.4058813085648575,0.29055251699754897,0.06604331058440564,-8.759285317987205,0.9129101773962526,54.402815622564894,3,24.479000091552734,2.4883906841278076,16.62,24.479000091552734,0,0,1,0,1,0
1741018695.2807896,20250304021815.280755,18.33849148979228,-64.98323809836883,0.07269999999999932,10.214195145991964,0.40038137744538826,0.2992108201593971,0.06604331058440564,-8.847400766202808,0.4917619499679791,53.22872275989923,3,24.479000091552734,0.4206562638282776,16.62,24.479000091552734,0,0,1,0,1,0
1741018695.3816352,20250304021815.381600,18.338491774576617,-64.98323773182776,0.06369999999999898,10.214195145991964,0.3869056302189365,0.31668994578074955,-0.027344717553177536,-9.586836456370355,3.0747164087779955,50.699011032089324,3,24.459999084472656,0.6006988286972046,16.67,24.459999084472656,0,0,1,0,1,0
1741018695.477922,20250304021815.477887,18.33849205891344,-64.98323736586266,0.06369999999999898,10.214195145991964,0.3862854209092152,0.3161822921377741,-0.027344717553177536,-9.586836456370355,3.0747164087779955,50.699011032089324,3,24.459999084472656,0.5191792845726013,16.67,24.459999084472656,0,0,1,0,1,0
1741018695.5821638,20250304021815.582129,18.338492352656107,-64.98323700816523,0.05969999999999942,10.214195145991964,0.37751118855303173,0.3266004771642345,-0.032394035733392,-9.39594028477371,4.672715935787571,49.135585294690465,3,24.459999084472656,0.553313136100769,16.67,24.459999084472656,0,0,1,0,1,0
1741018695.683077,20250304021815.683042,18.338492654269537,-64.9832366594595,0.05969999999999942,10.214195145991964,0.3680356711712605,0.3353646455648695,-0.032394035733392,-7.662961017018561,5.217989768993866,47.659338415482374,3,24.43899917602539,0.8236565589904785,16.67,24.43899917602539,0,0,1,0,1,0
1741018695.793229,20250304021815.793194,18.338492960411376,-64.98323631700525,0.07269999999999932,10.214195145991964,0.3615222821766342,0.34047952170559953,-0.01036533429579222,-3.677707282099131,4.376317636339379,46.71696450636531,3,24.43899917602539,0.8236565589904785,16.67,24.43899917602539,0,0,1,0,1,0
1741018695.8774905,20250304021815.877456,18.338493266449884,-64.98323597493976,0.07269999999999932,10.214195145991964,0.36097245001465605,0.3402331618989947,-0.01036533429579222,1.1103063435293696,2.6964349975168838,46.69413800599719,3,24.43899917602539,0.4620378613471985,16.67,24.43899917602539,0,0,1,0,1,0
1741018695.9768994,20250304021815.976864,18.338493568372204,-64.9832356284354,0.08169999999999966,10.214195145991964,0.36572978521421284,0.33572419352200356,-0.0013628717171658088,4.1546856024876195,0.8783288105417171,47.44942400957492,3,24.43899917602539,0.5461332201957703,16.64,24.43899917602539,0,0,1,0,1,0
1741018696.0856094,20250304021816.085575,18.338493865929628,-64.98323527664877,0.08169999999999966,10.214195145991964,0.3713472224024946,0.3309081244744141,-0.0013628717171658088,5.073122685559092,-0.4086498305518048,48.29573256167315,3,24.4060001373291,0.5165395140647888,16.64,24.4060001373291,0,0,1,0,1,0
1741018696.1863608,20250304021816.186326,18.338494161725972,-64.98323492117926,0.06369999999999898,10.214195145991964,0.3745429873661769,0.32834311423858853,0.006281338253501474,4.330373498685654,-0.9869044178970031,48.76059198770667,3,24.4060001373291,0.5123879909515381,16.64,24.4060001373291,0,0,1,0,1,0
1741018696.2770472,20250304021816.277012,18.33849445621506,-64.98323456633665,0.06369999999999898,10.214195145991964,0.37519148581442574,0.32803653049848047,0.006281338253501474,3.097733514180776,-1.2911091994710138,48.83624319000388,3,24.4060001373291,0.6195839643478394,16.64,24.4060001373291,0,0,1,0,1,0
1741018696.3824553,20250304021816.382420,18.33849474810766,-64.98323420791388,0.06869999999999976,10.214195145991964,0.37824658703123,0.32451764725128324,0.009981136098178864,2.1528204739853702,-2.6988919455058746,49.37198805213714,3,24.392000198364258,0.6132049560546875,16.64,24.392000198364258,0,0,1,0,1,0
1741018696.4829853,20250304021816.482950,18.338495039977538,-64.98323384951902,0.06869999999999976,10.214195145991964,0.3783277749301766,0.3245873026212318,0.009981136098178864,2.1528204739853702,-2.6988919455058746,49.37198805213714,3,24.392000198364258,0.5856872797012329,16.64,24.392000198364258,0,0,1,0,1,0
1741018696.580123,20250304021816.580088,18.338495323875545,-64.98323348389691,0.08169999999999966,10.214195145991964,0.38582546741102497,0.3156142436848077,0.027244840865509556,1.6198401319071618,-3.2371776389188933,50.71605023307348,3,24.392000198364258,0.527587354183197,16.73,24.392000198364258,0,0,1,0,1,0
1741018696.6886706,20250304021816.688636,18.33849559611077,-64.98323310813127,0.08169999999999966,10.214195145991964,0.3966830226965955,0.30276570072243525,0.027244840865509556,0.757361794858237,-2.823126514184461,52.64757377948311,3,24.392000198364258,0.5490022301673889,16.73,24.392000198364258,0,0,1,0,1,0
1741018696.7786243,20250304021816.778589,18.338495856577094,-64.98323272234266,0.08169999999999966,10.214195145991964,0.40714820812686975,0.28959464467605717,0.027244840865509556,-0.06665439920034516,-1.3743809746160964,54.5766999286368,3,24.386999130249023,0.9045665264129639,16.73,24.386999130249023,0,0,1,0,1,0
1741018696.8767614,20250304021816.876727,18.338496107575462,-64.98323232954648,0.08169999999999966,10.214195145991964,0.4146240897916389,0.27912194987488365,0.003365604994952205,-0.6204095161194008,0.4156284454294615,56.05186422247436,3,24.386999130249023,0.6726744771003723,16.73,24.386999130249023,0,0,1,0,1,0
1741018696.9904923,20250304021816.990457,18.338496351895895,-64.9832319324173,0.08169999999999966,10.214195145991964,0.419124887951995,0.27164845606360016,0.003365604994952205,-1.1685700124166927,1.5966089426860344,57.05143715170767,3,24.386999130249023,0.6679568290710449,16.73,24.386999130249023,0,0,1,0,1,0
1741018697.0771174,20250304021817.077083,18.33849658982766,-64.98323153179034,0.06869999999999976,10.214195145991964,0.4229134675682344,0.26460594713021773,0.006507438653254347,-1.7262814111053963,1.715416710685207,57.96687748820928,3,24.386999130249023,0.49998101592063904,16.73,24.386999130249023,0,0,1,0,1,0
1741018697.189829,20250304021817.189794,18.338496819579767,-64.98323112640402,0.06869999999999976,10.214195145991964,0.4278053006991355,0.2554303013344311,0.006507438653254347,-2.4413098384335656,0.8731976290930197,59.15980460424568,3,24.375999450683594,0.49283963441848755,16.64,24.375999450683594,0,0,1,0,1,0
1741018697.2853515,20250304021817.285317,18.33849703852646,-64.98323071552397,0.06869999999999976,10.214195145991964,0.4336993341757508,0.24347138171057883,0.00031235678403224165,-3.2536475787743946,-0.4640433782184366,60.690913290031204,3,24.375999450683594,0.5643359422683716,16.64,24.375999450683594,0,0,1,0,1,0
1741018697.3799806,20250304021817.379946,18.338497236874144,-64.9832302948823,0.06869999999999976,10.214195145991964,0.44402584692022073,0.22057635166416195,0.00031235678403224165,-4.369299187570811,-2.2252503871634453,63.58346016421463,3,24.375999450683594,0.6160678863525391,16.64,24.375999450683594,0,0,1,0,1,0
1741018697.477046,20250304021817.477011,18.33849743359858,-64.98322987768312,0.07669999999999888,10.214195145991964,0.44027696583216946,0.21871404000154,-0.007516854586008304,-4.369299187570811,-2.2252503871634453,63.58346016421463,3,24.375999450683594,0.5450740456581116,16.64,24.375999450683594,0,0,1,0,1,0
1741018697.5774379,20250304021817.577403,18.338497623474158,-64.98322945723496,0.07669999999999888,10.214195145991964,0.44383156656323214,0.2111595405433783,-0.007516854586008304,-4.665370491595568,-2.2386501558892293,64.55655158679332,3,24.375999450683594,0.8412135243415833,16.64,24.375999450683594,0,0,1,0,1,0
1741018697.6886797,20250304021817.688645,18.338497807277324,-64.9832290354968,0.05069999999999908,10.214195145991964,0.44508685282473315,0.20435756024439813,-0.039934284636188686,-4.941623994657399,-1.9414830329976838,65.33823457340445,3,24.375999450683594,0.5371869802474976,16.64,24.375999450683594,0,0,1,0,1,0
1741018697.7795618,20250304021817.779527,18.338500833333335,-64.98324433333333,0.05069999999999908,10.214195145991964,0.22714500658496706,0.3137885195977343,-0.039934284636188686,-5.519701103742423,-1.5512225328661362,66.14022286590483,1,24.375999450683594,0.6712766289710999,16.67,24.375999450683594,0,0,1,0,1,0
1741018697.8836122,20250304021817.883577,18.338500833333335,-64.98324433333333,0.05469999999999864,10.214195145991964,0.22714500658496706,0.3137885195977343,-0.027941720417259258,-6.585511523683372,-1.1728736734628522,67.08023567050542,1,24.371999740600586,0.564924418926239,16.67,24.371999740600586,0,0,1,0,1,0
1741018697.9801364,20250304021817.980101,18.338500833333335,-64.98324433333333,0.05469999999999864,10.214195145991964,0.22714500658496706,0.3137885195977343,-0.027941720417259258,-8.070236805117132,-0.9482055127177242,68.09123977917577,1,24.371999740600586,0.5967214703559875,16.67,24.371999740600586,0,0,1,0,1,0
1741018698.1057959,20250304021818.105761,18.338500833333335,-64.98324433333333,0.09469999999999956,10.214195145991964,0.22714500658496706,0.3137885195977343,0.024726628569305343,-9.730877513507009,-0.8263417142199208,69.04123490881769,1,24.371999740600586,0.6784677505493164,16.67,24.371999740600586,0,0,1,0,1,0
1741018698.1821103,20250304021818.182075,18.338500833333335,-64.98324433333333,0.09469999999999956,10.214195145991964,0.22714500658496706,0.3137885195977343,0.024726628569305343,-11.499080933180448,-0.5660640293391284,69.80893051678088,1,24.371999740600586,0.7473120093345642,16.67,24.371999740600586,0,0,1,0,1,0
1741018698.2854564,20250304021818.285421,18.338502166666668,-64.98324283333334,0.08569999999999922,10.214195145991964,0.283601311147133,0.30949652176925774,0.010924040066529077,-13.327984265711905,-0.04056050591970251,70.37009905964278,1,24.371999740600586,0.7333273887634277,16.67,24.371999740600586,0,0,1,0,1,0
1741018698.384302,20250304021818.384267,18.338502166666668,-64.98324283333334,0.08569999999999922,10.214195145991964,0.283601311147133,0.30949652176925774,0.010924040066529077,-15.105791788566112,0.6533775170099119,70.80438313292409,1,24.371999740600586,0.7371132969856262,16.67,24.371999740600586,0,0,1,0,1,0
1741018698.477961,20250304021818.477926,18.338502166666668,-64.98324283333334,0.06869999999999976,10.214195145991964,0.283601311147133,0.30949652176925774,0.022201288918596285,-16.435090510332586,1.0100459608532624,71.18127182542679,1,24.371999740600586,0.6436926126480103,16.67,24.371999740600586,0,0,1,0,1,0
1741018698.5776827,20250304021818.577648,18.338502166666668,-64.98324283333334,0.06869999999999976,10.214195145991964,0.283601311147133,0.30949652176925774,0.022201288918596285,-16.950763146865366,0.587224763366968,71.74209843182112,1,24.382999420166016,0.8291218876838684,16.67,24.382999420166016,0,0,1,0,1,0
1741018698.6823058,20250304021818.682271,18.338502166666668,-64.98324283333334,0.06869999999999976,10.214195145991964,0.283601311147133,0.30949652176925774,0.022201288918596285,-16.945748078674075,-0.6126662666268535,72.64068100164974,1,24.382999420166016,1.9831351041793823,16.67,24.382999420166016,0,0,1,0,1,0
1741018698.7833285,20250304021818.783294,18.338503333333332,-64.98324133333334,0.06869999999999976,10.214195145991964,0.283655642950888,0.2623004051484327,0.017194154803981673,-17.028331925457717,-1.9387161650642597,73.67148290797243,1,24.382999420166016,0.7443137168884277,16.67,24.382999420166016,0,0,1,0,1,0
1741018698.8806746,20250304021818.880640,18.338503333333332,-64.98324133333334,0.06869999999999976,10.214195145991964,0.283655642950888,0.2623004051484327,0.017194154803981673,-17.804899098551278,-2.5136063494317096,74.41635073490659,1,24.384000778198242,0.9731363654136658,16.67,24.384000778198242,0,0,1,0,1,0
1741018698.987468,20250304021818.987433,18.338503333333332,-64.98324133333334,0.08569999999999922,10.214195145991964,0.283655642950888,0.2623004051484327,-0.011209680318625102,-19.19390735539197,-2.1043523670874373,74.7096929504953,1,24.384000778198242,0.8575122952461243,16.64,24.384000778198242,0,0,1,0,1,0
1741018699.0868454,20250304021819.086810,18.338503333333332,-64.98324133333334,0.08569999999999922,10.214195145991964,0.283655642950888,0.2623004051484327,-0.011209680318625102,-20.531793335562945,-1.2633651745855683,74.78344984183751,1,24.384000778198242,1.3691965341567993,16.64,24.384000778198242,0,0,1,0,1,0
1741018699.1915834,20250304021819.191548,18.338503333333332,-64.98324133333334,0.08569999999999922,10.214195145991964,0.283655642950888,0.2623004051484327,7.346391756914844e-05,-21.136147472441195,-0.7168311710268148,75.20658960372948,1,24.384000778198242,1.6448816061019897,16.64,24.384000778198242,0,0,1,0,1,0
1741018699.2784543,20250304021819.278419,18.338503333333332,-64.98324133333334,0.08569999999999922,10.214195145991964,0.283655642950888,0.2623004051484327,7.346391756914844e-05,-21.733579210120443,-0.7160276630166733,76.17784135688613,1,24.39900016784668,0.7532152533531189,16.64,24.39900016784668,0,0,1,0,1,0
1741018699.379287,20250304021819.379252,18.338504166666667,-64.98323983333333,0.08569999999999922,10.214195145991964,0.29263413312429337,0.21598508977482622,0.021213645115682325,-23.148224591177698,-0.7872983646120689,77.46212431344944,1,24.39900016784668,0.5941944718360901,16.64,24.39900016784668,0,0,1,0,1,0
1741018699.4803872,20250304021819.480352,18.338504166666667,-64.98323983333333,0.08569999999999922,10.214195145991964,0.29263413312429337,0.21598508977482622,0.021213645115682325,-24.523514408165216,-0.5260212305992661,78.60589827571357,1,24.39900016784668,0.6868751049041748,16.64,24.39900016784668,0,0,1,0,1,0
1741018699.582383,20250304021819.582348,18.338504166666667,-64.98323983333333,0.07669999999999888,10.214195145991964,0.29263413312429337,0.21598508977482622,0.009915855465461466,-25.459209677892925,0.13921469966910716,79.35062352239784,1,24.39900016784668,1.0154012441635132,16.7,24.39900016784668,0,0,1,0,1,0
1741018699.6887076,20250304021819.688673,18.338504166666667,-64.98323983333333,0.07669999999999888,10.214195145991964,0.29263413312429337,0.21598508977482622,0.009915855465461466,-26.034779679769276,0.902547922946528,79.80243087914731,1,24.488000869750977,0.6306217908859253,16.7,24.488000869750977,0,0,1,0,1,0
1741018699.7820723,20250304021819.782037,18.338505333333334,-64.98323833333333,0.06869999999999976,10.214195145991964,0.29621462251523367,0.2316780994914436,-0.0013846780777518482,-26.25719974697828,1.2851799528211525,80.31227757567835,1,24.488000869750977,0.7592665553092957,16.7,24.488000869750977,0,0,1,0,1,0
1741018699.8766541,20250304021819.876619,18.338505333333334,-64.98323833333333,0.06869999999999976,10.214195145991964,0.29621462251523367,0.2316780994914436,-0.0013846780777518482,-26.002628260302544,1.1436296744663408,81.08435603222172,1,24.488000869750977,0.7484145164489746,16.7,24.488000869750977,0,0,1,0,1,0
1741018699.9864264,20250304021819.986391,18.338505333333334,-64.98323833333333,0.1166999999999998,10.214195145991964,0.29621462251523367,0.2316780994914436,0.02962975038569477,-25.333790284413098,0.7560908989705317,82.15085160575877,1,24.518999099731445,1.0121313333511353,16.7,24.518999099731445,0,0,1,0,1,0
1741018700.0778682,20250304021820.077833,18.338505333333334,-64.98323833333333,0.1166999999999998,10.214195145991964,0.29621462251523367,0.2316780994914436,0.02962975038569477,-24.399437147337206,0.507089326832835,83.35953768139252,1,24.518999099731445,1.6111856698989868,16.7,24.518999099731445,0,0,1,0,1,0
1741018700.1782367,20250304021820.178202,18.338505333333334,-64.98323833333333,0.06869999999999976,10.214195145991964,0.29621462251523367,0.2316780994914436,-0.015153895246988958,-23.285736838907,0.5486046188347177,84.52079319892299,1,24.518999099731445,1.6111856698989868,16.64,24.518999099731445,0,0,1,0,1,0
1741018700.2795382,20250304021820.279503,18.338505333333334,-64.98323833333333,0.06869999999999976,10.214195145991964,0.29621462251523367,0.2316780994914436,-0.015153895246988958,-22.20111948636174,1.0108790307864686,85.60897463082888,1,24.518999099731445,0.634099543094635,16.64,24.518999099731445,0,0,1,0,1,0
1741018700.3817925,20250304021820.381758,18.338506166666665,-64.98323666666667,0.08569999999999922,10.214195145991964,0.31310503608164014,0.19595381268411496,0.01739219453922035,-21.23202457965015,1.9029848714187885,86.58371810600381,1,24.61199951171875,0.5535189509391785,16.64,24.61199951171875,0,0,1,0,1,0
1741018700.490933,20250304021820.490898,18.338506166666665,-64.98323666666667,0.08569999999999922,10.214195145991964,0.31310503608164014,0.19595381268411496,0.01739219453922035,-20.468955572730298,2.865854698806271,87.28438733612818,1,24.61199951171875,0.7661067843437195,16.64,24.61199951171875,0,0,1,0,1,0
1741018700.6164153,20250304021820.616380,18.338506166666665,-64.98323666666667,0.08569999999999922,10.214195145991964,0.31310503608164014,0.19595381268411496,0.01739219453922035,-19.861809595030547,3.3902029593475316,87.71474148791057,1,24.61199951171875,0.515548825263977,16.64,24.61199951171875,0,0,1,0,1,0
1741018700.6785758,20250304021820.678541,18.33850618089874,-64.98323623853564,0.27869999999999884,10.214195145991964,0.45186677729681046,0.015824775940988033,0.19051121240880492,-19.39233295946717,2.9902075151771474,87.99430208437363,3,24.614999771118164,0.575401246547699,16.64,24.614999771118164,0,0,1,0,1,0
1741018700.7879498,20250304021820.787915,18.338506192395236,-64.9832358127909,0.27869999999999884,10.214195145991964,0.44933397697481686,0.01278266448016987,0.19051121240880492,-18.851011245882507,1.8921124870330226,88.37051928366344,3,24.614999771118164,0.479566752910614,16.64,24.614999771118164,0,0,1,0,1,0
1741018700.877565,20250304021820.877530,18.338506199851032,-64.98323538874142,0.07669999999999888,10.214195145991964,0.44760444945587613,0.008291014378461031,-0.16435925725676093,-18.42186518424153,0.77880534150751,88.93885867394427,3,24.614999771118164,0.47508886456489563,16.64,24.614999771118164,0,0,1,0,1,0
1741018700.983113,20250304021820.983078,18.33850620233124,-64.98323496719082,0.07669999999999888,10.214195145991964,0.444934696484054,0.0027578544884559347,-0.16435925725676093,-18.181727599990367,0.18884980883702102,89.64489814222377,3,24.614999771118164,0.600978672504425,16.64,24.614999771118164,0,0,1,0,1,0
1741018701.0799637,20250304021821.079929,18.338506200527306,-64.98323454890036,0.07669999999999888,10.214195145991964,0.441461718940325,-0.0020057224610092847,-0.1121681740276535,-18.02571748582721,0.1550518863047615,90.26034621782819,3,24.610000610351562,0.566718578338623,16.64,24.610000610351562,0,0,1,0,1,0
1741018701.1905031,20250304021821.190468,18.338506195118963,-64.98323413378034,0.07669999999999888,10.214195145991964,0.4381928556241653,-0.0060143846973777235,-0.1121681740276535,-17.82515403177738,0.3816095021655021,90.7863922078721,3,24.610000610351562,0.6759840846061707,16.64,24.610000610351562,0,0,1,0,1,0
1741018701.2788415,20250304021821.278807,18.338506181462396,-64.98323372163495,0.06369999999999898,10.214195145991964,0.43502190600023605,-0.015185801242725493,-0.14731017240961586,-16.59391466343999,0.8597456734344495,91.99930958720962,3,24.610000610351562,0.5734570622444153,16.64,24.610000610351562,0,0,1,0,1,0
1741018701.3766086,20250304021821.376574,18.33850616799675,-64.98323331525127,0.06369999999999898,10.214195145991964,0.42892482405226195,-0.014972963513531931,-0.14731017240961586,-16.59391466343999,0.8597456734344495,91.99930958720962,3,24.648000717163086,0.6813602447509766,16.7,24.648000717163086,0,0,1,0,1,0
1741018701.4777215,20250304021821.477687,18.3385061515095,-64.98323290973124,0.07669999999999888,10.214195145991964,0.4280175572582319,-0.01833298257675588,-0.29214055941563283,-16.163646742826693,0.9569846568178543,92.45264477244537,3,24.648000717163086,0.6512686610221863,16.7,24.648000717163086,0,0,1,0,1,0
1741018701.577184,20250304021821.577149,18.338506134138715,-64.98323250688945,0.07669999999999888,10.214195145991964,0.42510553967335424,-0.01931154948545953,-0.29214055941563283,-16.16004723184705,0.5463907829783992,92.60105800598778,3,24.648000717163086,0.5529243350028992,16.7,24.648000717163086,0,0,1,0,1,0
1741018701.688002,20250304021821.687967,18.338506118294177,-64.98323210552374,0.06869999999999976,10.214195145991964,0.4236966729889792,-0.017620975509512242,-0.007161584939522802,-16.237552831166983,-0.44432952423410915,92.38151515699545,3,24.648000717163086,0.9689937829971313,16.7,24.648000717163086,0,0,1,0,1,0
1741018701.7782264,20250304021821.778191,18.33850610620665,-64.9832317037979,0.06869999999999976,10.214195145991964,0.42404520646637806,-0.013441728914595937,-0.007161584939522802,-16.269273948562148,-1.1835192741427427,91.81563297287052,3,24.635000228881836,0.5313751697540283,16.7,24.635000228881836,0,0,1,0,1,0
1741018701.885593,20250304021821.885558,18.338506098799165,-64.9832313002644,0.07269999999999932,10.214195145991964,0.4259227692206496,-0.008236778002679374,-0.002171287948235787,-16.28822943783402,-0.9293884415477387,91.10791840009816,3,24.635000228881836,0.6005496382713318,16.7,24.635000228881836,0,0,1,0,1,0
1741018701.9802845,20250304021821.980250,18.33850609547633,-64.98323089432628,0.07269999999999932,10.214195145991964,0.42841493310856155,-0.003694430982283109,-0.002171287948235787,-16.572218559783696,0.49858648532779715,90.49410957048066,3,24.635000228881836,0.5984970927238464,16.7,24.635000228881836,0,0,1,0,1,0
1741018702.085568,20250304021822.085533,18.338506095517072,-64.98323048656077,0.06369999999999898,10.214195145991964,0.4304103903172519,4.531776335320607e-05,0.0006023871882539587,-16.845113743007186,2.4652306635640704,89.99399952553634,3,24.635000228881836,0.49966898560523987,16.7,24.635000228881836,0,0,1,0,1,0
1741018702.182922,20250304021822.182887,18.33850609895201,-64.98323007764569,0.06369999999999898,10.214195145991964,0.4316241600803057,0.0038196996832022597,0.0006023871882539587,-16.04974305240512,3.8989909761786605,89.49300070190853,3,24.621000289916992,0.56601881980896,16.7,24.621000289916992,0,0,1,0,1,0
1741018702.27675,20250304021822.276715,18.33850610687081,-64.98322966772542,0.05969999999999942,10.214195145991964,0.43265685979664886,0.00880521825015096,-0.004329711517664488,-13.491391477391117,4.0729683362648,88.83413736709483,3,24.621000289916992,0.696083664894104,16.7,24.621000289916992,0,0,1,0,1,0
1741018702.3795726,20250304021822.379538,18.33850611961774,-64.98322925598727,0.05969999999999942,10.214195145991964,0.4345596568188648,0.014173272517080277,-0.004329711517664488,-9.759577978661653,2.9529801961250746,88.1319774476511,3,24.621000289916992,0.4358435571193695,16.7,24.621000289916992,0,0,1,0,1,0
1741018702.4852252,20250304021822.485190,18.338506137190606,-64.98322884211117,0.05969999999999942,10.214195145991964,0.4368807113092008,0.019542104363513137,-0.004329711517664488,-6.693589914433657,1.289037303534164,87.43884191887503,3,24.61400032043457,0.8002063632011414,16.7,24.61400032043457,0,0,1,0,1,0
1741018702.5845366,20250304021822.584502,18.3385061600944,-64.98322842612544,0.18269999999999875,10.214195145991964,0.4390095550181164,0.02546473040976886,0.09036587017110156,-5.123788193164763,0.06310982323839891,86.68031157428152,3,24.61400032043457,0.831785261631012,16.64,24.61400032043457,0,0,1,0,1,0
1741018702.6822896,20250304021822.682255,18.338506190690058,-64.98322800844015,0.18269999999999875,10.214195145991964,0.4409120965272128,0.034025037901724384,0.09036587017110156,-4.582190283706783,0.1150765890679459,85.58728027944392,3,24.61400032043457,0.7691918015480042,16.64,24.61400032043457,0,0,1,0,1,0
1741018702.7828088,20250304021822.782774,18.338506232119787,-64.98322758818664,0.06369999999999898,10.214195145991964,0.44354864763013924,0.04606573057827907,-0.04351280785756337,-4.799242247195543,1.3517267231427286,84.07070709518318,3,24.61400032043457,0.646300733089447,16.64,24.61400032043457,0,0,1,0,1,0
1741018702.8942637,20250304021822.894229,18.338506285646517,-64.98322716454435,0.06369999999999898,10.214195145991964,0.4471467036001108,0.05951923253186386,-0.04351280785756337,-5.369377124096452,2.748117990229293,82.41801758360391,3,24.618000030517578,0.46785968542099,16.64,24.618000030517578,0,0,1,0,1,0
1741018702.9876006,20250304021822.987566,18.33850635054169,-64.98322673760903,0.04669999999999952,10.214195145991964,0.4506156610252572,0.07215933774174722,-0.05398090424412077,-5.814117366962134,3.343489998250467,80.90221044802121,3,24.618000030517578,0.704367995262146,16.64,24.618000030517578,0,0,1,0,1,0
1741018703.0844839,20250304021823.084449,18.33850642604697,-64.9832263081911,0.04669999999999952,10.214195145991964,0.45323446071713136,0.08395681798170622,-0.05398090424412077,-5.988950635434687,2.7084569885283845,79.50555568494886,3,24.618000030517578,1.02735435962677,16.64,24.618000030517578,0,0,1,0,1,0
1741018703.1802,20250304021823.180165,18.33850651235784,-64.98322587695077,0.06369999999999898,10.214195145991964,0.45517901171279895,0.09597634636909352,-0.027269871262667913,-6.2873681102782495,1.0868450622283066,78.09338922321963,3,24.6200008392334,0.9754543900489807,16.64,24.6200008392334,0,0,1,0,1,0
1741018703.290763,20250304021823.290728,18.338506610678966,-64.9832254444312,0.06369999999999898,10.214195145991964,0.45645524749356864,0.1093138451489286,-0.027269871262667913,-6.703884720741211,-0.8433595101479308,76.53223795296788,3,24.6200008392334,0.6357259154319763,16.64,24.6200008392334,0,0,1,0,1,0
1741018703.3852654,20250304021823.385230,18.33850672251591,-64.98322501159824,0.06369999999999898,10.214195145991964,0.4569068754091107,0.12437368370088353,-0.12977999413730124,-7.704639700010422,-1.8004656163103736,74.77260674393303,3,24.6200008392334,0.8800157308578491,16.64,24.6200008392334,0,0,1,0,1,0
1741018703.4867177,20250304021823.486683,18.338506849352342,-64.98322457902381,0.06369999999999898,10.214195145991964,0.45654223148047535,0.14102626730696866,-0.12977999413730124,-9.014796809783576,-1.3098375848717843,72.83406474875488,3,24.6200008392334,0.6907739043235779,16.64,24.6200008392334,0,0,1,0,1,0
1741018703.5768464,20250304021823.576811,18.33850699168397,-64.98322414734216,0.06369999999999898,10.214195145991964,0.4556220292537099,0.15826263738522547,-0.0008916130999232878,-10.066478978374601,0.06922524597059655,70.8450937413556,3,24.628999710083008,0.6227176189422607,16.64,24.628999710083008,0,0,1,0,1,0
1741018703.6780293,20250304021823.677994,18.338507148929764,-64.98322371726205,0.06369999999999898,10.214195145991964,0.4539564464287753,0.17485566927793741,-0.0008916130999232878,-10.595926403841377,1.4004763620011647,68.93425799156553,3,24.628999710083008,0.6798107624053955,16.64,24.628999710083008,0,0,1,0,1,0
1741018703.7821906,20250304021823.782156,18.33850732011489,-64.98322328968382,0.06369999999999898,10.214195145991964,0.4513196106387518,0.19035771074221106,-0.0007132904799386303,-10.971628777438402,2.0337851752281315,67.1309661700321,3,24.628999710083008,0.8835436105728149,16.62,24.628999710083008,0,0,1,0,1,0
1741018703.8888843,20250304021823.888849,18.338507504563385,-64.983222865432,0.06369999999999898,10.214195145991964,0.4477928339118573,0.20509939481907494,-0.0007132904799386303,-11.360071165940164,1.5220392585419258,65.39115671066472,3,24.628999710083008,0.7398375868797302,16.62,24.628999710083008,0,0,1,0,1,0
1741018703.989062,20250304021823.989027,18.338507700766577,-64.983222444539,0.07269999999999932,10.214195145991964,0.44420506223322087,0.21814924230173144,0.009774056396305776,-10.906756471279264,-0.14626946051100614,63.84435395210213,3,24.610000610351562,0.6121756434440613,16.62,24.610000610351562,0,0,1,0,1,0
1741018704.089323,20250304021824.089288,18.338507906584123,-64.98322202699902,0.07269999999999932,10.214195145991964,0.44076052416178774,0.22888791588819357,0.009774056396305776,-9.891019893595578,-1.97003045917152,62.557070300264435,3,24.610000610351562,0.6121756434440613,16.62,24.610000610351562,0,0,1,0,1,0
1741018704.1801643,20250304021824.180129,18.338508120119506,-64.98322161259465,0.08169999999999966,10.214195145991964,0.43734664654356503,0.23741446574946967,0.016707645692568895,-9.163427755683664,-2.6827598866917053,61.504614612473304,3,24.610000610351562,1.1898565292358398,16.62,24.610000610351562,0,0,1,0,1,0
1741018704.2914538,20250304021824.291419,18.338508340972286,-64.98322120191663,0.08169999999999966,10.214195145991964,0.43351496803300904,0.24560734440842238,0.016707645692568895,-9.317381982171538,-1.874281844942257,60.46635547794824,3,24.60700035095215,1.1188290119171143,16.62,24.60700035095215,0,0,1,0,1,0
1741018704.387063,20250304021824.387028,18.338508666666666,-64.98322466666667,0.08169999999999966,10.214195145991964,0.35338030217764926,0.08386124586221509,0.016707645692568895,-9.917157329347733,-0.38710657911327134,59.433896883649865,1,24.60700035095215,0.6622759103775024,16.67,24.60700035095215,0,0,1,0,1,0
1741018704.4954805,20250304021824.495446,18.338508901773036,-64.98322426280524,0.23569999999999958,10.214195145991964,0.42625894452573776,0.261421488895699,0.16492634776214,-10.438206180453303,0.668761029512077,58.479536407793816,3,24.60700035095215,0.5967220067977905,16.67,24.60700035095215,0,0,1,0,1,0
1741018704.582921,20250304021824.582886,18.33850914284894,-64.9832238630374,0.23569999999999958,10.214195145991964,0.4219873950332012,0.268090354815549,0.16492634776214,-11.136606933188448,0.7322227943815451,57.57205495206837,3,24.60700035095215,0.8579505085945129,16.67,24.60700035095215,0,0,1,0,1,0
1741018704.6810575,20250304021824.681023,18.338509389294238,-64.98322346705044,0.05469999999999864,10.214195145991964,0.41795489966013705,0.27403424018960865,-0.032207156819581306,-12.825331681939963,-0.08833281372756449,56.74896563635592,3,24.66900062561035,0.7351078391075134,16.67,24.66900062561035,0,0,1,0,1,0
1741018704.7766461,20250304021824.776611,18.338509639571225,-64.9832230739568,0.05469999999999864,10.214195145991964,0.414860111088316,0.2782674146218599,-0.032207156819581306,-14.528403248172996,-1.1965969566453107,56.148287362580106,3,24.66900062561035,0.6219213604927063,16.67,24.66900062561035,0,0,1,0,1,0
1741018704.8795662,20250304021824.879531,18.338509892196914,-64.98322268301474,0.05969999999999942,10.214195145991964,0.4126712147097128,0.28093449792044306,-0.03581801924523723,-15.20409361379743,-1.7376491978265216,55.75413066502074,3,24.66900062561035,0.6292045712471008,16.67,24.66900062561035,0,0,1,0,1,0
1741018704.9795864,20250304021824.979551,18.33851014692922,-64.983222293749,0.05969999999999942,10.214195145991964,0.41078705194017295,0.28319811726051836,-0.03581801924523723,-14.822200525277847,-1.2789573280971356,55.41749613367182,3,24.67799949645996,0.6374638676643372,16.7,24.67799949645996,0,0,1,0,1,0
1741018705.07688,20250304021825.076845,18.33851040358889,-64.98322190623142,0.0907,10.214195145991964,0.4090599747818826,0.2854230184934715,-0.00824553823049625,-13.888374166730049,-0.22091204894644786,55.09447758930186,3,24.67799949645996,0.7038649916648865,16.7,24.67799949645996,0,0,1,0,1,0
1741018705.1848457,20250304021825.184811,18.338510661166985,-64.98322151954835,0.0907,10.214195145991964,0.40816206385411297,0.2864324340019856,-0.00824553823049625,-12.859591069293023,0.5943418230269228,54.940318457065615,3,24.67799949645996,0.5439020991325378,16.7,24.67799949645996,0,0,1,0,1,0
1741018705.2785802,20250304021825.278545,18.338510917610588,-64.98322113211916,0.07269999999999932,10.214195145991964,0.40890057596331864,0.28513663854082116,-0.17917669269704567,-11.840212291932104,0.5773852320190656,55.11098786997658,3,24.67799949645996,0.4931769371032715,16.7,24.67799949645996,0,0,1,0,1,0
1741018705.3794088,20250304021825.379374,18.33851117024987,-64.98322074190224,0.07269999999999932,10.214195145991964,0.41190026890562437,0.28094587191859655,-0.17917669269704567,-10.084680585247279,-0.18137909999805218,55.70319451107242,3,24.670000076293945,0.6589572429656982,16.7,24.670000076293945,0,0,1,0,1,0
1741018705.477175,20250304021825.477140,18.338511417409112,-64.98322034731036,0.07269999999999932,10.214195145991964,0.4164465124621093,0.27480442630647756,0.017956811884675596,-7.43489408889413,-1.0755309565443416,56.58002718948581,3,24.670000076293945,1.1060035228729248,16.7,24.670000076293945,0,0,1,0,1,0
1741018705.5779765,20250304021825.577942,18.33851165909895,-64.98321994866737,0.07269999999999932,10.214195145991964,0.4208131536737077,0.2687814875232356,0.017956811884675596,-5.065021651419999,-1.4723772554945072,57.4328636972175,3,24.670000076293945,0.6124805212020874,16.7,24.670000076293945,0,0,1,0,1,0
1741018705.6795418,20250304021825.679507,18.33851189723468,-64.98321954724635,0.06369999999999898,10.214195145991964,0.4236637606515685,0.2647777964349046,0.0005107448119274129,-3.698701583567263,-0.928025284712376,57.99580979744651,3,24.673999786376953,0.5768364667892456,16.7,24.673999786376953,0,0,1,0,1,0
1741018705.7860236,20250304021825.785989,18.33851213358266,-64.98321914448506,0.06369999999999898,10.214195145991964,0.42511884404691,0.2628151158762495,0.0005107448119274129,-3.2134973645992604,0.4435143035126051,58.27501607771971,3,24.673999786376953,0.5297494530677795,16.7,24.673999786376953,0,0,1,0,1,0
1741018705.8795254,20250304021825.879491,18.33851236865681,-64.98321874077642,0.05469999999999864,10.214195145991964,0.4260958974705071,0.26138458710003404,-0.008636151136776352,-3.4662673882372683,1.708934858845187,58.47337167233089,3,24.673999786376953,0.4839647710323334,16.7,24.673999786376953,0,0,1,0,1,0
1741018705.981157,20250304021825.981122,18.338512601292667,-64.98321833558546,0.05469999999999864,10.214195145991964,0.4276582698166109,0.2586720955051224,-0.008636151136776352,-4.438634597061577,1.8492421490483124,58.832081382970564,3,24.673999786376953,0.4443557858467102,16.7,24.673999786376953,0,0,1,0,1,0
1741018706.0784218,20250304021826.078387,18.3385128299243,-64.98321792782757,0.0907,10.214195145991964,0.4303542724530043,0.2542118887539463,-0.003630240726578371,-6.257825824007396,0.9064877695676072,59.42951482819774,3,24.665000915527344,0.6280768513679504,16.7,24.665000915527344,0,0,1,0,1,0
1741018706.2038977,20250304021826.203863,18.33851305305241,-64.98321751661732,0.0907,10.214195145991964,0.4340521831134168,0.24812362647284433,-0.003630240726578371,-8.577329867210986,-0.08217579619566383,60.24580639570813,3,24.665000915527344,0.516778290271759,16.64,24.665000915527344,0,0,1,0,1,0
1741018706.2778227,20250304021826.277788,18.338513269180925,-64.98321710127016,0.0907,10.214195145991964,0.43840391740651374,0.24033170118862218,-0.003630240726578371,-9.946691077879073,-0.10022825943118509,61.268601976423035,3,24.665000915527344,0.5418837666511536,16.64,24.665000915527344,0,0,1,0,1,0
1741018706.3802345,20250304021826.380200,18.338513478344765,-64.98321668204272,0.0907,10.214195145991964,0.44237056341641884,0.2325192727341591,0.022351562911897625,-10.483449369692806,1.0896149183705592,62.27266234154562,3,24.665000915527344,0.382759690284729,16.64,24.665000915527344,0,0,1,0,1,0
1741018706.4827993,20250304021826.482764,18.338513682559757,-64.98321625956865,0.0907,10.214195145991964,0.4449743696646425,0.2265992075610584,0.022351562911897625,-10.459489911291005,2.553105347525342,63.012961197178136,3,24.639999389648438,0.4022315442562103,16.64,24.639999389648438,0,0,1,0,1,0
1741018706.583824,20250304021826.583789,18.338513881685973,-64.98321583737305,0.07269999999999932,10.214195145991964,0.4466595019258476,0.22193568189569335,0.011304566286603944,-9.533472169303893,2.8784339907646324,63.57821077952841,3,24.639999389648438,0.40080729126930237,16.64,24.639999389648438,0,0,1,0,1,0
1741018706.6838226,20250304021826.683788,18.338514075316994,-64.98321541160384,0.07269999999999932,10.214195145991964,0.44941182204262314,0.2153183304448864,0.011304566286603944,-7.421488984081151,1.8091226707354322,64.40041046278337,3,24.639999389648438,0.6604732871055603,16.64,24.639999389648438,0,0,1,0,1,0
1741018706.7838223,20250304021826.783787,18.338514259118615,-64.98321498141516,0.06869999999999976,10.214195145991964,0.4540420765815425,0.2043724202294501,0.017496466664498316,-4.285383880309763,0.3565791444241204,65.7666656438158,3,24.639999389648438,0.7658445239067078,16.64,24.639999389648438,0,0,1,0,1,0
1741018706.877787,20250304021826.877752,18.338514431505313,-64.98321454719813,0.06869999999999976,10.214195145991964,0.4583168940292539,0.1916896238467318,0.017496466664498316,-1.6142716047517967,-0.08794626757100676,67.30305492149155,3,24.639999389648438,0.6408169865608215,16.64,24.639999389648438,0,0,1,0,1,0
1741018707.0055811,20250304021827.005546,18.338514594789086,-64.98321411080182,0.06369999999999898,10.214195145991964,0.4605179283079893,0.18152829958054706,-0.03360992570799986,-0.2958591945586738,0.91480448835121,68.4865128306315,3,24.570999145507812,0.6727789640426636,16.64,24.570999145507812,0,0,1,0,1,0
1741018707.0792234,20250304021827.079188,18.33851475162629,-64.98321367371811,0.06369999999999898,10.214195145991964,0.46141381702065304,0.17442588100329615,-0.03360992570799986,0.36460208492707363,2.5360932612106337,69.29218771905461,3,24.570999145507812,0.5550979375839233,16.64,24.570999145507812,0,0,1,0,1,0
1741018707.1838796,20250304021827.183845,18.338514902626418,-64.98321323581251,0.05469999999999864,10.214195145991964,0.46216203765292435,0.16789082739464764,-0.045050055866377864,0.8913387780977401,3.4486941589929296,70.03532622684995,3,24.540000915527344,0.4502221643924713,16.64,24.540000915527344,0,0,1,0,1,0
1741018707.2784493,20250304021827.278414,18.338515046823467,-64.98321279705519,0.05469999999999864,10.214195145991964,0.4631425698853209,0.1603550213844124,-0.045050055866377864,0.9118482960440211,2.9038043106213345,70.90250784451524,3,24.540000915527344,0.4502221643924713,16.64,24.540000915527344,0,0,1,0,1,0
1741018707.3943,20250304021827.394265,18.338515183842027,-64.98321235732718,0.08569999999999922,10.214195145991964,0.46415134967905913,0.15236694402216763,-0.005317970554305001,-0.5683211942235015,1.5416041289717095,71.82657129792729,3,24.540000915527344,0.5322723388671875,16.62,24.540000915527344,0,0,1,0,1,0
1741018707.5001976,20250304021827.500163,18.338515315251243,-64.98321191736085,0.08569999999999922,10.214195145991964,0.46430171669806763,0.14609742186898558,-0.005317970554305001,-2.9571434113562116,0.6357810224253826,72.5332950660289,3,24.4689998626709,0.4714152216911316,16.62,24.4689998626709,0,0,1,0,1,0
1741018707.5766778,20250304021827.576643,18.338515443153657,-64.98321147798146,0.05469999999999864,10.214195145991964,0.4637692564234736,0.14222530984942214,-0.01817531774040477,-5.239582566002011,0.987659580957158,72.95068594101825,3,24.4689998626709,0.6185690760612488,16.62,24.4689998626709,0,0,1,0,1,0
1741018707.6775632,20250304021827.677528,18.338515569166923,-64.98321103924582,0.05469999999999864,10.214195145991964,0.4631163952257175,0.14013267205980084,-0.01817531774040477,-6.848268995006381,2.211135796196772,73.16493069575438,3,24.4689998626709,0.5454868674278259,16.62,24.4689998626709,0,0,1,0,1,0
1741018707.7770529,20250304021827.777018,18.33851616666667,-64.98321433333334,0.06369999999999898,10.214195145991964,0.33628208768968837,0.24432323811298662,-0.004901690286500175,-8.047746691685914,3.136811388272807,73.27738090127595,1,24.4689998626709,0.41637471318244934,16.62,24.4689998626709,0,0,1,0,1,0
1741018707.9032304,20250304021827.903196,18.33851616666667,-64.98321433333334,0.06369999999999898,10.214195145991964,0.33628208768968837,0.24432323811298662,-0.004901690286500175,-8.272944085559248,3.0851019285678993,73.57758703254797,1,24.459999084472656,0.34131184220314026,16.62,24.459999084472656,0,0,1,0,1,0
1741018707.9851727,20250304021827.985138,18.33851616666667,-64.98321433333334,0.07669999999999888,10.214195145991964,0.33628208768968837,0.24432323811298662,0.012854562455343726,-6.799346893809738,2.0742651595920463,74.11375664722209,1,24.459999084472656,0.5939992666244507,16.59,24.459999084472656,0,0,1,0,1,0
1741018708.0778804,20250304021828.077845,18.33851616666667,-64.98321433333334,0.07669999999999888,10.214195145991964,0.33628208768968837,0.24432323811298662,0.012854562455343726,-4.438626059322058,0.6538665160406519,74.76539193176215,1,24.459999084472656,0.5276487469673157,16.59,24.459999084472656,0,0,1,0,1,0
1741018708.1767118,20250304021828.176677,18.33851616666667,-64.98321433333334,0.07669999999999888,10.214195145991964,0.33628208768968837,0.24432323811298662,0.012854562455343726,-2.5867924928873776,-0.4437068828995198,75.3085178831499,1,24.459999084472656,0.5463050603866577,16.59,24.459999084472656,0,0,1,0,1,0
1741018708.2798855,20250304021828.279851,18.338517000000003,-64.98321299999999,0.07669999999999888,10.214195145991964,0.31537956877863554,0.21320706752910867,-0.010894259445938956,-1.7328874870553617,-0.6116959525309362,75.55263384057174,1,24.451000213623047,0.47339513897895813,16.59,24.451000213623047,0,0,1,0,1,0
1741018708.3781207,20250304021828.378086,18.338517000000003,-64.98321299999999,0.07669999999999888,10.214195145991964,0.31537956877863554,0.21320706752910867,-0.010894259445938956,-1.6805756898276514,0.10097683242365249,75.53778009480648,1,24.451000213623047,0.535122811794281,16.59,24.451000213623047,0,0,1,0,1,0
1741018708.476937,20250304021828.476902,18.338517000000003,-64.98321299999999,0.06369999999999898,10.214195145991964,0.31537956877863554,0.21320706752910867,0.008031269211964991,-2.054243306654693,0.7975361815083915,75.42346082991399,1,24.451000213623047,0.49327370524406433,16.59,24.451000213623047,0,0,1,0,1,0
1741018708.5868068,20250304021828.586772,18.338517000000003,-64.98321299999999,0.06369999999999898,10.214195145991964,0.31537956877863554,0.21320706752910867,0.008031269211964991,-2.722784169209004,0.5014942259632187,75.20270306058859,1,24.42099952697754,0.3666439652442932,16.64,24.42099952697754,0,0,1,0,1,0
1741018708.6819367,20250304021828.681902,18.338517000000003,-64.98321299999999,0.06869999999999976,10.214195145991964,0.31537956877863554,0.21320706752910867,0.002811594420601528,-4.154573758099974,-0.6990910823358086,74.72286438401899,1,24.42099952697754,0.4913555681705475,16.64,24.42099952697754,0,0,1,0,1,0
1741018708.7816484,20250304021828.781613,18.338517833333334,-64.98321166666666,0.06869999999999976,10.214195145991964,0.3263019659969602,0.2097234878222662,0.002811594420601528,-6.474898704957963,-1.8822262115612487,74.0140580478061,1,24.42099952697754,0.7727224230766296,16.64,24.42099952697754,0,0,1,0,1,0
1741018708.876983,20250304021828.876948,18.338517833333334,-64.98321166666666,0.06869999999999976,10.214195145991964,0.3263019659969602,0.2097234878222662,-0.013217698881098963,-8.525738014867905,-2.1974201311088963,73.52350301404034,1,24.42099952697754,0.6291559934616089,16.64,24.42099952697754,0,0,1,0,1,0
1741018708.9784195,20250304021828.978385,18.338517833333334,-64.98321166666666,0.06869999999999976,10.214195145991964,0.3263019659969602,0.2097234878222662,-0.013217698881098963,-9.869858252432941,0.01679909639424958,73.65251978406498,1,24.427000045776367,0.5484486818313599,16.64,24.427000045776367,0,0,1,0,1,0
1741018709.0774918,20250304021829.077457,18.338517833333334,-64.98321166666666,0.05069999999999908,10.214195145991964,0.3263019659969602,0.2097234878222662,-0.03608047396473948,-9.869858252432941,0.01679909639424958,73.65251978406498,1,24.427000045776367,0.6366717219352722,16.64,24.427000045776367,0,0,1,0,1,0
1741018709.1838107,20250304021829.183776,18.338517833333334,-64.98321166666666,0.05069999999999908,10.214195145991964,0.3263019659969602,0.2097234878222662,-0.03608047396473948,-10.077677077522873,1.1569501489363752,73.73606626097896,1,24.427000045776367,0.5900103449821472,16.67,24.427000045776367,0,0,1,0,1,0
1741018709.2838714,20250304021829.283836,18.338517833333334,-64.98321166666666,0.0907,10.214195145991964,0.3263019659969602,0.2097234878222662,0.011278403688997306,-9.60744229069054,1.3725027786445005,73.71125089419073,1,24.42300033569336,0.7217112183570862,16.67,24.42300033569336,0,0,1,0,1,0
1741018709.3769848,20250304021829.376950,18.33851866666667,-64.98321033333333,0.0907,10.214195145991964,0.3326653940377101,0.20146932391464636,0.011278403688997306,-7.678574835044144,0.8965940235737848,73.82383166187444,1,24.42300033569336,0.6018308401107788,16.67,24.42300033569336,0,0,1,0,1,0
1741018709.4882386,20250304021829.488204,18.33851866666667,-64.98321033333333,0.07669999999999888,10.214195145991964,0.3326653940377101,0.20146932391464636,0.009800019686329028,-4.860549193333091,0.6848605381943432,74.16054431353993,1,24.42300033569336,0.47693881392478943,16.67,24.42300033569336,0,0,1,0,1,0
1741018709.5816748,20250304021829.581640,18.33851866666667,-64.98321033333333,0.07669999999999888,10.214195145991964,0.3326653940377101,0.20146932391464636,0.009800019686329028,-2.856766488535702,0.9031639208525553,74.33038727326579,1,24.42300033569336,0.4489961862564087,16.67,24.42300033569336,0,0,1,0,1,0
1741018709.6813896,20250304021829.681355,18.33851866666667,-64.98321033333333,0.05469999999999864,10.214195145991964,0.3326653940377101,0.20146932391464636,-0.017870633254848868,-2.3286735754430294,0.8459447376731923,74.16095711324552,1,24.43000030517578,0.7144263386726379,16.67,24.43000030517578,0,0,1,0,1,0
1741018709.7794588,20250304021829.779424,18.338519166666668,-64.9832085,0.05469999999999864,10.214195145991964,0.3776501267877388,0.1487603410590015,-0.017870633254848868,-3.0678334966242313,-0.1258163983672721,73.76391892859972,1,24.43000030517578,0.4593823254108429,16.67,24.43000030517578,0,0,1,0,1,0
1741018709.8767762,20250304021829.876741,18.338519166666668,-64.9832085,0.09469999999999956,10.214195145991964,0.3776501267877388,0.1487603410590015,0.025461112858164353,-4.538621345186235,-1.9869721091352268,73.16280443698055,1,24.43000030517578,0.5485966801643372,16.67,24.43000030517578,0,0,1,0,1,0
1741018709.9953651,20250304021829.995330,18.338519166666668,-64.9832085,0.09469999999999956,10.214195145991964,0.3776501267877388,0.1487603410590015,0.025461112858164353,-5.995163121592999,-3.720520203785584,72.5244346652124,1,24.43000030517578,0.8955864906311035,16.67,24.43000030517578,0,0,1,0,1,0
1741018710.076841,20250304021830.076806,18.338519166666668,-64.9832085,0.09469999999999956,10.214195145991964,0.3776501267877388,0.1487603410590015,0.025461112858164353,-6.783763811646402,-3.9010916869863723,72.19859994746334,1,24.43000030517578,0.78413325548172,16.67,24.43000030517578,0,0,1,0,1,0
1741018710.1970935,20250304021830.197059,18.33851930100076,-64.98320805737053,0.2306999999999988,10.214195145991964,0.467168604427317,0.1493672399708587,0.11788617429757228,-6.861321064290406,-2.036935601109252,72.26945251326596,3,24.43000030517578,0.6745248436927795,16.67,24.43000030517578,0,0,1,0,1,0
1741018710.3039818,20250304021830.303947,18.338519433933918,-64.9832076149974,0.2306999999999988,10.214195145991964,0.46690466017926474,0.147811621852109,0.11788617429757228,-6.653328069314362,0.6048980976071342,72.43339802942162,3,24.43000030517578,0.5715579390525818,16.67,24.43000030517578,0,0,1,0,1,0
1741018710.3779178,20250304021830.377883,18.338519566107244,-64.98320717279812,0.07269999999999932,10.214195145991964,0.4667682344271245,0.1469815661057358,-0.05814486965994822,-6.603113354355098,1.8284115587353849,72.52123002468532,3,24.437999725341797,0.6305726170539856,16.62,24.437999725341797,0,0,1,0,1,0
1741018710.4802148,20250304021830.480180,18.338519698162614,-64.98320673099346,0.07269999999999932,10.214195145991964,0.4662656219533601,0.14682329747670442,-0.05814486965994822,-6.603113354355098,1.8284115587353849,72.52123002468532,3,24.437999725341797,0.5217548608779907,16.62,24.437999725341797,0,0,1,0,1,0
1741018710.5776248,20250304021830.577590,18.33851982867149,-64.98320628901259,0.0907,10.214195145991964,0.4665232937181721,0.14512616462931263,-0.0032636135618277634,-6.408980098821225,0.45272185537332216,72.7201418530259,3,24.437999725341797,0.4960883855819702,16.62,24.437999725341797,0,0,1,0,1,0
1741018710.6908152,20250304021830.690780,18.33851995570106,-64.98320584642636,0.0907,10.214195145991964,0.4671603369175234,0.14125658718597564,-0.0032636135618277634,-5.017503581486645,-0.4847415802080045,73.17613654412065,3,24.437999725341797,0.8967186212539673,16.62,24.437999725341797,0,0,1,0,1,0
1741018710.780789,20250304021830.780754,18.338520080456153,-64.9832054042699,0.09469999999999956,10.214195145991964,0.4666781175342668,0.1387188726284688,-0.04796021075289662,-3.796150061734021,0.3456742099064546,73.44557990548172,3,24.420000076293945,0.9437283277511597,16.62,24.420000076293945,0,0,1,0,1,0
1741018710.8838398,20250304021830.883805,18.338520206568518,-64.98320496341923,0.09469999999999956,10.214195145991964,0.46531753363772443,0.1402333842027093,-0.04796021075289662,-2.989608379306645,2.427334199177487,73.22872302934091,3,24.420000076293945,0.5214033126831055,16.62,24.420000076293945,0,0,1,0,1,0
1741018710.977736,20250304021830.977701,18.338520336175456,-64.983204523817,0.07669999999999888,10.214195145991964,0.4640050468012388,0.14412086599372337,-0.18102629258552955,-2.7800529779992997,4.152785955445482,72.7451305221499,3,24.420000076293945,0.5751392245292664,16.64,24.420000076293945,0,0,1,0,1,0
1741018711.08418,20250304021831.084145,18.33852046935409,-64.9832040851132,0.07669999999999888,10.214195145991964,0.46297608644226496,0.1480667550200985,-0.18102629258552955,-3.089267705120892,4.149569362083093,72.26496335605242,3,24.44700050354004,0.4493579566478729,16.64,24.44700050354004,0,0,1,0,1,0
1741018711.1809187,20250304021831.180884,18.338520605768,-64.98320364700444,0.05969999999999942,10.214195145991964,0.46246160882800563,0.15170092870813492,-0.16167344202770834,-3.577342098670454,2.327848829805865,71.8390227887125,3,24.44700050354004,0.3121457099914551,16.64,24.44700050354004,0,0,1,0,1,0
1741018711.2766953,20250304021831.276660,18.33852074568861,-64.983203209054,0.05969999999999942,10.214195145991964,0.46220359183158594,0.15557000655444364,-0.16167344202770834,-4.089682668913901,-0.06597116659561587,71.3976523916335,3,24.44700050354004,0.8790997862815857,16.64,24.44700050354004,0,0,1,0,1,0
1741018711.3893769,20250304021831.389342,18.33852088931115,-64.98320277181408,0.07269999999999932,10.214195145991964,0.4615733312745551,0.1597273696758551,0.0062366763643240284,-4.447613310822846,-1.574113173002363,70.91185586698661,3,24.44700050354004,0.5638841390609741,16.64,24.44700050354004,0,0,1,0,1,0
