timestamp_ros,timestamp_sys (%Y%m%d%H%M%S.%f),latitude,longitude,depth,distance_to_ocean_floor,velX,velY,velZ,roll,pitch,yaw,navMode,acousticAltimeter,forwardStereo,battery_volts,altitudeUsed,cotsNumFound,cotsNumMaybe,missionState,errorState,storeData,storeImageData
1767985596.3464053,20260109150636.346276,18.18910316866925,-64.9584947134488,0.38664851992673904,0.4908771818217721,0.22533870537499243,-0.060559622356173695,0.029862984695365316,8.900183633208268,-38.34199095525741,91.66167405976671,5,55.87,4.048383712768555,16.59,55.87,0,0,1,0,1,0
1767985596.4209747,20260109150636.420845,18.189103117183137,-64.95849453688827,0.38664851992673904,0.4908771818217721,0.22306313417820278,-0.06846778929246297,0.029862984695365316,8.357272192525866,-38.26361450650692,93.68244088978187,5,55.87,4.048383712768555,16.59,55.87,0,0,1,0,1,0
1767985596.5388923,20260109150636.538763,18.18910303655071,-64.95849430116182,0.3863878807159691,0.4908771818217721,0.2195379812754255,-0.07904476439025504,0.023629331181323057,6.564344759877024,-39.53951820534469,96.42035051831621,5,55.87,4.048383712768555,16.59,55.87,0,0,1,0,1,0
1767985596.6431828,20260109150636.643053,18.189102960491958,-64.9584940788064,0.3863878807159691,0.4908771818217721,0.2195379812754255,-0.07904476439025504,0.023629331181323057,6.564344759877024,-39.53951820534469,96.42035051831621,5,55.87,4.048383712768555,16.45,55.87,0,0,1,0,1,0
1767985596.749981,20260109150636.749851,18.18910288417011,-64.95849386559146,0.41062793502781336,0.4908771818217721,0.21834953619671282,-0.08227077271230898,-0.03206247701233543,4.7021164955824535,-39.843516373622414,97.26455537139792,5,55.87,4.048383712768555,16.45,55.87,0,0,1,0,1,0
1767985596.8577168,20260109150636.857587,18.18910289979791,-64.95849380211139,0.41623353034664123,0.4908771818217721,0.058603599895810314,0.01518611468584978,-0.02048957857020847,2.809690246622268,-39.689645816981795,97.80102594138997,5,55.52,4.048383712768555,16.45,55.52,0,0,1,0,1,0
1767985596.959405,20260109150636.959275,18.18910291333989,-64.95849374593256,0.41623353034664123,0.4908771818217721,0.058679834214021696,0.014888823211218817,-0.02048957857020847,1.254147083952645,-39.091519107306,98.09149350008387,5,55.52,4.048383712768555,16.45,55.52,0,0,1,0,1,0
1767985597.0211933,20260109150637.021064,18.189102921287,-64.95849371206732,0.42450913206627416,0.4908771818217721,0.05877278673322521,0.014517559698889697,0.0027450038159396867,-0.00877017947361674,-37.56851956651211,98.45371222166436,5,55.52,4.048383712768555,16.45,55.52,0,0,1,0,1,0
1767985597.1273515,20260109150637.127222,18.189102932650005,-64.95849365280921,0.42450913206627416,0.4908771818217721,0.05934252074033059,0.011977697282175489,0.0027450038159396867,-1.3882117924656776,-30.766348815357674,100.91742380792516,5,55.52,4.048383712768555,16.45,55.52,0,0,1,0,1,0
1767985597.261167,20260109150637.261037,18.189102944686958,-64.95849359003645,0.42450913206627416,0.4908771818217721,0.05934252074033059,0.011977697282175489,0.0027450038159396867,-1.3882117924656776,-30.766348815357674,100.91742380792516,5,55.52,4.048383712768555,16.56,55.52,0,0,1,0,1,0
1767985597.3208952,20260109150637.320766,18.189102952001573,-64.95849354322885,0.3583855011050959,0.4908771818217721,0.05973650155402837,0.009826005398205634,-0.005176974973582001,-1.4170216474078638,-25.84998372305631,102.9878051498117,5,55.52,4.048383712768555,16.56,55.52,0,0,1,0,1,0
1767985597.4207783,20260109150637.420649,18.189102956412672,-64.95849348611863,0.3583855011050959,0.4908771818217721,0.06034015276141985,0.004905707362706839,-0.005176974973582001,-0.5181119754340536,-15.376933320093148,107.6807205235185,5,55.52,4.048383712768555,16.56,55.52,0,0,1,0,1,0
1767985597.521218,20260109150637.521088,18.18910285153444,-64.95849377567134,0.3383963916063156,0.4908771818217721,-0.30586478329723105,-0.11661361129189796,-0.060023714071631894,-0.5181119754340536,-15.376933320093148,107.6807205235185,5,55.33,4.048383712768555,16.56,55.33,0,0,1,0,1,0
1767985597.6298192,20260109150637.629690,18.189102750324196,-64.9584940950455,0.3383963916063156,0.4908771818217721,-0.3105207137688002,-0.10358033751883058,-0.060023714071631894,0.36945349532402705,-10.528528634333606,110.10336216761488,5,55.33,0.6842475533485413,16.56,55.33,0,0,1,0,1,0
1767985597.7445023,20260109150637.744373,18.1891026568319,-64.95849443820698,0.2589920326951197,0.4908771818217721,-0.31465781497838685,-0.09023557764555645,-0.12415948774319656,1.3551549457233363,-6.231891586455697,112.5490078970613,5,55.33,0.6516393423080444,16.56,55.33,0,0,1,0,1,0
1767985597.8595207,20260109150637.859391,18.189102578229257,-64.95849478193773,0.2589920326951197,0.4908771818217721,-0.3182512253547551,-0.0766039004241748,-0.12415948774319656,2.2730117826729983,-2.5685277067422816,115.01671514541523,5,55.33,0.7636898756027222,16.53,55.33,0,0,1,0,1,0
1767985597.9215467,20260109150637.921417,18.189102543063406,-64.9584949705799,0.20123544292315054,0.4908771818217721,-0.3212154096619291,-0.06302904565134287,-0.2448948309360926,3.005676405074444,0.47461043169480405,117.44894637853518,5,55.33,0.7636898756027222,16.53,55.33,0,0,1,0,1,0
1767985598.0378962,20260109150638.037767,18.189102503638104,-64.95849532912936,0.20123544292315054,0.4908771818217721,-0.3251700539783807,-0.037635568226040805,-0.2448948309360926,3.84238320187032,4.607502546934789,121.94840340501683,5,55.33,0.75179523229599,16.53,55.33,0,0,1,0,1,0
1767985598.164579,20260109150638.164449,18.189102782070865,-64.95849532997153,0.1766443357456935,0.4908771818217721,-0.0008108286831680356,0.28217076843083255,-0.21992901135154402,3.84238320187032,4.607502546934789,121.94840340501683,5,44.27,0.7665084004402161,16.53,44.27,0,0,1,0,1,0
1767985598.2515237,20260109150638.251394,18.189103046244618,-64.95849532089225,0.1766443357456935,0.4908771818217721,0.009208352740510614,0.282021641438749,-0.21992901135154402,3.687419814571735,5.703172430169585,123.98315846745386,5,44.27,0.7989569306373596,16.53,44.27,0,0,1,0,1,0
1767985598.3274097,20260109150638.327280,18.189103222591886,-64.95849530896203,0.1257040672784734,0.4908771818217721,0.01809824459143504,0.28159093299094096,-0.25213475350700754,3.3641357465028743,6.23249008199573,125.79046814920324,5,44.27,0.7989569306373596,16.53,44.27,0,0,1,0,1,0
1767985598.435886,20260109150638.435756,18.18910350026669,-64.95849528219418,0.1257040672784734,0.4908771818217721,0.025734465731875558,0.2809959737674099,-0.25213475350700754,3.1986993275843547,6.389904227422182,127.34577108122724,5,44.27,0.730915367603302,16.56,44.27,0,0,1,0,1,0
1767985598.538839,20260109150638.538709,18.189103769973954,-64.95849524933894,0.1143460785141097,0.4908771818217721,0.032439549620539826,0.2803010446295492,-0.1727623698613846,3.453013401413708,6.415387672327465,128.71458246147057,5,44.27,0.40564146637916565,16.56,44.27,0,0,1,0,1,0
1767985598.6223612,20260109150638.622232,18.189103978895222,-64.95849521855156,0.1143460785141097,0.4908771818217721,0.039122521937878824,0.2794466465664245,-0.1727623698613846,4.370837688231466,6.490661506538096,130.08265618101973,5,44.27,0.5231705904006958,16.56,44.27,0,0,1,0,1,0
1767985598.725039,20260109150638.724909,18.189104064588506,-64.95849548929961,0.11306370334728216,0.4908771818217721,-0.28602422717393006,0.09528977631181675,-0.1395595499049866,6.064720085424184,6.621203543727103,131.67418644935506,5,41.28,0.5231705904006958,16.56,41.28,0,0,1,0,1,0
1767985598.832215,20260109150638.832085,18.18910415910447,-64.9584957567605,0.11306370334728216,0.4908771818217721,-0.2825647853552124,0.10510538557639551,-0.1395595499049866,8.414117315992712,6.583047532059256,133.6521962798776,5,41.28,0.5231705904006958,16.56,41.28,0,0,1,0,1,0
1767985598.9386787,20260109150638.938549,18.18910428287804,-64.95849603465788,0.0946241449100746,0.4908771818217721,-0.2729702012932531,0.1279737051347694,-0.09206440783353895,13.145613880795242,5.332628131900731,138.3666404175462,5,41.28,0.41755416989326477,16.56,41.28,0,0,1,0,1,0
1767985599.032295,20260109150639.032165,18.189104402209495,-64.95849630258179,0.0946241449100746,0.4908771818217721,-0.2729702012932531,0.1279737051347694,-0.09206440783353895,13.145613880795242,5.332628131900731,138.3666404175462,5,41.28,0.3274925649166107,16.56,41.28,0,0,1,0,1,0
1767985599.1208675,20260109150639.120738,18.18910451265288,-64.95849652783818,0.09891238853420682,0.4908771818217721,-0.2679054425295174,0.13826306037066965,-0.06541327089084698,14.220835451003905,4.205552600745858,140.54631238194543,5,41.28,0.3669586181640625,16.56,41.28,0,0,1,0,1,0
1767985599.2299592,20260109150639.229830,18.189104644279073,-64.95849677717884,0.09891238853420682,0.4908771818217721,-0.26352867040699995,0.14643305594543465,-0.06541327089084698,13.92540234300792,3.0326706029869657,142.3078461195095,5,41.28,0.3669586181640625,16.56,41.28,0,0,1,0,1,0
1767985599.321953,20260109150639.321823,18.18910477421962,-64.95849680855459,0.09291537497610666,0.4908771818217721,-0.03314630835014667,0.14449332940574452,-0.02410397694801393,12.616755559355019,2.064734480971101,143.6277806485756,5,41.65,0.3669586181640625,16.56,41.65,0,0,1,0,1,0
1767985599.4240575,20260109150639.423928,18.189104908384344,-64.95849683522145,0.09291537497610666,0.4908771818217721,-0.027507292626370604,0.14567205927138951,-0.02410397694801393,10.3837593080163,0.7535635679913717,145.85445043493348,5,41.65,0.41111674904823303,16.56,41.65,0,0,1,0,1,0
1767985599.5396428,20260109150639.539513,18.189105041414617,-64.95849686166282,0.09524541359033294,0.4908771818217721,-0.027507292626370604,0.14567205927138951,-0.009157614116842464,10.3837593080163,0.7535635679913717,145.85445043493348,5,41.65,0.4726872444152832,16.56,41.65,0,0,1,0,1,0
1767985599.6309218,20260109150639.630792,18.18910517192543,-64.95849688412477,0.09524541359033294,0.4908771818217721,-0.023921794052083258,0.14630361502481654,-0.009157614116842464,10.64199690003991,-0.1530127272628211,147.26157919012147,5,41.65,0.5866010785102844,16.62,41.65,0,0,1,0,1,0
1767985599.7259374,20260109150639.725808,18.18910529991279,-64.95849690206698,0.06524541359033358,0.4908771818217721,-0.019571004050948963,0.14694888839469913,-0.0321685337520856,11.726825988525153,-1.6073735381104026,148.96157290125922,5,41.65,0.5866010785102844,16.62,41.65,0,0,1,0,1,0
1767985599.876416,20260109150639.876286,18.18910544032041,-64.95849691177537,0.06524541359033358,0.4908771818217721,-0.009717251500951186,0.14792760061350033,-0.0321685337520856,13.743383712959286,-5.661693957169351,152.7894035261257,5,41.65,0.5708442330360413,16.62,41.65,0,0,1,0,1,0
1767985599.927486,20260109150639.927356,18.189105574980783,-64.95849692108636,0.08746070112278721,0.4908771818217721,-0.009717251500951186,0.14792760061350033,-0.003829900299393102,13.743383712959286,-5.661693957169351,152.7894035261257,5,41.65,0.5767736434936523,16.62,41.65,0,0,1,0,1,0
1767985600.032823,20260109150640.032693,18.189105700474187,-64.95849692561816,0.08746070112278721,0.4908771818217721,-0.005082962666307048,0.14815925043861733,-0.003829900299393102,13.497437050741913,-7.540043181216717,154.5828205981358,5,41.65,0.6150599718093872,16.62,41.65,0,0,1,0,1,0
1767985600.1208189,20260109150640.120689,18.189105832530398,-64.95849692658656,0.07846070112278687,0.4908771818217721,-0.0010327766081126288,0.14824281895753916,-0.021299289796309955,12.630261409494278,-9.001030558589097,156.14856006294323,5,41.65,0.6150599718093872,16.62,41.65,0,0,1,0,1,0
1767985600.2475114,20260109150640.247382,18.189105969358085,-64.95849692118885,0.07846070112278687,0.4908771818217721,0.005552047714963627,0.1481424137989211,-0.021299289796309955,10.448047632792596,-10.950873532676699,158.69403587299422,5,41.65,0.6466327905654907,16.48,41.65,0,0,1,0,1,0
1767985600.3287382,20260109150640.328609,18.18910610931217,-64.95849691566781,0.09649441857784614,0.4908771818217721,0.005552047714963627,0.1481424137989211,0.0007709062307765351,10.448047632792596,-10.950873532676699,158.69403587299422,5,41.65,0.6942233443260193,16.48,41.65,0,0,1,0,1,0
1767985600.4384246,20260109150640.438295,18.189106254139503,-64.95849690720813,0.09649441857784614,0.4908771818217721,0.00821405735914136,0.14801867875947528,0.0007709062307765351,10.185260279381277,-11.810430095180871,159.7240014473541,5,41.65,0.4482439160346985,16.48,41.65,0,0,1,0,1,0
1767985600.5238442,20260109150640.523715,18.1891063678946,-64.95849689848077,0.09377181503405377,0.4908771818217721,0.01077665053299074,0.14785419778717748,0.035014008696784074,10.071643457007406,-12.218364142996073,160.71646926976277,5,41.65,0.4443292021751404,16.48,41.65,0,0,1,0,1,0
1767985600.6246316,20260109150640.624502,18.189106497878207,-64.95849688594038,0.09377181503405377,0.4908771818217721,0.013530943949082226,0.1476276178628064,0.035014008696784074,9.004096460849045,-11.856229091262819,161.78458829446868,5,41.65,0.4443292021751404,16.48,41.65,0,0,1,0,1,0
1767985600.73581,20260109150640.735680,18.189106630355756,-64.9584968702121,0.11452380665701314,0.4908771818217721,0.01661560647517383,0.1473123267804231,0.05068321028315035,6.691108847330512,-10.925072483861449,162.98301371475296,5,41.65,0.4443292021751404,16.48,41.65,0,0,1,0,1,0
1767985600.8290613,20260109150640.828932,18.189106762054173,-64.95849684838409,0.11452380665701314,0.4908771818217721,0.023058843146216097,0.14644210375693942,0.05068321028315035,0.3278831615827052,-9.83883979099989,165.49607343541223,5,41.65,0.9867346882820129,16.56,41.65,0,0,1,0,1,0
1767985600.9310873,20260109150640.930958,18.189106903097475,-64.95849682500723,0.08806566657848042,0.4908771818217721,0.023058843146216097,0.14644210375693942,0.002332391256225097,0.3278831615827052,-9.83883979099989,165.49607343541223,5,41.65,0.8100455403327942,16.56,41.65,0,0,1,0,1,0
1767985601.0399845,20260109150641.039855,18.189107043019455,-64.95849679922922,0.08806566657848042,0.4908771818217721,0.02555838420196644,0.14602660373022675,0.002332391256225097,-2.4934468254446993,-10.213982088884713,-193.52473877185741,5,41.65,0.5182209014892578,16.56,41.65,0,0,1,0,1,0
1767985601.130845,20260109150641.130715,18.18913266666667,-64.95846783333333,0.10290924102130969,0.4908771818217721,0.0,0.04732848,0.009481720901066283,-4.350160990673305,-10.538600605639816,-192.82810020855823,1,41.65,0.3909083306789398,16.56,41.65,0,0,1,0,1,0
1767985601.2258923,20260109150641.225763,18.18913266666667,-64.95846783333333,0.10290924102130969,0.4908771818217721,0.0,0.04732848,0.009481720901066283,-4.840961484450104,-10.0724767403841,-192.36502687763135,1,41.65,0.3909083306789398,16.56,41.65,0,0,1,0,1,0
1767985601.347057,20260109150641.346927,18.18913266666667,-64.95846783333333,0.09529474283644586,0.4908771818217721,0.0,0.04732848,-0.0005749249115563377,-3.712315862998368,-8.574854776525497,-191.9399840536014,1,41.65,0.4836936593055725,16.56,41.65,0,0,1,0,1,0
1767985601.4737701,20260109150641.473641,18.18913266666667,-64.95846783333333,0.09529474283644586,0.4908771818217721,0.0,0.04732848,-0.0005749249115563377,-1.2549028873432426,-6.447339308689536,-191.33701473807255,1,41.65,0.4836936593055725,16.53,41.65,0,0,1,0,1,0
1767985601.5268922,20260109150641.526763,18.18913266666667,-64.95846783333333,0.09247212137075975,0.4908771818217721,0.0,0.04732848,-0.0008579989680345523,4.138740520168842,-3.8588712844222792,-189.42613203071517,1,41.65,0.616512656211853,16.53,41.65,0,0,1,0,1,0
1767985601.6568437,20260109150641.656714,18.189133333333334,-64.95847016666667,0.09247212137075975,0.4908771818217721,-0.06073171748422023,0.19607133014556327,-0.0008579989680345523,4.138740520168842,-3.8588712844222792,-189.42613203071517,1,41.65,0.7581356763839722,16.53,41.65,0,0,1,0,1,0
1767985601.753384,20260109150641.753255,18.189133333333334,-64.95847016666667,0.062068801752016844,0.4908771818217721,-0.06073171748422023,0.19607133014556327,-0.03239239594031962,5.0347229214280835,-4.522731331287324,-188.5268280218975,1,41.65,0.7208369374275208,16.53,41.65,0,0,1,0,1,0
1767985601.8443913,20260109150641.844262,18.189133333333334,-64.95847016666667,0.062068801752016844,0.4908771818217721,-0.06073171748422023,0.19607133014556327,-0.03239239594031962,3.9181675929039708,-5.931774674561621,-187.9719978968517,1,41.65,0.7208369374275208,16.53,41.65,0,0,1,0,1,0
1767985601.9268856,20260109150641.926756,18.189133333333334,-64.95847016666667,0.08506891400358862,0.4908771818217721,-0.06073171748422023,0.19607133014556327,-0.0015747283118959982,-1.6946548491753652,-7.780287487211825,-188.0896684379474,1,41.65,0.48663249611854553,16.53,41.65,0,0,1,0,1,0
1767985602.0217772,20260109150642.021648,18.189133333333334,-64.95847016666667,0.08506891400358862,0.4908771818217721,-0.06073171748422023,0.19607133014556327,-0.0015747283118959982,-1.6946548491753652,-7.780287487211825,-188.0896684379474,1,41.51,0.5677199959754944,16.48,41.51,0,0,1,0,1,0
1767985602.1264153,20260109150642.126286,18.1891335,-64.95847216666667,0.10863379014554408,0.4908771818217721,-0.15661550730415963,0.1397355825828594,0.00807075154611665,-4.988985823957621,-7.706827068874241,-188.62496699691468,1,41.51,0.5677199959754944,16.48,41.51,0,0,1,0,1,0
1767985602.2271407,20260109150642.227011,18.1891335,-64.95847216666667,0.10863379014554408,0.4908771818217721,-0.15661550730415963,0.1397355825828594,0.00807075154611665,-6.935242947448789,-7.210523148205876,-189.2368838634556,1,41.51,0.4487466514110565,16.48,41.51,0,0,1,0,1,0
1767985602.3226848,20260109150642.322555,18.1891335,-64.95847216666667,0.09123389358217787,0.4908771818217721,-0.15661550730415963,0.1397355825828594,0.002454341639243452,-6.121034588380158,-6.676963093614579,-189.59667103682216,1,41.51,0.4487466514110565,16.48,41.51,0,0,1,0,1,0
1767985602.4242647,20260109150642.424135,18.1891335,-64.95847216666667,0.09123389358217787,0.4908771818217721,-0.15661550730415963,0.1397355825828594,0.002454341639243452,1.2240949879109861,-6.66024235766083,-189.21135260720902,1,41.51,0.6026730537414551,16.48,41.51,0,0,1,0,1,0
1767985602.5633724,20260109150642.563243,18.1891335,-64.95847216666667,0.06011244522533314,0.4908771818217721,-0.15661550730415963,0.1397355825828594,-0.0006003520193966355,1.2240949879109861,-6.66024235766083,-189.21135260720902,1,41.51,0.7396118640899658,16.48,41.51,0,0,1,0,1,0
1767985602.6404161,20260109150642.640287,18.189133833333337,-64.95847316666666,0.06011244522533314,0.4908771818217721,0.0,0.07305048,-0.0006003520193966355,4.909008549048007,-6.820073537144067,-188.63614119039232,1,41.19,0.5915926694869995,16.51,41.19,0,0,1,0,1,0
1767985602.725606,20260109150642.725476,18.189133833333337,-64.95847316666666,0.06894251709294888,0.4908771818217721,0.0,0.07305048,0.008117513634266486,6.728940851783753,-6.578636935825648,-187.9960156324928,1,41.19,0.6621529459953308,16.51,41.19,0,0,1,0,1,0
1767985602.8481987,20260109150642.848069,18.189133833333337,-64.95847316666666,0.06894251709294888,0.4908771818217721,0.0,0.07305048,0.008117513634266486,6.520933342650532,-5.805344412723184,-187.43619946757016,1,41.19,0.6621529459953308,16.51,41.19,0,0,1,0,1,0
1767985602.937198,20260109150642.937068,18.189133833333337,-64.95847316666666,0.08618534035705758,0.4908771818217721,0.0,0.07305048,-0.027249623615805244,4.770555015537141,-4.682416942311822,-187.05071711335833,1,41.19,0.6257199048995972,16.51,41.19,0,0,1,0,1,0
1767985603.0214694,20260109150643.021340,18.189133833333337,-64.95847316666666,0.08618534035705758,0.4908771818217721,0.0,0.07305048,-0.027249623615805244,2.271112562517821,-3.57559954603538,-186.81383240786252,1,41.19,0.6257199048995972,16.51,41.19,0,0,1,0,1,0
1767985603.123006,20260109150643.122876,18.189134000000003,-64.95847366666666,0.048549243336651435,0.4908771818217721,0.015244210941953967,0.17114538736383994,-0.037086874977409076,-2.3501692556641993,-2.6156820689722897,-186.45448236675915,1,41.19,0.7762519121170044,16.51,41.19,0,0,1,0,1,0
1767985603.2290225,20260109150643.228893,18.189134000000003,-64.95847366666666,0.048549243336651435,0.4908771818217721,0.015244210941953967,0.17114538736383994,-0.037086874977409076,-2.3501692556641993,-2.6156820689722897,-186.45448236675915,1,41.05,0.6072316765785217,16.51,41.05,0,0,1,0,1,0
1767985603.3295236,20260109150643.329394,18.189134000000003,-64.95847366666666,0.047223262757114436,0.4908771818217721,0.015244210941953967,0.17114538736383994,-0.0011137372289753717,-4.157503910301626,-2.944662089958788,-186.45478289519005,1,41.05,0.662696361541748,16.51,41.05,0,0,1,0,1,0
1767985603.420724,20260109150643.420594,18.189134000000003,-64.95847366666666,0.047223262757114436,0.4908771818217721,0.015244210941953967,0.17114538736383994,-0.0011137372289753717,-5.560273295693101,-3.7162462113842354,-186.66724283548052,1,41.05,0.662696361541748,16.51,41.05,0,0,1,0,1,0
1767985603.5202043,20260109150643.520075,18.189134000000003,-64.95847366666666,0.06098607518628528,0.4908771818217721,0.015244210941953967,0.17114538736383994,0.013441627826811475,-6.429392553341387,-4.796717637620867,-186.94271812358554,1,41.05,0.7347244024276733,16.51,41.05,0,0,1,0,1,0
1767985603.6206174,20260109150643.620488,18.189134333333335,-64.9584755,0.06098607518628528,0.4908771818217721,-0.05193414599519134,0.15458689777241974,0.013441627826811475,-6.696312599565087,-6.084259129191935,-187.0512498683041,1,41.05,0.7347244024276733,16.51,41.05,0,0,1,0,1,0
1767985603.723309,20260109150643.723179,18.189134333333335,-64.9584755,0.0666905007273001,0.4908771818217721,-0.05193414599519134,0.15458689777241974,0.010529679612852937,-6.239337349087,-7.563684181934594,-186.82411867643054,1,41.05,0.7347244024276733,16.51,41.05,0,0,1,0,1,0
1767985603.8496888,20260109150643.849559,18.189134333333335,-64.9584755,0.0666905007273001,0.4908771818217721,-0.05193414599519134,0.15458689777241974,0.010529679612852937,-3.9752692754432557,-10.85515266610086,-185.55329322505648,1,41.51,0.5738622546195984,16.48,41.51,0,0,1,0,1,0
1767985603.9622755,20260109150643.962146,18.189134333333335,-64.9584755,0.1155055750689823,0.4908771818217721,-0.05193414599519134,0.15458689777241974,0.07512146764532585,-3.9752692754432557,-10.85515266610086,-185.55329322505648,1,41.51,0.6569527983665466,16.48,41.51,0,0,1,0,1,0
1767985604.0218415,20260109150644.021712,18.189135,-64.95847666666667,0.13350557506898297,0.4908771818217721,-0.036163343372152226,0.20936342782918466,0.0951053487681555,-3.3980374025702504,-11.956052341675758,-185.07206524482424,1,41.51,0.6569527983665466,16.48,41.51,0,0,1,0,1,0
1767985604.1251662,20260109150644.125037,18.189135,-64.95847666666667,0.13350557506898297,0.4908771818217721,-0.036163343372152226,0.20936342782918466,0.0951053487681555,-4.109248179674149,-11.905872631448503,-185.0983068409985,1,41.51,0.8642560839653015,16.48,41.51,0,0,1,0,1,0
1767985604.2223942,20260109150644.222265,18.189135,-64.95847666666667,0.13350557506898297,0.4908771818217721,-0.036163343372152226,0.20936342782918466,0.0951053487681555,-5.852832173681259,-10.057141252666716,-185.7233923169678,1,41.51,0.7508140802383423,16.48,41.51,0,0,1,0,1,0
1767985604.3203502,20260109150644.320221,18.189135,-64.95847666666667,0.12145886613875302,0.4908771818217721,-0.036163343372152226,0.20936342782918466,0.0885883338841452,-7.143650022791326,-6.507947013960777,-186.61094839621242,1,41.51,0.7508140802383423,16.48,41.51,0,0,1,0,1,0
1767985604.4225695,20260109150644.422440,18.189135,-64.95847666666667,0.12145886613875302,0.4908771818217721,-0.036163343372152226,0.20936342782918466,0.0885883338841452,-7.1518838187798845,-2.4647777364827697,-187.26075916581806,1,41.51,0.3811248540878296,16.53,41.51,0,0,1,0,1,0
1767985604.5277653,20260109150644.527636,18.189135,-64.95847666666667,0.0785339750137441,0.4908771818217721,-0.036163343372152226,0.20936342782918466,0.03129343894579059,-5.5991631260722885,0.37511022800076693,-187.4307216538971,1,41.37,0.3811248540878296,16.53,41.37,0,0,1,0,1,0
1767985604.6274135,20260109150644.627284,18.189135500000003,-64.95847716666667,0.0785339750137441,0.4908771818217721,0.0,0.0977436,0.03129343894579059,-2.8250714112460615,1.0301359022632233,-187.23338375783615,1,41.37,0.759671151638031,16.53,41.37,0,0,1,0,1,0
1767985604.7239308,20260109150644.723801,18.189135500000003,-64.95847716666667,0.045224608323914554,0.4908771818217721,0.0,0.0977436,-0.061563925501479065,0.48824722941387433,-0.5118795323096222,-187.01905234504397,1,41.37,0.759671151638031,16.53,41.37,0,0,1,0,1,0
1767985604.8198647,20260109150644.819735,18.189135500000003,-64.95847716666667,0.045224608323914554,0.4908771818217721,0.0,0.0977436,-0.061563925501479065,3.8555633372470735,-6.292822872054576,-187.63614649682697,1,41.37,0.6981943249702454,16.53,41.37,0,0,1,0,1,0
1767985604.9231699,20260109150644.923040,18.189135500000003,-64.95847716666667,0.0699608688493859,0.4908771818217721,0.0,0.0977436,-0.02371586515367019,3.8555633372470735,-6.292822872054576,-187.63614649682697,1,41.37,0.6911951303482056,16.53,41.37,0,0,1,0,1,0
1767985605.0201735,20260109150645.020044,18.189135500000003,-64.95847716666667,0.0699608688493859,0.4908771818217721,0.0,0.0977436,-0.02371586515367019,2.51594739760682,-8.608555795714262,-188.5530177584713,1,41.37,0.6911951303482056,16.37,41.37,0,0,1,0,1,0
1767985605.1201017,20260109150645.119972,18.189136,-64.958478,0.11039510055893495,0.4908771818217721,0.013987666772522256,0.1154189441075185,-0.02591816732927483,-7.901653161969782,-9.094761278083924,-191.155746664152,1,41.62,0.6885161399841309,16.37,41.62,0,0,1,0,1,0
1767985605.2322009,20260109150645.232071,18.189136,-64.958478,0.11039510055893495,0.4908771818217721,0.013987666772522256,0.1154189441075185,-0.02591816732927483,-7.901653161969782,-9.094761278083924,-191.155746664152,1,41.62,0.6885161399841309,16.37,41.62,0,0,1,0,1,0
1767985605.3299327,20260109150645.329803,18.189136,-64.958478,0.12914598319705411,0.4908771818217721,0.013987666772522256,0.1154189441075185,0.010313025883234312,-11.447983415955306,-7.272937439158559,-192.0773170976256,1,41.62,0.6885161399841309,16.37,41.62,0,0,1,0,1,0
1767985605.430137,20260109150645.430007,18.189136,-64.958478,0.12914598319705411,0.4908771818217721,0.013987666772522256,0.1154189441075185,0.010313025883234312,-11.925824474921825,-4.334356354169548,-192.23676109062185,1,41.62,0.8396034240722656,16.37,41.62,0,0,1,0,1,0
1767985605.5214906,20260109150645.521361,18.189136,-64.958478,0.023655246933661542,0.4908771818217721,0.013987666772522256,0.1154189441075185,-0.024697941475674764,-11.925824474921825,-4.334356354169548,-192.23676109062185,1,41.62,0.8396034240722656,16.37,41.62,0,0,1,0,1,0
1767985605.6244373,20260109150645.624308,18.1891365,-64.95847933333333,0.023655246933661542,0.4908771818217721,-0.06777750605618299,0.13058866524790608,-0.024697941475674764,-9.357026975610852,-4.4081467561393985,-191.79654158082954,1,41.62,0.8396034240722656,16.48,41.62,0,0,1,0,1,0
1767985605.7335947,20260109150645.733465,18.1891365,-64.95847933333333,0.05591247059351239,0.4908771818217721,-0.06777750605618299,0.13058866524790608,-0.029945329411500438,-4.013745879229903,-6.73003069423288,-191.7020936912154,1,41.31,0.9827585220336914,16.48,41.31,0,0,1,0,1,0
1767985605.847958,20260109150645.847828,18.1891365,-64.95847933333333,0.05591247059351239,0.4908771818217721,-0.06777750605618299,0.13058866524790608,-0.029945329411500438,-4.013745879229903,-6.73003069423288,-191.7020936912154,1,41.31,0.7953258752822876,16.48,41.31,0,0,1,0,1,0
1767985605.9387321,20260109150645.938603,18.1891365,-64.95847933333333,0.06683114726326785,0.4908771818217721,-0.06777750605618299,0.13058866524790608,-0.03966412475438197,-1.3291687346823522,-7.888786788520215,-192.55959692736616,1,41.31,0.7901979088783264,16.48,41.31,0,0,1,0,1,0
1767985606.0249646,20260109150646.024835,18.1891365,-64.95847933333333,0.06683114726326785,0.4908771818217721,-0.06777750605618299,0.13058866524790608,-0.03966412475438197,-1.3291687346823522,-7.888786788520215,-192.55959692736616,1,41.31,0.6028544306755066,16.48,41.31,0,0,1,0,1,0
1767985606.1278837,20260109150646.127754,18.189136833333336,-64.95848133333334,0.06926255616818455,0.4908771818217721,-0.17126591831459112,0.10936073133579444,-0.02923017410827425,-1.4390231886953122,-7.473681039512156,-192.87345789233194,1,41.31,0.6028544306755066,16.48,41.31,0,0,1,0,1,0
1767985606.2371776,20260109150646.237048,18.189136833333336,-64.95848133333334,0.06926255616818455,0.4908771818217721,-0.17126591831459112,0.10936073133579444,-0.02923017410827425,-1.5411761747784916,-6.907789419150352,-192.9148761742686,1,41.31,0.6066871285438538,16.42,41.31,0,0,1,0,1,0
1767985606.3288026,20260109150646.328673,18.189136833333336,-64.95848133333334,0.06620225757135706,0.4908771818217721,-0.17126591831459112,0.10936073133579444,0.052475104033451264,-1.0537220480047174,-6.474148237654566,-192.66293772645938,1,41.59,0.6066871285438538,16.42,41.59,0,0,1,0,1,0
1767985606.4225411,20260109150646.422412,18.189136833333336,-64.95848133333334,0.06620225757135706,0.4908771818217721,-0.17126591831459112,0.10936073133579444,0.052475104033451264,3.8449667218476535,-6.307058272035419,-191.592960889635,1,41.59,0.5926887392997742,16.42,41.59,0,0,1,0,1,0
1767985606.5250854,20260109150646.524956,18.189136833333336,-64.95848133333334,0.08809088897950709,0.4908771818217721,-0.17126591831459112,0.10936073133579444,0.05308619248109271,3.8449667218476535,-6.307058272035419,-191.592960889635,1,41.59,0.5926887392997742,16.42,41.59,0,0,1,0,1,0
1767985606.6318161,20260109150646.631687,18.189136333333334,-64.95848216666667,0.08809088897950709,0.4908771818217721,-0.11368043315195354,-0.0015675366413008018,0.05308619248109271,11.309105983677506,-4.73298810789585,-190.14236479502668,1,41.59,0.6923255920410156,16.42,41.59,0,0,1,0,1,0
1767985606.729752,20260109150646.729622,18.189136333333334,-64.95848216666667,0.101090888979507,0.4908771818217721,-0.11368043315195354,-0.0015675366413008018,0.05532787026320518,11.309105983677506,-4.73298810789585,-190.14236479502668,1,41.59,0.6298788189888,16.42,41.59,0,0,1,0,1,0
1767985606.826804,20260109150646.826674,18.189136333333334,-64.95848216666667,0.101090888979507,0.4908771818217721,-0.11368043315195354,-0.0015675366413008018,0.05532787026320518,14.439854936563965,0.03296111733801753,-187.13693022142402,1,41.59,0.5784655213356018,16.53,41.59,0,0,1,0,1,0
1767985606.9301968,20260109150646.930067,18.189136333333334,-64.95848216666667,0.05122353607358844,0.4908771818217721,-0.11368043315195354,-0.0015675366413008018,-0.02175002147038589,14.439854936563965,0.03296111733801753,-187.13693022142402,1,41.32,0.5784655213356018,16.53,41.32,0,0,1,0,1,0
1767985607.028158,20260109150647.028028,18.189136333333334,-64.95848216666667,0.05122353607358844,0.4908771818217721,-0.11368043315195354,-0.0015675366413008018,-0.02175002147038589,13.39640827150941,1.2201415876284238,-182.89550417366974,1,41.32,0.6733610033988953,16.53,41.32,0,0,1,0,1,0
1767985607.1214006,20260109150647.121271,18.189135833333335,-64.95848266666667,0.0485832030309239,0.4908771818217721,-0.10703665287459802,-0.07934760161595568,-0.021261511798797532,13.39640827150941,1.2201415876284238,-182.89550417366974,1,41.32,0.6896000504493713,16.53,41.32,0,0,1,0,1,0
1767985607.227804,20260109150647.227674,18.189135833333335,-64.95848266666667,0.0485832030309239,0.4908771818217721,-0.10703665287459802,-0.07934760161595568,-0.021261511798797532,12.25190465268195,-0.8081109189502906,-181.03325243059146,1,41.32,0.7241264581680298,16.53,41.32,0,0,1,0,1,0
1767985607.3210647,20260109150647.320935,18.189135833333335,-64.95848266666667,0.04458320303092434,0.4908771818217721,-0.10703665287459802,-0.07934760161595568,-0.05352695531649098,11.148393282589316,-3.9112840404197575,-179.5398173741912,1,41.32,0.7241264581680298,16.53,41.32,0,0,1,0,1,0
1767985607.4258556,20260109150647.425726,18.189135833333335,-64.95848266666667,0.04458320303092434,0.4908771818217721,-0.10703665287459802,-0.07934760161595568,-0.05352695531649098,9.808110758936403,-9.218254557529091,-177.63569655652992,1,41.32,0.6791049838066101,16.25,41.32,0,0,1,0,1,0
1767985607.5431545,20260109150647.543025,18.189135833333335,-64.95848266666667,0.07065003712928822,0.4908771818217721,-0.10703665287459802,-0.07934760161595568,-0.01613376047145985,9.808110758936403,-9.218254557529091,-177.63569655652992,1,41.32,0.6855789422988892,16.25,41.32,0,0,1,0,1,0
1767985607.630529,20260109150647.630399,18.189135833333335,-64.95848266666667,0.07065003712928822,0.4908771818217721,-0.10703665287459802,-0.07934760161595568,-0.01613376047145985,9.464692993542553,-10.137695678767562,-177.03060988160124,1,42.67,0.7063322067260742,16.25,42.67,0,0,1,0,1,0
1767985607.723464,20260109150647.723334,18.189136166666668,-64.958484,0.09825798622136825,0.4908771818217721,-0.19682507780819625,0.02207746983142532,0.058300060827183614,9.387468285852673,-10.13060764742196,-176.53077645941724,1,42.67,0.7063322067260742,16.25,42.67,0,0,1,0,1,0
1767985607.8311472,20260109150647.831018,18.189136166666668,-64.958484,0.09825798622136825,0.4908771818217721,-0.19682507780819625,0.02207746983142532,0.058300060827183614,8.78015752978027,-10.254209356158974,-175.56949529191004,1,42.67,0.9670505523681641,16.25,42.67,0,0,1,0,1,0
1767985607.9429746,20260109150647.942845,18.189136166666668,-64.958484,0.10049380675308645,0.4908771818217721,-0.19682507780819625,0.02207746983142532,0.06441819885621759,8.78015752978027,-10.254209356158974,-175.56949529191004,1,42.67,0.9848719239234924,16.25,42.67,0,0,1,0,1,0
1767985608.055371,20260109150648.055241,18.189136166666668,-64.958484,0.10049380675308645,0.4908771818217721,-0.19682507780819625,0.02207746983142532,0.06441819885621759,8.220740931066869,-10.828809470826391,-174.59496355267513,1,42.67,0.9213724732398987,16.42,42.67,0,0,1,0,1,0
1767985608.1659267,20260109150648.165797,18.18913716666667,-64.95848533333333,0.11938119428373009,0.4908771818217721,-0.24651615265071436,0.18745523840368958,0.09030465485764136,7.7098494286626575,-11.298392828133707,-173.06632804923444,1,42.67,0.9376865029335022,16.42,42.67,0,0,1,0,1,0
1767985608.268974,20260109150648.268844,18.18913716666667,-64.95848533333333,0.13452009286736666,0.4908771818217721,-0.24651615265071436,0.18745523840368958,0.09957926056315303,7.3866174408048355,-11.15961784873009,-171.0803815360585,1,41.94,0.8279032111167908,16.42,41.94,0,0,1,0,1,0
1767985608.3213525,20260109150648.321223,18.18913716666667,-64.95848533333333,0.13452009286736666,0.4908771818217721,-0.24651615265071436,0.18745523840368958,0.09957926056315303,7.388655399227141,-10.361719133457544,-168.87241281433492,1,41.94,0.8279032111167908,16.42,41.94,0,0,1,0,1,0
1767985608.424523,20260109150648.424394,18.18913716666667,-64.95848533333333,0.13452009286736666,0.4908771818217721,-0.24651615265071436,0.18745523840368958,0.09957926056315303,7.883726470309495,-9.172214797192813,-166.691559953312,1,41.94,0.7220208644866943,16.42,41.94,0,0,1,0,1,0
1767985608.5424778,20260109150648.542348,18.18913716666667,-64.95848533333333,0.11209745321212247,0.4908771818217721,-0.24651615265071436,0.18745523840368958,0.036232652401824994,8.825048110377784,-8.129940363773708,-164.61971695042044,1,41.94,0.7220208644866943,16.42,41.94,0,0,1,0,1,0
1767985608.6269903,20260109150648.626861,18.189137833333334,-64.95848566666668,0.11209745321212247,0.4908771818217721,-0.09934245148808396,0.10359335055627501,0.036232652401824994,11.442783078816529,-7.999787647506601,-160.8937791240254,1,41.94,0.6469264626502991,16.48,41.94,0,0,1,0,1,0
1767985608.7391322,20260109150648.739003,18.189137833333334,-64.95848566666668,0.13378531283269415,0.4908771818217721,-0.09934245148808396,0.10359335055627501,0.05045217899940185,11.442783078816529,-7.999787647506601,-160.8937791240254,1,41.94,0.7267976999282837,16.48,41.94,0,0,1,0,1,0
1767985608.821073,20260109150648.820943,18.189137833333334,-64.95848566666668,0.13378531283269415,0.4908771818217721,-0.09934245148808396,0.10359335055627501,0.05045217899940185,12.918351207733155,-8.318517685318,-159.26889019985586,1,41.33,0.5232565999031067,16.48,41.33,0,0,1,0,1,0
1767985608.9325197,20260109150648.932390,18.189137833333334,-64.95848566666668,0.15380343164164761,0.4908771818217721,-0.09934245148808396,0.10359335055627501,0.06885159664043952,14.063330378651617,-8.024811762025958,-157.78330986380965,1,41.33,0.5232565999031067,16.48,41.33,0,0,1,0,1,0
1767985609.037944,20260109150649.037814,18.189137833333334,-64.95848566666668,0.15380343164164761,0.4908771818217721,-0.09934245148808396,0.10359335055627501,0.06885159664043952,14.586622093927863,-6.803406162062292,-156.38202775264173,1,41.33,0.8294162154197693,16.48,41.33,0,0,1,0,1,0
1767985609.1327467,20260109150649.132617,18.189137333333335,-64.95848566666668,0.14265661727031176,0.4908771818217721,0.08865427074632393,0.09388046273720158,0.04126678112854768,14.369621783763174,-4.911469552463299,-154.9769480549374,1,41.33,0.4935879707336426,16.48,41.33,0,0,1,0,1,0
1767985609.2219362,20260109150649.221807,18.189137333333335,-64.95848566666668,0.14265661727031176,0.4908771818217721,0.08865427074632393,0.09388046273720158,0.04126678112854768,13.545022141930456,-2.959861400730912,-153.49670892873198,1,41.33,0.4935879707336426,16.56,41.33,0,0,1,0,1,0
1767985609.3260212,20260109150649.325892,18.189137333333335,-64.95848566666668,0.1042012749687879,0.4908771818217721,0.08865427074632393,0.09388046273720158,-0.010490974388771515,11.194810411012172,-0.8575085188770722,-150.468010722498,1,41.33,0.5372610092163086,16.56,41.33,0,0,1,0,1,0
1767985609.4199946,20260109150649.419865,18.189137333333335,-64.95848566666668,0.1042012749687879,0.4908771818217721,0.08865427074632393,0.09388046273720158,-0.010490974388771515,11.194810411012172,-0.8575085188770722,-150.468010722498,1,42.51,0.5372610092163086,16.56,42.51,0,0,1,0,1,0
1767985609.528921,20260109150649.528791,18.189137333333335,-64.95848566666668,0.07141220003271045,0.4908771818217721,0.08865427074632393,0.09388046273720158,-0.06501990619532518,9.49832058817148,-0.6935033986274215,-148.70586226768881,1,42.51,0.47047433257102966,16.56,42.51,0,0,1,0,1,0
1767985609.6279764,20260109150649.627847,18.1891365,-64.95848683333334,0.07141220003271045,0.4908771818217721,-0.16454501134091454,0.11389388468782648,-0.06501990619532518,9.49832058817148,-0.6935033986274215,-148.70586226768881,1,0.13,0.48066794872283936,16.56,0.13,0,0,1,0,1,0
1767985609.7236896,20260109150649.723560,18.1891365,-64.95848683333334,0.07042799316580611,0.4908771818217721,-0.16454501134091454,0.11389388468782648,-0.05389918624014809,8.939546881243588,-0.8403841079268655,-148.93001549601945,1,0.13,0.48066794872283936,16.56,0.13,0,0,1,0,1,0
1767985609.8304422,20260109150649.830313,18.1891365,-64.95848683333334,0.07042799316580611,0.4908771818217721,-0.16454501134091454,0.11389388468782648,-0.05389918624014809,7.903566469395156,-1.667597151825209,-151.8727489106217,1,0.13,0.43725743889808655,16.56,0.13,0,0,1,0,1,0
1767985609.9255958,20260109150649.925466,18.1891365,-64.95848683333334,0.08234281900736554,0.4908771818217721,-0.16454501134091454,0.11389388468782648,-0.06483970344261666,7.903566469395156,-1.667597151825209,-151.8727489106217,1,0.13,0.49835488200187683,16.56,0.13,0,0,1,0,1,0
1767985610.0239596,20260109150650.023830,18.1891365,-64.95848683333334,0.08234281900736554,0.4908771818217721,-0.16454501134091454,0.11389388468782648,-0.06483970344261666,7.191135649314521,-2.6780562325492534,-154.18060235448274,1,0.13,0.49835488200187683,16.56,0.13,0,0,1,0,1,0
1767985610.1206758,20260109150650.120546,18.189136166666668,-64.95848833333334,0.08042106150594411,0.4908771818217721,-0.27527468935379923,0.055855184911939304,-0.016977204295429944,4.641166426956652,-6.396920114868884,-158.64803944268613,1,0.13,0.49373871088027954,16.56,0.13,0,0,1,0,1,0
1767985610.2654526,20260109150650.265323,18.189136166666668,-64.95848833333334,0.08042106150594411,0.4908771818217721,-0.27527468935379923,0.055855184911939304,-0.016977204295429944,4.641166426956652,-6.396920114868884,-158.64803944268613,1,0.13,0.4825988709926605,16.56,0.13,0,0,1,0,1,0
1767985610.3235092,20260109150650.323380,18.189136166666668,-64.95848833333334,0.14528164921985068,0.4908771818217721,-0.27527468935379923,0.055855184911939304,0.15448283284821387,3.5144573782704756,-9.07942322904468,-160.68375073194892,1,0.13,0.5562564134597778,16.56,0.13,0,0,1,0,1,0
1767985610.4221804,20260109150650.422051,18.189136166666668,-64.95848833333334,0.14528164921985068,0.4908771818217721,-0.27527468935379923,0.055855184911939304,0.15448283284821387,3.572185304003206,-11.68897392038405,-162.8458752075711,1,0.13,0.5562564134597778,16.0,0.13,0,0,1,0,1,0
1767985610.5475585,20260109150650.547429,18.189136166666668,-64.95848833333334,0.13768975988891172,0.4908771818217721,-0.27527468935379923,0.055855184911939304,0.11583384365617895,5.40690219681412,-13.375460927608612,-165.34873062196166,1,0.13,0.6081497073173523,16.0,0.13,0,0,1,0,1,0
1767985610.6288798,20260109150650.628750,18.189136166666668,-64.95848833333334,0.13768975988891172,0.4908771818217721,-0.27527468935379923,0.055855184911939304,0.11583384365617895,8.496716530707475,-13.340219700211291,-168.15770156402974,1,0.13,0.6081497073173523,16.0,0.13,0,0,1,0,1,0
1767985610.7224545,20260109150650.722325,18.189136166666668,-64.95849,0.16616322503561778,0.4908771818217721,-0.29782157443806023,0.05294285112603357,0.156184038862652,14.966290247529749,-8.099553695064788,-172.36315982275397,1,0.13,0.8300591111183167,16.0,0.13,0,0,1,0,1,0
1767985610.8387606,20260109150650.838631,18.189136166666668,-64.95849,0.16616322503561778,0.4908771818217721,-0.29782157443806023,0.05294285112603357,0.156184038862652,14.966290247529749,-8.099553695064788,-172.36315982275397,1,0.13,0.7395191788673401,16.0,0.13,0,0,1,0,1,0
1767985610.9404063,20260109150650.940277,18.189136166666668,-64.95849,0.14305062108036348,0.4908771818217721,-0.29782157443806023,0.05294285112603357,0.10587407166989109,16.911255611032246,-4.962875282084945,-173.04862419257552,1,0.13,1.0478981733322144,16.0,0.13,0,0,1,0,1,0
1767985611.0502622,20260109150651.050133,18.189136166666668,-64.95849,0.14305062108036348,0.4908771818217721,-0.29782157443806023,0.05294285112603357,0.10587407166989109,18.125609038156277,-3.1625334629975286,-173.0748931095162,1,0.13,1.0556122064590454,16.51,0.13,0,0,1,0,1,0
1767985611.1758308,20260109150651.175701,18.189135500000003,-64.95849133333333,0.11719917151243903,0.4908771818217721,-0.252528964849066,-0.0055542973867808345,0.060902763839422634,18.690179016441107,-3.0456863868780495,-172.8204022381938,1,0.13,0.8980546593666077,16.51,0.13,0,0,1,0,1,0
1767985611.2201927,20260109150651.220063,18.189135500000003,-64.95849133333333,0.11353531460075325,0.4908771818217721,-0.252528964849066,-0.0055542973867808345,-0.060913716481650435,18.826079338949917,-4.080747924511136,-172.55040476376183,1,0.13,0.8980546593666077,16.51,0.13,0,0,1,0,1,0
1767985611.3329132,20260109150651.332784,18.189135500000003,-64.95849133333333,0.11353531460075325,0.4908771818217721,-0.252528964849066,-0.0055542973867808345,-0.060913716481650435,18.520276292538643,-6.4142261128664035,-172.37881669007905,1,0.13,0.34519293904304504,16.51,0.13,0,0,1,0,1,0
1767985611.4498997,20260109150651.449770,18.189135500000003,-64.95849133333333,0.11353531460075325,0.4908771818217721,-0.252528964849066,-0.0055542973867808345,-0.060913716481650435,18.520276292538643,-6.4142261128664035,-172.37881669007905,1,0.13,0.4854210615158081,16.51,0.13,0,0,1,0,1,0
1767985611.532529,20260109150651.532400,18.189135500000003,-64.95849133333333,0.139954525971243,0.4908771818217721,-0.252528964849066,-0.0055542973867808345,-0.06548933290248593,18.444324561810493,-6.9396770224660695,-172.27451966416007,1,0.13,0.4854210615158081,16.51,0.13,0,0,1,0,1,0
1767985611.6264913,20260109150651.626362,18.189134833333334,-64.95849183333333,0.139954525971243,0.4908771818217721,0.0,0.08951255999999999,-0.06548933290248593,19.164190899235013,-7.592841416153315,-172.22355277434954,1,0.13,0.5202057957649231,16.51,0.13,0,0,1,0,1,0
1767985611.7356954,20260109150651.735566,18.189134833333334,-64.95849183333333,0.15194199144292195,0.4908771818217721,0.0,0.08951255999999999,-0.04026172149068502,19.164190899235013,-7.592841416153315,-172.22355277434954,1,0.13,0.4305815100669861,16.51,0.13,0,0,1,0,1,0
1767985611.8253458,20260109150651.825216,18.189134833333334,-64.95849183333333,0.15194199144292195,0.4908771818217721,0.0,0.08951255999999999,-0.04026172149068502,19.51715300363302,-8.021415449246767,-172.5141091255344,1,0.13,0.4305815100669861,16.51,0.13,0,0,1,0,1,0
1767985611.9267075,20260109150651.926578,18.189134833333334,-64.95849183333333,0.17681686122984244,0.4908771818217721,0.0,0.08951255999999999,0.02620047127376137,19.43565344976783,-8.423484070014958,-172.93953444029458,1,0.13,0.48903098702430725,16.51,0.13,0,0,1,0,1,0
1767985612.0559747,20260109150652.055845,18.189134833333334,-64.95849183333333,0.17681686122984244,0.4908771818217721,0.0,0.08951255999999999,0.02620047127376137,19.096351728594307,-8.72432583599389,-173.22498180815342,1,0.13,0.4487885534763336,16.51,0.13,0,0,1,0,1,0
1767985612.1245425,20260109150652.124413,18.1891345,-64.95849233333334,0.1795806644669696,0.4908771818217721,0.0,0.059675040000000006,0.052675472054492634,18.484781494277723,-8.87806405767203,-173.11852644168502,1,44.69,0.4487885534763336,16.51,44.69,0,0,1,0,1,0
1767985612.2229435,20260109150652.222814,18.1891345,-64.95849233333334,0.1795806644669696,0.4908771818217721,0.0,0.059675040000000006,0.052675472054492634,17.044140403944255,-8.683691318544751,-171.36719701038965,1,44.69,0.47241994738578796,16.37,44.69,0,0,1,0,1,0
1767985612.3206427,20260109150652.320513,18.1891345,-64.95849233333334,0.17484418301597474,0.4908771818217721,0.0,0.059675040000000006,0.043541056235655226,17.044140403944255,-8.683691318544751,-171.36719701038965,1,44.69,0.6640924215316772,16.37,44.69,0,0,1,0,1,0
1767985612.4309504,20260109150652.430821,18.1891345,-64.95849233333334,0.17484418301597474,0.4908771818217721,0.0,0.059675040000000006,0.043541056235655226,16.699733114540575,-8.566521942758563,-169.85329869991907,1,44.69,0.615556538105011,16.37,44.69,0,0,1,0,1,0
1767985612.5224922,20260109150652.522363,18.1891345,-64.95849233333334,0.17699715271760258,0.4908771818217721,0.0,0.059675040000000006,0.03699615169429997,16.989780616450304,-8.593922110185026,-168.0988683616317,1,44.69,0.615556538105011,16.37,44.69,0,0,1,0,1,0
1767985612.6252682,20260109150652.625139,18.189134333333335,-64.95849366666667,0.17699715271760258,0.4908771818217721,-0.2637184662959871,0.009992757882122442,0.03699615169429997,19.154763527262205,-9.137702692750098,-164.4004152262843,1,44.69,0.514403760433197,16.37,44.69,0,0,1,0,1,0
1767985612.7230945,20260109150652.722965,18.189134333333335,-64.95849366666667,0.19914073662584164,0.4908771818217721,-0.2637184662959871,0.009992757882122442,0.02733560153493568,19.154763527262205,-9.137702692750098,-164.4004152262843,1,44.64,0.8583440780639648,16.37,44.64,0,0,1,0,1,0
1767985612.8321698,20260109150652.832040,18.189134333333335,-64.95849366666667,0.19914073662584164,0.4908771818217721,-0.2637184662959871,0.009992757882122442,0.02733560153493568,20.32943354111909,-9.584889851760865,-162.66506844336158,1,44.64,1.0362727642059326,16.42,44.64,0,0,1,0,1,0
1767985612.9544697,20260109150652.954340,18.18913446721133,-64.95849389824151,0.20250252895516727,0.4908771818217721,-0.24313487293399155,0.14795416034492503,0.028012095163559937,20.981211405909058,-9.945473596224193,-161.0543726573623,5,44.64,0.6794911623001099,16.42,44.64,0,0,1,0,1,0
1767985613.024336,20260109150653.024206,18.18913458898048,-64.95849409665419,0.20250252895516727,0.4908771818217721,-0.23906903582544953,0.15443767710468176,0.028012095163559937,20.852139567464587,-9.96790138415694,-159.51371365615492,5,44.64,0.6794911623001099,16.42,44.64,0,0,1,0,1,0
1767985613.1461308,20260109150653.146001,18.189134733895123,-64.95849431872753,0.2166743381486621,0.4908771818217721,-0.23460206834943445,0.16114238897995553,0.037461652742355925,19.985444600951677,-9.409657017078999,-157.89180269552833,5,44.64,0.6794911623001099,16.42,44.64,0,0,1,0,1,0
1767985613.2311366,20260109150653.231007,18.189134903250082,-64.9584945455328,0.2166743381486621,0.4908771818217721,-0.22376904989744395,0.17587612773766442,0.037461652742355925,17.27816496670246,-6.4064337180107875,-154.2096737181342,5,44.64,0.5433188676834106,16.42,44.64,0,0,1,0,1,0
1767985613.3355262,20260109150653.335397,18.18913491073715,-64.95849475438304,0.23921090733945033,0.4908771818217721,-0.20942194603598457,0.007902437503781362,0.07740113895668098,17.27816496670246,-6.4064337180107875,-154.2096737181342,5,44.63,0.7389056086540222,16.42,44.63,0,0,1,0,1,0
1767985613.4531505,20260109150653.453021,18.189134931060302,-64.95849498502426,0.23921090733945033,0.4908771818217721,-0.20867533134179558,0.019354743330559157,0.07740113895668098,16.338947025650736,-2.635634125889098,-151.07162414418823,5,44.63,0.7952606081962585,16.31,44.63,0,0,1,0,1,0
1767985613.5760767,20260109150653.575947,18.189134950446725,-64.95849520503481,0.18409953112106087,0.4908771818217721,-0.20867533134179558,0.019354743330559157,-0.011948036233142584,16.338947025650736,-2.635634125889098,-151.07162414418823,5,44.63,0.6002733111381531,16.31,44.63,0,0,1,0,1,0
1767985613.7067652,20260109150653.706636,18.189134972785574,-64.95849543106836,0.1751516782091026,0.4908771818217721,-0.2084461428460965,0.021684223126151772,-0.025899773237499372,16.519581688123942,-1.4607412770308599,-150.43167617127065,5,44.63,0.6949718594551086,16.31,44.63,0,0,1,0,1,0
1767985613.7915072,20260109150653.791378,18.18913499451784,-64.95849565476904,0.1751516782091026,0.4908771818217721,-0.20848378612024698,0.021319261829789285,-0.025899773237499372,16.785329075825214,-0.8790500894481363,-150.53198436528808,5,44.63,0.53928142786026,16.31,44.63,0,0,1,0,1,0
1767985613.8263068,20260109150653.826177,18.189134954709047,-64.95849570816642,0.16294912204754042,0.4908771818217721,-0.17879250638770655,-0.1403040970877255,-0.04214618402450528,16.740927707701914,-1.0548671723172114,-153.10887905675537,5,44.78,0.53928142786026,16.31,44.78,0,0,1,0,1,0
1767985613.9412615,20260109150653.941132,18.189134813409765,-64.95849589769776,0.16294912204754042,0.4908771818217721,-0.17879250638770655,-0.1403040970877255,-0.04214618402450528,16.740927707701914,-1.0548671723172114,-153.10887905675537,5,44.78,0.6782954335212708,16.31,44.78,0,0,1,0,1,0
1767985614.04993,20260109150654.049800,18.1891346974795,-64.95849604249376,0.16294912204754042,0.4908771818217721,-0.17378613460611522,-0.14645948046700563,-0.04214618402450528,16.103240528208012,-1.445440687323737,-155.10923727423315,5,44.78,0.6782954335212708,15.89,44.78,0,0,1,0,1,0
1767985614.1379027,20260109150654.137773,18.18913453570317,-64.95849622038054,0.18490373909155744,0.4908771818217721,-0.16417418308202714,-0.15715863835420896,-0.08281273987314894,14.103424457189435,-1.154462998693813,-158.73577037101222,5,44.78,0.5930336117744446,15.89,44.78,0,0,1,0,1,0
1767985614.2526095,20260109150654.252480,18.189134378494234,-64.95849639324508,0.18490373909155744,0.4908771818217721,-0.16417418308202714,-0.15715863835420896,-0.08281273987314894,14.103424457189435,-1.154462998693813,-158.73577037101222,5,44.78,0.4849488437175751,15.89,44.78,0,0,1,0,1,0
1767985614.3499131,20260109150654.349784,18.189134228524072,-64.958496550827,0.17014894210398013,0.4908771818217721,-0.16056391308289975,-0.16084535994397542,-0.05368637523169781,12.808959712645407,0.13540059794280343,-160.03666232586338,5,44.78,0.6453632116317749,15.89,44.78,0,0,1,0,1,0
1767985614.4239802,20260109150654.423851,18.189134124340782,-64.95849665601882,0.18714894210398136,0.4908771818217721,-0.15732633493345521,-0.16401348827583132,-0.009990589134560968,11.532697428748012,2.3554233805619136,-161.17865670304727,5,44.78,0.6453632116317749,15.89,44.78,0,0,1,0,1,0
1767985614.536251,20260109150654.536121,18.189133942643867,-64.95849665540742,0.18714894210398136,0.4908771818217721,0.0005937141465310394,-0.18572196290022408,-0.009990589134560968,8.795844772365689,8.48136909015476,-163.60217261167003,5,43.59,0.6748477816581726,15.89,43.59,0,0,1,0,1,0
1767985614.639391,20260109150654.639261,18.18913376421617,-64.95849665480702,0.18714894210398136,0.4908771818217721,0.0005937141465310394,-0.18572196290022408,-0.009990589134560968,8.795844772365689,8.48136909015476,-163.60217261167003,5,43.59,0.5629945993423462,16.56,43.59,0,0,1,0,1,0
1767985614.7513702,20260109150654.751241,18.18913357538261,-64.9584966486898,0.12032785857352282,0.4908771818217721,0.005713107588386973,-0.1856350193300917,-0.04869374743741666,7.226107937917108,10.939026565325252,-165.18179102583366,5,43.59,0.5405416488647461,16.56,43.59,0,0,1,0,1,0
1767985614.866464,20260109150654.866334,18.189133387902864,-64.95849663612404,0.0863152710758304,0.4908771818217721,0.011802094681200657,-0.18534753993818198,-0.08778616628970554,5.334838979548216,11.932816029810903,-167.06242964473196,5,43.59,0.5174686312675476,16.56,43.59,0,0,1,0,1,0
1767985614.921352,20260109150654.921222,18.189133290192697,-64.9584966258527,0.0863152710758304,0.4908771818217721,0.01845591529621124,-0.18480362331561326,-0.08778616628970554,3.168860781752319,11.184360217845434,-169.12210124617053,5,43.59,0.5174686312675476,16.56,43.59,0,0,1,0,1,0
1767985615.0312662,20260109150655.031137,18.189133125731324,-64.95849659498032,0.0863152710758304,0.4908771818217721,0.03260700753551382,-0.18283813349402508,-0.08778616628970554,0.06949874711986585,5.753077652071413,-173.53073038459254,5,43.59,0.4327724277973175,16.56,43.59,0,0,1,0,1,0
1767985615.1338286,20260109150655.133699,18.189132959750832,-64.95849656382276,0.058798641040336184,0.4908771818217721,0.03260700753551382,-0.18283813349402508,-0.10479062577373802,0.06949874711986585,5.753077652071413,-173.53073038459254,5,43.59,0.4230135679244995,16.56,43.59,0,0,1,0,1,0
1767985615.2226956,20260109150655.222566,18.189132751501187,-64.95849661267327,0.058798641040336184,0.4908771818217721,-0.052111165709386384,-0.23383418571374218,-0.10479062577373802,-0.3072912544501017,2.446129392389951,-175.8373817147298,5,42.84,0.4230135679244995,16.45,42.84,0,0,1,0,1,0
1767985615.3381045,20260109150655.337975,18.189132538363072,-64.95849664591864,0.08775228394907379,0.4908771818217721,-0.03511756253305639,-0.2369826086482653,-0.04955215821778576,-0.2616606119192204,-2.631655325831475,-179.97164205608797,5,42.84,0.36813944578170776,16.45,42.84,0,0,1,0,1,0
1767985615.4218678,20260109150655.421738,18.189132325238358,-64.95849667916191,0.08775228394907379,0.4908771818217721,-0.03511756253305639,-0.2369826086482653,-0.04955215821778576,-0.2616606119192204,-2.631655325831475,-179.97164205608797,5,42.84,0.36813944578170776,16.45,42.84,0,0,1,0,1,0
1767985615.5212252,20260109150655.521096,18.189132110810217,-64.95849670099416,0.13733400242888183,0.4908771818217721,-0.02306564816860478,-0.23845749280440345,-0.002397727645938909,-0.39384173501254993,-3.105839884407075,-182.87579854846427,5,42.84,0.5724713206291199,16.45,42.84,0,0,1,0,1,0
1767985615.6470606,20260109150655.646931,18.189131879081522,-64.95849672458789,0.13733400242888183,0.4908771818217721,-0.02306564816860478,-0.23845749280440345,-0.002397727645938909,-0.39384173501254993,-3.105839884407075,-182.87579854846427,5,42.84,0.837795078754425,16.45,42.84,0,0,1,0,1,0
1767985615.7398639,20260109150655.739734,18.189131641645652,-64.95849674480093,0.1444617085774591,0.4908771818217721,-0.01931260515153326,-0.23879075208697043,0.01039346265591978,0.14054141102889572,-2.154827269658448,-183.77691938825086,5,42.84,0.9043365716934204,16.45,42.84,0,0,1,0,1,0
1767985615.8491504,20260109150655.849021,18.189131701106472,-64.9584967784739,0.1444617085774591,0.4908771818217721,-0.03266403015223979,0.060712940418114904,0.01039346265591978,1.4445235206563027,-0.8479135404054088,-184.31817109237147,5,41.86,1.1453672647476196,16.42,41.86,0,0,1,0,1,0
1767985615.923715,20260109150655.923586,18.189131740619402,-64.9584968010066,0.12505059719154776,0.4908771818217721,-0.03284058902615007,0.06061761882832014,0.022962556523309283,3.7368482037216424,0.4839352440716685,-184.4849233903928,5,41.86,1.1453672647476196,16.42,41.86,0,0,1,0,1,0
1767985616.029395,20260109150656.029265,18.18913179876255,-64.95849683377946,0.12505059719154776,0.4908771818217721,-0.032545431435022185,0.060776598232446924,0.022962556523309283,10.404247321531177,2.1421585448786598,-184.2063062141461,5,41.86,0.9268689751625061,16.42,41.86,0,0,1,0,1,0
1767985616.1304038,20260109150656.130274,18.189131855655333,-64.95849686584755,0.09161272142482098,0.4908771818217721,-0.032545431435022185,0.060776598232446924,-0.01104273904213482,10.404247321531177,2.1421585448786598,-184.2063062141461,5,41.86,0.5821484923362732,16.42,41.86,0,0,1,0,1,0
1767985616.2477922,20260109150656.247663,18.189131910742077,-64.95849689656659,0.09161272142482098,0.4908771818217721,-0.03227480895373513,0.06092074118885865,-0.01104273904213482,13.441344955900313,2.03578407349214,-183.95148542547656,5,41.86,0.5844398140907288,16.42,41.86,0,0,1,0,1,0
1767985616.385775,20260109150656.385645,18.18913195969369,-64.95849692338034,0.07811830588901153,0.4908771818217721,-0.03182533002871704,0.06115675243636831,-0.06996142235796704,15.296178257113695,1.3283190161570906,-183.52957082920503,5,41.86,0.5844398140907288,16.42,41.86,0,0,1,0,1,0
1767985616.433492,20260109150656.433362,18.18913195077075,-64.95849701576456,0.07811830588901153,0.4908771818217721,-0.09271543572599832,-0.00942592054593466,-0.06996142235796704,14.343581678241495,-1.027714706058429,-182.1137130891366,5,41.14,0.5074052810668945,16.39,41.14,0,0,1,0,1,0
1767985616.519895,20260109150656.519765,18.189131942740183,-64.95849709890967,0.08049862951451821,0.4908771818217721,-0.09271543572599832,-0.00942592054593466,-0.05351817706762361,14.343581678241495,-1.027714706058429,-182.1137130891366,5,41.14,0.4764317572116852,16.39,41.14,0,0,1,0,1,0
1767985616.620048,20260109150656.619918,18.189131935194165,-64.9584971867642,0.08049862951451821,0.4908771818217721,-0.09281478834203134,-0.008391368483383599,-0.05351817706762361,12.885807052248719,-1.8886542756423375,-181.47473500342798,5,41.14,0.4764317572116852,16.39,41.14,0,0,1,0,1,0
1767985616.7298574,20260109150656.729728,18.189128666666665,-64.95850233333334,0.10266096825895014,0.4908771818217721,0.0,0.051444000000000004,-0.04309287789048089,12.486082040977479,-1.8196765974372622,-181.27422789845895,1,41.14,0.45658499002456665,16.39,41.14,0,0,1,0,1,0
1767985616.8251512,20260109150656.825022,18.189128666666665,-64.95850233333334,0.10266096825895014,0.4908771818217721,0.0,0.051444000000000004,-0.04309287789048089,13.61485487474799,-0.6092301466371871,-181.61469928994612,1,41.14,0.45658499002456665,16.39,41.14,0,0,1,0,1,0
1767985616.9244602,20260109150656.924331,18.189128666666665,-64.95850233333334,0.08494041972654366,0.4908771818217721,0.0,0.051444000000000004,-0.00030632945732674173,17.96576035630703,4.291945986901221,-182.57461441913082,1,41.14,0.6047310829162598,16.39,41.14,0,0,1,0,1,0
1767985617.0206876,20260109150657.020558,18.189128666666665,-64.95850233333334,0.08494041972654366,0.4908771818217721,0.0,0.051444000000000004,-0.00030632945732674173,17.96576035630703,4.291945986901221,-182.57461441913082,1,42.73,0.6947396397590637,16.45,42.73,0,0,1,0,1,0
1767985617.120598,20260109150657.120468,18.189128,-64.95850183333333,0.046552263762305826,0.4908771818217721,-0.07398919888345601,-0.14590378589286432,-0.06980373538084998,18.69185412093401,6.668282346962391,-182.33091549670323,1,42.73,0.6947396397590637,16.45,42.73,0,0,1,0,1,0
1767985617.2270844,20260109150657.226955,18.189128,-64.95850183333333,0.046552263762305826,0.4908771818217721,-0.07398919888345601,-0.14590378589286432,-0.06980373538084998,16.15562639032602,7.571268255946035,-179.8497254501067,1,42.73,0.6983308792114258,16.45,42.73,0,0,1,0,1,0
