timestamp_ros,timestamp_sys (%Y%m%d%H%M%S.%f),latitude,longitude,depth,distance_to_ocean_floor,velX,velY,velZ,roll,pitch,yaw,navMode,acousticAltimeter,forwardStereo,battery_volts,altitudeUsed,cotsNumFound,cotsNumMaybe,missionState,errorState,storeData,storeImageData
1767900726.205327,20260108153206.205289,18.189010333333332,-64.95861133333332,-0.008794798142271333,1.3244702785526392,0.0,0.12243672,0.08991990353169241,12.441243540590994,-3.3878461163543103,122.74159107404711,1,-1.0,0.6845224499702454,16.2,1.3244702785526392,0,0,1,0,1,0
1767900726.277451,20260108153206.277413,18.189010333333332,-64.95861133333332,-0.008794798142271333,1.3244702785526392,0.0,0.12243672,0.08991990353169241,12.441243540590994,-3.3878461163543103,122.74159107404711,1,-1.0,0.4074847996234894,16.2,1.3244702785526392,0,0,1,0,1,0
1767900726.373664,20260108153206.373626,18.189010333333332,-64.95861133333332,-0.007117833507304515,1.3244702785526392,0.0,0.12243672,0.15160483625912877,12.86690961960554,2.584428179372107,123.80058496275905,1,43.68,0.4206443130970001,16.2,43.68,0,0,1,0,1,0
1767900726.4745085,20260108153206.474470,18.189010333333332,-64.95861133333332,-0.007117833507304515,1.3244702785526392,0.0,0.12243672,0.15160483625912877,7.82985589528978,9.629978507915146,124.59478598304752,1,43.68,0.4206443130970001,16.2,43.68,0,0,1,0,1,0
1767900726.5786803,20260108153206.578642,18.189010333333332,-64.95861133333332,-0.12461231377200929,1.3244702785526392,0.0,0.12243672,0.062313050960315405,2.4856145166568466,15.5915037895918,125.14673376723294,1,0.1,0.31094780564308167,16.2,0.1,0,0,1,0,1,0
1767900726.6798089,20260108153206.679771,18.18901,-64.95861199999999,-0.12461231377200929,1.3244702785526392,0.0,0.15536088,0.062313050960315405,2.413966233531386,16.981439244943864,127.14255673748019,1,-1.0,0.39122822880744934,16.2,1.3244702785526392,0,0,1,0,1,0
1767900726.7794023,20260108153206.779364,18.18901,-64.95861199999999,-0.1566418731396383,1.3244702785526392,0.0,0.15536088,-0.12224282616502377,2.413966233531386,16.981439244943864,127.14255673748019,1,-1.0,0.612239420413971,16.2,1.3244702785526392,0,0,1,0,1,0
1767900726.88322,20260108153206.883182,18.18901,-64.95861199999999,-0.1566418731396383,1.3244702785526392,0.0,0.15536088,-0.12224282616502377,3.077268766006081,13.357182481080295,128.51437340203287,1,-1.0,0.5188096761703491,16.12,1.3244702785526392,0,0,1,0,1,0
1767900726.9817002,20260108153206.981662,18.18901,-64.95861199999999,-0.1621581966293193,1.3244702785526392,0.0,0.15536088,-0.19129667625309443,1.0037780861098302,9.222536233896019,129.52558327022555,1,-1.0,0.5188096761703491,16.12,1.3244702785526392,0,0,1,0,1,0
1767900727.079373,20260108153207.079335,18.18901,-64.95861199999999,-0.1621581966293193,1.3244702785526392,0.0,0.15536088,-0.19129667625309443,-3.195548688259722,4.197300021730367,130.5942350498772,1,-1.0,1.49805748462677,16.12,1.3244702785526392,0,0,1,0,1,0
1767900727.1805837,20260108153207.180546,18.189008333333334,-64.958611,-0.13050010098115486,1.3244702785526392,0.21948949500083365,-0.37879160468773937,-0.1527082858473109,-3.195548688259722,4.197300021730367,130.59423534996554,1,-1.0,0.6480729579925537,16.12,1.3244702785526392,0,0,1,0,1,0
1767900727.2858477,20260108153207.285809,18.189008333333334,-64.958611,-0.13050010098115486,1.3244702785526392,0.21948949500083365,-0.37879160468773937,-0.1527082858473109,3.703552727159857,3.003548373500262,130.95828456289811,1,-1.0,0.6530513167381287,16.12,1.3244702785526392,0,0,1,0,1,0
1767900727.376336,20260108153207.376298,18.189008333333334,-64.958611,-0.056062890004889454,1.3244702785526392,0.21948949500083365,-0.37879160468773937,0.08522392547696882,3.703552727159857,3.003548373500262,130.95828456289811,1,-1.0,0.6530513167381287,16.12,1.3244702785526392,0,0,1,0,1,0
1767900727.4773114,20260108153207.477273,18.189008333333334,-64.958611,-0.056062890004889454,1.3244702785526392,0.21948949500083365,-0.37879160468773937,0.08522392547696882,8.895501536858081,4.5540131819844305,131.44354235618158,1,-1.0,0.7821580171585083,16.09,1.3244702785526392,0,0,1,0,1,0
1767900727.5775442,20260108153207.577506,18.189008333333334,-64.958611,-0.0030628900048904027,1.3244702785526392,0.21948949500083365,-0.37879160468773937,0.19316625412472785,8.895501536858081,4.5540131819844305,131.44354235618158,1,-1.0,0.49937376379966736,16.09,1.3244702785526392,0,0,1,0,1,0
1767900727.6864831,20260108153207.686445,18.189007166666666,-64.958611,-0.0030628900048904027,1.3244702785526392,0.1030588645246116,-0.2596347820099306,0.19316625412472785,5.994045531490443,5.739023679055277,130.72451442477748,1,-1.0,0.5259841084480286,16.09,1.3244702785526392,0,0,1,0,1,0
1767900727.8015938,20260108153207.801556,18.189007166666666,-64.958611,-0.01831253031555099,1.3244702785526392,0.1030588645246116,-0.2596347820099306,0.181855937994046,5.994045531490443,5.739023679055277,130.72451442477748,1,-1.0,0.4928832948207855,16.09,1.3244702785526392,0,0,1,0,1,0
1767900727.8743982,20260108153207.874360,18.189007166666666,-64.958611,0.012687469684447816,1.3244702785526392,0.1030588645246116,-0.2596347820099306,0.20054082598502423,4.077607317030428,4.553873589943352,129.63979803445383,1,-1.0,0.4928832948207855,16.09,1.3244702785526392,0,0,1,0,1,0
1767900727.9774804,20260108153207.977442,18.189007166666666,-64.958611,0.012687469684447816,1.3244702785526392,0.1030588645246116,-0.2596347820099306,0.20054082598502423,0.14435740706613157,2.5713955334454814,128.12456100642726,1,-1.0,0.44220468401908875,16.09,1.3244702785526392,0,0,1,0,1,0
1767900728.0868306,20260108153208.086792,18.189007166666666,-64.958611,0.012687469684447816,1.3244702785526392,0.1030588645246116,-0.2596347820099306,0.20054082598502423,-8.398802318850162,-3.2447215855546254,124.19095803425355,1,-1.0,0.5137949585914612,16.06,1.3244702785526392,0,0,1,0,1,0
1767900728.203126,20260108153208.203088,18.189006666666668,-64.95861233333333,0.053024002359425795,1.3244702785526392,-0.01352248896873318,-0.2651063879448628,0.15485430647889048,-8.398802318850162,-3.2447215855546254,124.19095803425355,1,-1.0,0.412152498960495,16.06,1.3244702785526392,0,0,1,0,1,0
1767900728.2977762,20260108153208.297738,18.189006666666668,-64.95861233333333,0.053024002359425795,1.3244702785526392,-0.01352248896873318,-0.2651063879448628,0.15485430647889048,-9.732632018977409,-5.409777280595894,122.12310386326357,1,-1.0,0.412152498960495,16.06,1.3244702785526392,0,0,1,0,1,0
1767900728.3795493,20260108153208.379511,18.189006666666668,-64.95861233333333,0.09327100013819015,1.3244702785526392,-0.01352248896873318,-0.2651063879448628,0.16572105665294545,-8.508056356331709,-7.607594630035753,116.84180846331164,1,-1.0,0.4294689893722534,16.06,1.3244702785526392,0,0,1,0,1,0
1767900728.4888427,20260108153208.488805,18.189006666666668,-64.95861233333333,0.09327100013819015,1.3244702785526392,-0.01352248896873318,-0.2651063879448628,0.16572105665294545,-8.508056356331709,-7.607594630035753,116.84180846331164,1,-1.0,0.5039998888969421,16.06,1.3244702785526392,0,0,1,0,1,0
1767900728.5767796,20260108153208.576741,18.189006666666668,-64.95861233333333,0.1273637900863098,1.3244702785526392,-0.01352248896873318,-0.2651063879448628,0.19669032417002957,-7.479868339338902,-8.209109114751213,113.18563421404407,1,-1.0,0.5039998888969421,16.06,1.3244702785526392,0,0,1,0,1,0
1767900728.684769,20260108153208.684731,18.189006166666665,-64.9586135,0.1273637900863098,1.3244702785526392,-0.18290025016087638,-0.1557704342088037,0.19669032417002957,-5.678834323020285,-8.546337872770422,104.69830151283786,1,-1.0,0.7436973452568054,16.09,1.3244702785526392,0,0,1,0,1,0
1767900728.7964044,20260108153208.796366,18.189006166666665,-64.9586135,0.14055443819563734,1.3244702785526392,-0.18290025016087638,-0.1557704342088037,0.17072527926313813,-5.678834323020285,-8.546337872770422,104.69830151283786,1,41.83,0.6247243881225586,16.09,1.3244702785526392,0,0,1,0,1,0
1767900728.9362137,20260108153208.936176,18.189006166666665,-64.9586135,0.14296495096637676,1.3244702785526392,-0.18290025016087638,-0.1557704342088037,0.11184919293067404,-4.043360309399669,-7.80000454284846,96.51204365789937,1,41.83,0.722107470035553,16.09,1.3244702785526392,0,0,1,0,1,0
1767900728.9925041,20260108153208.992466,18.189006166666665,-64.9586135,0.14296495096637676,1.3244702785526392,-0.18290025016087638,-0.1557704342088037,0.11184919293067404,-4.043360309399669,-7.80000454284846,96.51204365789937,1,41.83,0.5469671487808228,16.09,1.3244702785526392,0,0,1,0,1,0
1767900729.0819077,20260108153209.081870,18.189006166666665,-64.9586135,0.14296495096637676,1.3244702785526392,-0.18290025016087638,-0.1557704342088037,0.11184919293067404,-2.8925297987043903,-7.215467353159183,92.73583562123822,1,41.83,0.5469671487808228,16.09,1.3244702785526392,0,0,1,0,1,0
1767900729.1789637,20260108153209.178925,18.189004833333335,-64.95861333333333,0.11593469634185796,1.3244702785526392,-0.015842366164695032,-0.2706466080850047,0.05803796435632591,0.26607216864851607,-5.589177385935181,85.74197212739038,1,41.83,0.6409076452255249,16.09,1.3244702785526392,0,0,1,0,1,0
1767900729.2756546,20260108153209.275616,18.189004833333335,-64.95861333333333,0.11593469634185796,1.3244702785526392,-0.015842366164695032,-0.2706466080850047,0.05803796435632591,0.26607216864851607,-5.589177385935181,85.74197212739038,1,41.83,0.6409076452255249,16.09,1.3244702785526392,0,0,1,0,1,0
1767900729.4172816,20260108153209.417243,18.189004833333335,-64.95861333333333,0.06981500242446215,1.3244702785526392,-0.015842366164695032,-0.2706466080850047,-0.077372129638383,2.5385570393912418,-4.223968504880362,77.69412810547398,1,42.67,0.7839257121086121,16.09,42.67,0,0,1,0,1,0
1767900729.5050616,20260108153209.505023,18.189004833333335,-64.95861333333333,0.06981500242446215,1.3244702785526392,-0.015842366164695032,-0.2706466080850047,-0.077372129638383,2.5385570393912418,-4.223968504880362,77.69412810547398,1,42.67,0.6858946681022644,16.09,42.67,0,0,1,0,1,0
1767900729.6069622,20260108153209.606924,18.189004,-64.95861233333333,0.056351299995396814,1.3244702785526392,0.12105898238681849,-0.28728589301230506,-0.10939866464767284,1.7832537468910152,-3.3815591384187282,73.3494090699677,1,42.67,0.7016127109527588,16.09,42.67,0,0,1,0,1,0
1767900729.7035754,20260108153209.703537,18.189004,-64.95861233333333,0.06352728710433486,1.3244702785526392,0.12105898238681849,-0.28728589301230506,-0.07464962493019255,-1.3187195020113225,-3.15599206042438,69.46779751634642,1,42.67,0.6904146075248718,16.09,42.67,0,0,1,0,1,0
1767900729.7758024,20260108153209.775764,18.189004,-64.95861233333333,0.06352728710433486,1.3244702785526392,0.12105898238681849,-0.28728589301230506,-0.07464962493019255,-4.423150552676625,-3.9091359451576997,66.2155334782605,1,42.67,0.6904146075248718,16.09,42.67,0,0,1,0,1,0
1767900729.8871086,20260108153209.887070,18.189004,-64.95861233333333,0.06352728710433486,1.3244702785526392,0.12105898238681849,-0.28728589301230506,-0.07464962493019255,-8.934384963932638,-7.173921858903758,62.04132334616231,1,42.67,0.830278217792511,16.0,42.67,0,0,1,0,1,0
1767900729.9973845,20260108153209.997346,18.189004,-64.95861233333333,0.0841108002042047,1.3244702785526392,0.12105898238681849,-0.28728589301230506,-0.06207798187521511,-8.934384963932638,-7.173921858903758,62.04132334616231,1,41.64,0.830278217792511,16.0,41.64,0,0,1,0,1,0
1767900730.0795608,20260108153210.079523,18.189004,-64.95861233333333,0.0841108002042047,1.3244702785526392,0.12105898238681849,-0.28728589301230506,-0.06207798187521511,3.2276808978125358,-14.63154597170948,57.40338418474242,1,41.64,0.5509212017059326,16.0,41.64,0,0,1,0,1,0
1767900730.2089264,20260108153210.208888,18.1890055,-64.95861116666667,0.08035665075968455,1.3244702785526392,0.3446045960014482,0.027544632511999286,0.014422248903092842,3.2276808978125358,-14.63154597170948,57.40338411607169,1,41.64,0.6252159476280212,16.0,41.64,0,0,1,0,1,0
1767900730.3002944,20260108153210.300256,18.1890055,-64.95861116666667,0.08035665075968455,1.3244702785526392,0.3446045960014482,0.027544632511999286,0.014422248903092842,16.980855263561,-19.53618020991683,53.1201026541176,1,41.64,3.441030502319336,16.0,41.64,0,0,1,0,1,0
1767900730.4174428,20260108153210.417405,18.189005555978458,-64.95861093926698,0.21880105482083392,1.3244702785526392,0.2239898547422648,0.058039167572761674,0.18551165292304328,16.980855263561,-19.53618020991683,53.1201026541176,5,41.64,3.441030502319336,16.0,41.64,0,0,1,0,1,0
1767900730.4751954,20260108153210.475157,18.189005594620397,-64.95861079916598,0.24580105482083495,1.3244702785526392,0.22221180184650086,0.06451290661667194,0.19881901780319758,19.66068948036431,-20.15888194901347,51.45766133646393,5,41.64,3.441030502319336,16.06,41.64,0,0,1,0,1,0
1767900730.586846,20260108153210.586808,18.1890057902722,-64.95861043423136,0.24580105482083495,1.3244702785526392,0.3450173166415601,0.1947024684421271,0.19881901780319758,19.386508513569826,-21.7867744499445,49.64998282436753,5,42.16,3.441030502319336,16.06,42.16,0,0,1,0,1,0
1767900730.6800873,20260108153210.680049,18.189005949300984,-64.95861013760688,0.24580105482083495,1.3244702785526392,0.3450173166415601,0.1947024684421271,0.19881901780319758,19.386508513569826,-21.7867744499445,49.64998282436753,5,42.16,3.441030502319336,16.06,42.16,0,0,1,0,1,0
1767900730.774475,20260108153210.774437,18.18900612151092,-64.95860982031921,0.29873902272904,1.3244702785526392,0.3439853229975237,0.19651996733739124,0.26313388533534465,16.97754774327277,-22.323342350167025,49.347705864376096,5,42.16,3.441030502319336,16.06,42.16,0,0,1,0,1,0
1767900730.887253,20260108153210.887215,18.189006314103032,-64.95860947704519,0.29873902272904,1.3244702785526392,0.3411212852891886,0.2014504125651074,0.26313388533534465,9.963376382213822,-21.008854898911704,48.5230490196886,5,42.16,3.441030502319336,16.06,42.16,0,0,1,0,1,0
1767900730.9742796,20260108153210.974241,18.189006483839528,-64.95860917450875,0.33747538835703145,1.3244702785526392,0.3411212852891886,0.2014504125651074,0.24856818307895895,9.963376382213822,-21.008854898911704,48.5230490196886,5,42.16,3.441030502319336,16.06,42.16,0,0,1,0,1,0
1767900731.0751443,20260108153211.075106,18.189006670088776,-64.95860885478615,0.33747538835703145,1.3244702785526392,0.3377294226741284,0.20708654485552633,0.24856818307895895,6.488083109204455,-18.92745987305044,47.571678460210826,5,42.16,3.441030502319336,15.98,42.16,0,0,1,0,1,0
1767900731.1805198,20260108153211.180482,18.189006864205815,-64.9586085403285,0.30794442982985404,1.3244702785526392,0.33219535118415855,0.21585237698861126,0.2219742155890704,3.5446399950049696,-16.190774556362623,46.07235577864076,5,42.16,3.441030502319336,15.98,42.16,0,0,1,0,1,0
1767900731.2747204,20260108153211.274682,18.189006901743163,-64.95860861667057,0.30794442982985404,1.3244702785526392,-0.08064140775188952,0.04173683452052268,0.2219742155890704,0.9514203985322144,-12.964316689735645,44.003135569328315,5,46.37,3.441030502319336,15.98,46.37,0,0,1,0,1,0
1767900731.3855557,20260108153211.385518,18.18900693579309,-64.95860869481527,0.30428959665027366,1.3244702785526392,-0.08253508530951911,0.03785445407016726,0.09369246523340594,-1.3179083100356281,-9.743077943274375,41.2772265874567,5,46.37,3.441030502319336,15.98,46.37,0,0,1,0,1,0
1767900731.5033514,20260108153211.503313,18.18900696730838,-64.958608799631,0.30428959665027366,1.3244702785526392,-0.08656982407740023,0.02739827657368205,0.09369246523340594,-5.158040323439251,-5.274862640114123,34.20075192605878,5,46.37,3.441030502319336,15.98,46.37,0,0,1,0,1,0
1767900731.6096323,20260108153211.609594,18.189006992633043,-64.95860888385748,0.18152546035872086,1.3244702785526392,-0.08656982407740023,0.02739827657368205,-0.12953672321301826,-5.158040323439251,-5.274862640114123,34.20075192605878,5,46.37,3.441030502319336,15.98,46.37,0,0,1,0,1,0
1767900731.7131739,20260108153211.713136,18.18900700686404,-64.95860897370237,0.1645254603587214,1.3244702785526392,-0.08956566012157559,0.014932934305969633,-0.19753334399635583,-8.066304322296393,-4.095945954622325,26.104451109749302,5,46.37,3.441030502319336,16.12,46.37,0,0,1,0,1,0
1767900731.817327,20260108153211.817289,18.189007139476956,-64.95860881638913,0.1645254603587214,1.3244702785526392,0.17140729448023417,0.15209385062837444,-0.19753334399635583,-8.066304322296393,-4.095945954622325,26.104451109749302,5,44.35,3.441030502319336,16.12,44.35,0,0,1,0,1,0
1767900731.8746436,20260108153211.874605,18.18900723711672,-64.95860871556935,0.16019806138220388,1.3244702785526392,0.16047483772853605,0.16358736643151883,-0.16690927105149633,-8.960425069454327,-4.128717640864845,22.13757827423237,5,44.35,3.441030502319336,16.12,44.35,0,0,1,0,1,0
1767900731.97772,20260108153211.977682,18.18900740243694,-64.95860858610759,0.16019806138220388,1.3244702785526392,0.13678338420883168,0.18385675349135022,-0.16690927105149633,-9.114904366922392,-3.3367611922949507,14.33590460330868,5,44.35,3.441030502319336,16.12,44.35,0,0,1,0,1,0
1767900732.0775397,20260108153212.077502,18.189007567813718,-64.95860845660152,0.16019806138220388,1.3244702785526392,0.13678338420883168,0.18385675349135022,-0.16690927105149633,-9.114904366922392,-3.3367611922949507,14.33590460330868,5,44.35,3.441030502319336,16.12,44.35,0,0,1,0,1,0
1767900732.1781714,20260108153212.178133,18.189007755343052,-64.95860835089569,0.15985277550351007,1.3244702785526392,0.10818091904780491,0.20201457559783223,-0.16622174988145993,-8.245210946291698,-0.6054389634054124,5.857381141734351,5,44.35,2.432917594909668,16.12,44.35,0,0,1,0,1,0
1767900732.283755,20260108153212.283717,18.189007938312482,-64.95860824776017,0.15985277550351007,1.3244702785526392,0.10818091904780491,0.20201457559783223,-0.16622174988145993,-8.245210946291698,-0.6054389634054124,5.857381141734351,5,44.35,2.432917594909668,16.12,44.35,0,0,1,0,1,0
1767900732.389477,20260108153212.389439,18.18900814652598,-64.95860817588607,0.10091492513581839,1.3244702785526392,0.07140914127839784,0.21774695070627698,-0.17681531226882993,-4.704429796104147,2.116515657687934,-4.15546461077907,5,44.35,2.5369653701782227,16.12,44.35,0,0,1,0,1,0
1767900732.4983974,20260108153212.498359,18.189008321231917,-64.9586080687498,0.07810583299205175,1.3244702785526392,0.10430125527695051,0.17902862382214865,-0.16275048508310674,-4.704429796104147,2.116515657687934,-4.15546461077907,5,41.92,1.8924896717071533,16.12,41.92,0,0,1,0,1,0
1767900732.6070068,20260108153212.606969,18.18900845920283,-64.95860800320077,0.07810583299205175,1.3244702785526392,0.085238268230234,0.18885030481603857,-0.16275048508310674,-1.904899672948583,2.582011572202296,-10.08813958997258,5,41.92,1.8924896717071533,16.12,41.92,0,0,1,0,1,0
1767900732.6812012,20260108153212.681163,18.189008649737165,-64.95860796145135,0.07810583299205175,1.3244702785526392,0.04222639434122208,0.20284706461011362,-0.16275048508310674,3.706074775412666,0.7356441334096713,-22.62110876193323,5,41.92,0.9639133810997009,16.12,41.92,0,0,1,0,1,0
1767900732.7996314,20260108153212.799593,18.189008836879385,-64.95860792044522,0.09193324677053223,1.3244702785526392,0.04222639434122208,0.20284706461011362,-0.1315610427052314,3.706074775412666,0.7356441334096713,-22.62110876193323,5,41.92,0.7001157999038696,16.12,41.92,0,0,1,0,1,0
1767900732.8869858,20260108153212.886948,18.18900903259817,-64.95860791802451,0.09193324677053223,1.3244702785526392,0.0024344272326589644,0.2071812577528404,-0.1315610427052314,7.697091484504922,-1.932215316753836,-33.70714922529436,5,41.92,0.6448179483413696,15.84,41.92,0,0,1,0,1,0
1767900732.9861996,20260108153212.986161,18.189009196406165,-64.95860791599848,0.09579917365332413,1.3244702785526392,0.0024344272326589644,0.2071812577528404,-0.14845894545405688,7.697091484504922,-1.932215316753836,-33.70714922529436,5,41.92,0.6448179483413696,15.84,41.92,0,0,1,0,1,0
1767900733.0810924,20260108153213.081054,18.189009177783817,-64.95860832968346,0.09579917365332413,1.3244702785526392,-0.4218181029983028,-0.019987195473932767,-0.14845894545405688,5.461059639881538,-3.785666571383181,-44.06470962583397,5,41.91,0.6263777613639832,15.84,41.91,0,0,1,0,1,0
1767900733.1753159,20260108153213.175278,18.18900916045586,-64.95860871461437,0.10119964248987669,1.3244702785526392,-0.42181810349394705,-0.01998718501364785,-0.11312384647800348,5.461059639881538,-3.785666571383181,-44.06470820500735,5,41.91,0.6263777613639832,15.84,41.91,0,0,1,0,1,0
1767900733.2798336,20260108153213.279795,18.1890090817208,-64.95860911258957,0.10119964248987669,1.3244702785526392,-0.41342229552845333,-0.08609300529069827,-0.11312384647800348,4.818438500721741,-5.475553733369713,-53.11529265751725,5,41.91,0.8052599430084229,15.84,41.91,0,0,1,0,1,0
1767900733.37644,20260108153213.376402,18.18900900561523,-64.95860949727373,0.11020837470968993,1.3244702785526392,-0.41342229552845333,-0.08609300529069827,0.012022021080864996,4.818438500721741,-5.475553733369713,-53.11529265751725,5,41.91,0.8562838435173035,15.84,41.91,0,0,1,0,1,0
1767900733.4955313,20260108153213.495493,18.189008906854603,-64.95860988335691,0.11020837470968993,1.3244702785526392,-0.4077686589918566,-0.10979399229458311,0.012022021080864996,7.880572629332528,-5.7803378005698365,-56.421685964130226,5,41.91,0.8562838435173035,15.95,41.91,0,0,1,0,1,0
1767900733.579493,20260108153213.579455,18.18900879014904,-64.95861026374264,0.1408515178916535,1.3244702785526392,-0.4018554821727955,-0.12977739189731807,0.06418315618581358,11.263813275548802,-5.181695838314299,-59.2494979897607,5,41.91,1.2655314207077026,15.95,41.91,0,0,1,0,1,0
1767900733.6788924,20260108153213.678854,18.18900894814627,-64.95861085950244,0.1408515178916535,1.3244702785526392,-0.6293342988751089,0.17567965237720373,0.06418315618581358,14.419722946786868,-3.790278231382374,-61.94063446613437,5,41.99,1.2655314207077026,15.95,41.99,0,0,1,0,1,0
1767900733.7802434,20260108153213.780205,18.189009057828525,-64.95861148845879,0.10443320257145569,1.3244702785526392,-0.6426577519159322,0.11796615574968988,0.026926997717359073,18.92465266429781,-0.2246536999488305,-67.13638171614295,5,41.99,3.299041271209717,15.95,41.99,0,0,1,0,1,0
1767900733.881433,20260108153213.881395,18.189009167101187,-64.95861211506637,0.10443320257145569,1.3244702785526392,-0.6426577519159322,0.11796615574968988,0.026926997717359073,18.92465266429781,-0.2246536999488305,-67.13638171614295,5,41.99,3.0931007862091064,15.95,41.99,0,0,1,0,1,0
1767900733.977728,20260108153213.977690,18.189009247684936,-64.9586126878153,0.09694653410205725,1.3244702785526392,-0.6463454090447216,0.09572153470777359,0.007078396439272416,20.048885128194076,1.7084755284592452,-69.11371877279169,5,41.99,1.796929121017456,15.95,41.99,0,0,1,0,1,0
1767900734.077375,20260108153214.077337,18.189009320059753,-64.95861330160284,0.09694653410205725,1.3244702785526392,-0.6484196074258901,0.08047989006984643,0.007078396439272416,20.123906245315066,3.976357410344476,-70.46259965391046,5,41.99,1.796929121017456,15.84,41.99,0,0,1,0,1,0
1767900734.1805563,20260108153214.180518,18.189009382592122,-64.95861393993845,0.07136279320077293,1.3244702785526392,-0.6499488262703019,0.06701882742824478,-0.024969904627403124,17.497398749524343,8.137050593242044,-71.65060561689025,5,41.99,0.979430079460144,15.84,41.99,0,0,1,0,1,0
1767900734.2892692,20260108153214.289231,18.189009697018747,-64.95861479596316,0.07136279320077293,1.3244702785526392,-0.9394234669983376,0.3632086860922016,-0.024969904627403124,17.497398749524343,8.137050593242044,-71.65060561689025,5,42.55,0.689054012298584,15.84,42.55,0,0,1,0,1,0
1767900734.3907475,20260108153214.390709,18.189010028670904,-64.9586156830029,0.047707321766301006,1.3244702785526392,-0.9372244009255837,0.3688460685837394,-0.05774326014457075,15.562934805625664,8.989443992292875,-71.30637762001639,5,42.55,0.689054012298584,15.84,42.55,0,0,1,0,1,0
1767900734.4875958,20260108153214.487558,18.189010387415248,-64.95861658351592,0.047707321766301006,1.3244702785526392,-0.9288353098074025,0.3894893673195543,-0.05774326014457075,10.9043018711686,7.123470221672946,-70.0387589436043,5,42.55,0.4260409474372864,15.84,42.55,0,0,1,0,1,0
1767900734.5782866,20260108153214.578248,18.18901073910839,-64.95861746632916,0.05962778808468381,1.3244702785526392,-0.9288353098074025,0.3894893673195543,-0.06597357271472377,10.9043018711686,7.123470221672946,-70.0387589436043,5,42.55,0.44696110486984253,15.84,42.55,0,0,1,0,1,0
1767900734.6811595,20260108153214.681121,18.189016,-64.95861933333335,0.05962778808468381,1.3244702785526392,-0.5368948213962724,0.4485954095980306,-0.06597357271472377,9.335311235153666,5.662543889138097,-69.75824980428105,1,42.55,0.44696110486984253,15.7,42.55,0,0,1,0,1,0
1767900734.777738,20260108153214.777700,18.189016,-64.95861933333335,0.05699054845879496,1.3244702785526392,-0.5368948213962724,0.4485954095980306,-0.055449636659389526,8.75052474347054,4.461327481806274,-69.32248357941991,1,42.55,0.4140333831310272,15.7,42.55,0,0,1,0,1,0
1767900734.8748217,20260108153214.874783,18.189016,-64.95861933333335,0.05699054845879496,1.3244702785526392,-0.5368948213962724,0.4485954095980306,-0.055449636659389526,10.88457542401849,-0.3290336486628351,-66.92131947284821,1,42.55,0.45402422547340393,15.7,42.55,0,0,1,0,1,0
1767900734.9790025,20260108153214.978964,18.189016,-64.95861933333335,0.05644649655549676,1.3244702785526392,-0.5368948213962724,0.4485954095980306,-0.041530295342977544,10.88457542401849,-0.3290336486628351,-66.92131947284821,1,44.46,0.45402422547340393,15.7,44.46,0,0,1,0,1,0
1767900735.0750365,20260108153215.074998,18.189016,-64.95861933333335,0.05644649655549676,1.3244702785526392,-0.5368948213962724,0.4485954095980306,-0.041530295342977544,13.169232683390367,-4.556966812969749,-66.21033067697174,1,44.46,0.5905182957649231,15.7,44.46,0,0,1,0,1,0
1767900735.1935775,20260108153215.193539,18.189017,-64.95862216666666,0.10775687686668627,1.3244702785526392,-0.5523693923291888,0.3022881174129679,0.03626169648001707,13.606348724868882,-9.292632782864578,-65.80853099499828,1,44.46,0.5957379341125488,15.7,44.46,0,0,1,0,1,0
1767900735.2743118,20260108153215.274274,18.189017,-64.95862216666666,0.10775687686668627,1.3244702785526392,-0.5523693923291888,0.3022881174129679,0.03626169648001707,13.606348724868882,-9.292632782864578,-65.80853099499828,1,44.46,0.5957379341125488,15.75,44.46,0,0,1,0,1,0
1767900735.3754883,20260108153215.375450,18.189017,-64.95862216666666,0.16436614122549137,1.3244702785526392,-0.5523693923291888,0.3022881174129679,0.10990743508278442,12.525651048535098,-9.53874849232436,-65.62432755740768,1,44.46,0.6986202597618103,15.75,44.46,0,0,1,0,1,0
1767900735.4752455,20260108153215.475207,18.189017,-64.95862216666666,0.16436614122549137,1.3244702785526392,-0.5523693923291888,0.3022881174129679,0.10990743508278442,11.614074892938126,-9.059411621394759,-66.18350851451042,1,44.46,0.6986202597618103,15.75,44.46,0,0,1,0,1,0
1767900735.5794072,20260108153215.579369,18.189017,-64.95862216666666,0.14416686542807527,1.3244702785526392,-0.5523693923291888,0.3022881174129679,0.052953326036286816,9.395959067800627,-6.982294429917637,-69.68461009341362,1,42.65,1.1834359169006348,15.75,42.65,0,0,1,0,1,0
1767900735.6886737,20260108153215.688636,18.189017999999997,-64.9586255,0.14416686542807527,1.3244702785526392,-0.7119207545387658,0.2550447260681825,0.052953326036286816,9.395959067800627,-6.982294429917637,-69.68461009341362,1,42.65,0.7597435116767883,15.75,42.65,0,0,1,0,1,0
1767900735.785213,20260108153215.785175,18.189017999999997,-64.9586255,0.1450030395705529,1.3244702785526392,-0.7119207545387658,0.2550447260681825,0.07121474432080373,8.187862949967375,-5.971953276720648,-72.04368997436649,1,42.65,0.7597435116767883,15.75,42.65,0,0,1,0,1,0
1767900735.8748457,20260108153215.874808,18.189017999999997,-64.9586255,0.1450030395705529,1.3244702785526392,-0.7119207545387658,0.2550447260681825,0.07121474432080373,5.719574281552425,-3.026749894076591,-75.79191471599228,1,42.65,0.717290997505188,16.0,42.65,0,0,1,0,1,0
1767900735.9824488,20260108153215.982411,18.189017999999997,-64.9586255,0.1251496759790491,1.3244702785526392,-0.7119207545387658,0.2550447260681825,-0.018756290777219544,5.719574281552425,-3.026749894076591,-75.79191471599228,1,42.65,0.68785560131073,16.0,42.65,0,0,1,0,1,0
1767900736.0771217,20260108153216.077084,18.189017999999997,-64.9586255,0.1251496759790491,1.3244702785526392,-0.7119207545387658,0.2550447260681825,-0.018756290777219544,4.151435711941112,-1.4983480986043876,-76.67319384914524,1,42.65,0.68785560131073,16.0,42.65,0,0,1,0,1,0
1767900736.1833274,20260108153216.183289,18.189019666666663,-64.95862983333333,0.09192987187587595,1.3244702785526392,-0.9302645261191692,0.40468360079911836,-0.11019690585929184,0.5916120408994975,0.10009192240330687,-77.21541467748223,1,42.92,0.609266459941864,16.0,42.92,0,0,1,0,1,0
1767900736.2769873,20260108153216.276949,18.189019666666663,-64.95862983333333,0.09192987187587595,1.3244702785526392,-0.9302645261191692,0.40468360079911836,-0.11019690585929184,0.5916120408994975,0.10009192240330687,-77.21541467748223,1,42.92,0.5936070084571838,16.0,42.92,0,0,1,0,1,0
1767900736.3785102,20260108153216.378472,18.189019666666663,-64.95862983333333,0.0922995821428022,1.3244702785526392,-0.9302645261191692,0.40468360079911836,-0.08778892521161458,-1.075009300659979,0.6976430817140203,-77.26615617096957,1,42.92,0.5936070084571838,16.0,42.92,0,0,1,0,1,0
1767900736.4766614,20260108153216.476623,18.189019666666663,-64.95862983333333,0.0922995821428022,1.3244702785526392,-0.9302645261191692,0.40468360079911836,-0.08778892521161458,-2.8942095989540317,1.6526393523596166,-76.30797591045435,1,42.92,0.4933633506298065,15.81,42.92,0,0,1,0,1,0
1767900736.5774124,20260108153216.577374,18.189019666666663,-64.95862983333333,0.09212215082604436,1.3244702785526392,-0.9302645261191692,0.40468360079911836,-0.06724525780876775,-2.8942095989540317,1.6526393523596166,-76.30797591045435,1,42.92,0.4616698622703552,15.81,42.92,0,0,1,0,1,0
1767900736.6776898,20260108153216.677652,18.18902166666667,-64.9586345,0.09212215082604436,1.3244702785526392,-0.9634266587347615,0.47031094833177634,-0.06724525780876775,-2.720673426557342,2.061709346417331,-75.54956509421406,1,42.92,0.4616698622703552,15.81,42.92,0,0,1,0,1,0
1767900736.7820828,20260108153216.782045,18.18902166666667,-64.9586345,0.0414132758009898,1.3244702785526392,-0.9634266587347615,0.47031094833177634,-0.10507513191022659,-1.8901227668389777,2.3834051814928583,-74.08237163398798,1,42.1,0.5732991099357605,15.81,42.1,0,0,1,0,1,0
1767900736.876946,20260108153216.876908,18.18902166666667,-64.9586345,0.0414132758009898,1.3244702785526392,-0.9634266587347615,0.47031094833177634,-0.10507513191022659,-1.8901227668389777,2.3834051814928583,-74.08237163398798,1,42.1,0.4509553611278534,15.81,42.1,0,0,1,0,1,0
1767900736.9912179,20260108153216.991180,18.18902166666667,-64.9586345,0.036323236375603335,1.3244702785526392,-0.9634266587347615,0.47031094833177634,-0.08956937012161884,-0.29646097179233233,1.7151560961864822,-72.6069068117195,1,42.1,0.535678505897522,15.81,42.1,0,0,1,0,1,0
1767900737.0939224,20260108153217.093884,18.18902166666667,-64.9586345,0.036323236375603335,1.3244702785526392,-0.9634266587347615,0.47031094833177634,-0.08956937012161884,-0.29646097179233233,1.7151560961864822,-72.6069068117195,1,42.1,0.535678505897522,15.86,42.1,0,0,1,0,1,0
1767900737.1885006,20260108153217.188462,18.1890225,-64.95863816666666,0.054013902054888964,1.3244702785526392,-0.7724240660032392,0.3059802798276117,-0.05533390088025187,1.543695341544215,0.8538592755647318,-71.99966862643302,1,42.1,0.5067222714424133,15.86,42.1,0,0,1,0,1,0
1767900737.2751102,20260108153217.275072,18.1890225,-64.95863816666666,0.054013902054888964,1.3244702785526392,-0.7724240660032392,0.3059802798276117,-0.05533390088025187,6.831668214292813,-1.429938820407545,-71.1990950373703,1,42.1,0.5451809167861938,15.86,42.1,0,0,1,0,1,0
1767900737.3792863,20260108153217.379248,18.1890225,-64.95863816666666,0.06675953783034269,1.3244702785526392,-0.7724240660032392,0.3059802798276117,-0.021420591887299625,6.831668214292813,-1.429938820407545,-71.1990950373703,1,42.1,0.43627241253852844,15.86,42.1,0,0,1,0,1,0
1767900737.474585,20260108153217.474547,18.1890225,-64.95863816666666,0.06675953783034269,1.3244702785526392,-0.7724240660032392,0.3059802798276117,-0.021420591887299625,7.726288846099367,-2.2273794859550953,-71.05012172811566,1,41.67,0.43627241253852844,15.86,41.67,0,0,1,0,1,0
1767900737.5846903,20260108153217.584652,18.1890225,-64.95863816666666,0.09425130859830327,1.3244702785526392,-0.7724240660032392,0.3059802798276117,0.0603048553889615,4.418998223063338,-3.8815667304888417,-71.0050151427084,1,0.12,0.6004927158355713,15.86,0.12,0,0,1,0,1,0
1767900737.6841156,20260108153217.684077,18.1890225,-64.95864133333333,0.09425130859830327,1.3244702785526392,-0.6235161518178319,0.1752624860256293,0.0603048553889615,4.418998223063338,-3.8815667304888417,-71.0050151427084,1,0.12,0.6004927158355713,15.92,0.12,0,0,1,0,1,0
1767900737.7747693,20260108153217.774731,18.1890225,-64.95864133333333,0.061919920427895445,1.3244702785526392,-0.6235161518178319,0.1752624860256293,0.024884600775438845,1.5264517757668974,-5.418784168897574,-70.93672347187336,1,0.1,0.4665560722351074,15.92,0.1,0,0,1,0,1,0
1767900737.879085,20260108153217.879047,18.1890225,-64.95864133333333,0.061919920427895445,1.3244702785526392,-0.6235161518178319,0.1752624860256293,0.024884600775438845,-3.0556287979871146,-8.8865300801754,-70.2911440059715,1,0.1,0.7882779836654663,15.92,0.1,0,0,1,0,1,0
1767900737.9769905,20260108153217.976952,18.1890225,-64.95864133333333,0.09462919949976416,1.3244702785526392,-0.6235161518178319,0.1752624860256293,0.08485689628086168,-3.0556287979871146,-8.8865300801754,-70.2911440059715,1,0.14,0.8303118944168091,15.92,0.14,0,0,1,0,1,0
1767900738.0795765,20260108153218.079538,18.1890225,-64.95864133333333,0.09462919949976416,1.3244702785526392,-0.6235161518178319,0.1752624860256293,0.08485689628086168,-4.148085502955329,-9.778302948966626,-69.74367682748372,1,0.15,1.7431281805038452,15.92,0.15,0,0,1,0,1,0
1767900738.1742554,20260108153218.174217,18.189023333333335,-64.95864466666667,0.1183889714435613,1.3244702785526392,-0.7114801304982139,0.22064818368937222,0.09154703946547085,-4.641353830339027,-9.874707688477638,-69.11014240449009,1,0.12,1.7431281805038452,15.92,0.12,0,0,1,0,1,0
1767900738.2841787,20260108153218.284141,18.189023333333335,-64.95864466666667,0.1183889714435613,1.3244702785526392,-0.7114801304982139,0.22064818368937222,0.09154703946547085,-3.9734144515335688,-8.221378700208671,-68.27026447779474,1,0.14,2.414168119430542,15.92,0.14,0,0,1,0,1,0
1767900738.3773708,20260108153218.377333,18.189023333333335,-64.95864466666667,0.11381959372156453,1.3244702785526392,-0.7114801304982139,0.22064818368937222,0.05726337233842512,-3.9734144515335688,-8.221378700208671,-68.27026447779474,1,0.14,2.414168119430542,15.92,0.14,0,0,1,0,1,0
1767900738.475769,20260108153218.475731,18.189023333333335,-64.95864466666667,0.11381959372156453,1.3244702785526392,-0.7114801304982139,0.22064818368937222,0.05726337233842512,-3.4729159394413345,-4.73335992645175,-68.64535811056433,1,0.11,0.8942902088165283,15.92,0.11,0,0,1,0,1,0
1767900738.5941596,20260108153218.594121,18.189023333333335,-64.95864466666667,0.10981959372156497,1.3244702785526392,-0.7114801304982139,0.22064818368937222,0.04182428490158775,-3.4729159394413345,-4.73335992645175,-68.64535811056433,1,0.1,0.7173581719398499,15.92,0.1,0,0,1,0,1,0
1767900738.678237,20260108153218.678199,18.189025,-64.95864883333334,0.10981959372156497,1.3244702785526392,-0.9570808241557448,0.416547893297875,0.04182428490158775,-3.4100845799133293,-2.6052419076494924,-69.13352556547461,1,0.1,0.7173581719398499,15.92,0.1,0,0,1,0,1,0
1767900738.7885134,20260108153218.788475,18.189025,-64.95864883333334,0.10209767507091094,1.3244702785526392,-0.9570808241557448,0.416547893297875,0.012392459429296537,-3.9403610198870402,1.6751947794981243,-69.93765426927148,1,0.18,0.5637743473052979,15.92,0.18,0,0,1,0,1,0
1767900738.935797,20260108153218.935759,18.189025,-64.95864883333334,0.10209767507091094,1.3244702785526392,-0.9570808241557448,0.416547893297875,0.012392459429296537,-3.9403610198870402,1.6751947794981243,-69.93765426927148,1,0.18,0.6070936322212219,16.06,0.18,0,0,1,0,1,0
1767900738.990874,20260108153218.990836,18.189025,-64.95864883333334,0.0982228967799977,1.3244702785526392,-0.9570808241557448,0.416547893297875,-0.02629539148928487,-4.87973349402399,3.967396625836188,-69.80750838319598,1,0.17,0.650400698184967,16.06,0.17,0,0,1,0,1,0
1767900739.100195,20260108153219.100157,18.189025,-64.95864883333334,0.0982228967799977,1.3244702785526392,-0.9570808241557448,0.416547893297875,-0.02629539148928487,-4.87973349402399,3.967396625836188,-69.80750838319598,1,0.21,0.6381664276123047,16.06,0.21,0,0,1,0,1,0
1767900739.1763816,20260108153219.176343,18.1890275,-64.95865266666667,0.0731441165279392,1.3244702785526392,-0.9091226614946096,0.552537936419794,-0.05115558882197273,-5.017138593122374,4.326060659569497,-69.44804349550773,1,0.15,0.6381664276123047,16.06,0.15,0,0,1,0,1,0
1767900739.281289,20260108153219.281251,18.1890275,-64.95865266666667,0.0731441165279392,1.3244702785526392,-0.9091226614946096,0.552537936419794,-0.05115558882197273,-4.437916573168347,4.560223106820875,-68.68597511165909,1,0.15,0.659509539604187,16.06,0.15,0,0,1,0,1,0
1767900739.3805113,20260108153219.380473,18.1890275,-64.95865266666667,0.04301261718129769,1.3244702785526392,-0.9091226614946096,0.552537936419794,-0.08680654516357483,-4.437916573168347,4.560223106820875,-68.68597511165909,1,0.15,0.513622522354126,16.06,0.15,0,0,1,0,1,0
1767900739.476149,20260108153219.476111,18.1890275,-64.95865266666667,0.04301261718129769,1.3244702785526392,-0.9091226614946096,0.552537936419794,-0.08680654516357483,-4.135266513960073,4.29089926003664,-68.41965911050607,1,0.14,0.513622522354126,15.89,0.14,0,0,1,0,1,0
1767900739.5893989,20260108153219.589361,18.1890275,-64.95865266666667,0.025012617181297006,1.3244702785526392,-0.9091226614946096,0.552537936419794,-0.08750848006368032,-3.4397122435793395,2.924821877429628,-68.15152627838425,1,0.13,0.3992006480693817,15.89,0.13,0,0,1,0,1,0
1767900739.6988192,20260108153219.698781,18.189029666666666,-64.95865633333332,0.025012617181297006,1.3244702785526392,-0.9000367946919235,0.554572860268449,-0.08750848006368032,-3.4397122435793395,2.924821877429628,-68.15152627838425,1,0.13,0.4369720220565796,15.89,0.13,0,0,1,0,1,0
1767900739.8014066,20260108153219.801368,18.189029666666666,-64.95865633333332,0.036496710994066386,1.3244702785526392,-0.9000367946919235,0.554572860268449,-0.07147299148363312,-0.9768606211312224,0.4718940431462545,-68.36297193522029,1,0.16,0.675739049911499,15.89,0.16,0,0,1,0,1,0
1767900739.8752663,20260108153219.875228,18.189029666666666,-64.95865633333332,0.036496710994066386,1.3244702785526392,-0.9000367946919235,0.554572860268449,-0.07147299148363312,-0.9768606211312224,0.4718940431462545,-68.36297193522029,1,0.14,0.675739049911499,15.89,0.14,0,0,1,0,1,0
1767900739.978289,20260108153219.978251,18.189029666666666,-64.95865633333332,0.031700219027659585,1.3244702785526392,-0.9000367946919235,0.554572860268449,-0.06922403083700794,3.5684248566336816,-3.7625403963580792,-68.95444262316991,1,0.08,0.6361873149871826,15.89,0.08,0,0,1,0,1,0
1767900740.0835247,20260108153220.083487,18.189029666666666,-64.95865633333332,0.031700219027659585,1.3244702785526392,-0.9000367946919235,0.554572860268449,-0.06922403083700794,3.5684248566336816,-3.7625403963580792,-68.95444262316991,1,0.08,0.5287507176399231,15.72,0.08,0,0,1,0,1,0
1767900740.175406,20260108153220.175368,18.189031666666665,-64.95866066666667,0.05312590112131625,1.3244702785526392,-0.9830921904659649,0.5288980343467641,-0.023323437343676347,4.3446515873640665,-5.384408668287105,-69.50919761610798,1,0.08,0.5287507176399231,15.72,0.08,0,0,1,0,1,0
1767900740.2765982,20260108153220.276560,18.189031666666665,-64.95866066666667,0.05312590112131625,1.3244702785526392,-0.9830921904659649,0.5288980343467641,-0.023323437343676347,3.4917570230036863,-5.831177478061622,-70.1519118166285,1,0.18,0.5239109396934509,15.72,0.18,0,0,1,0,1,0
1767900740.3926187,20260108153220.392580,18.189031666666665,-64.95866066666667,0.08131674419132823,1.3244702785526392,-0.9830921904659649,0.5288980343467641,0.03747162294434315,-0.6054134569086238,-4.700252280159301,-71.6150618034201,1,0.12,0.5992627143859863,15.72,0.12,0,0,1,0,1,0
1767900740.4745514,20260108153220.474513,18.189031666666665,-64.95866066666667,0.08131674419132823,1.3244702785526392,-0.9830921904659649,0.5288980343467641,0.03747162294434315,-0.6054134569086238,-4.700252280159301,-71.6150618034201,1,0.12,0.5992627143859863,15.72,0.12,0,0,1,0,1,0
1767900740.5769322,20260108153220.576894,18.189031666666665,-64.95866066666667,0.07267458883453942,1.3244702785526392,-0.9830921904659649,0.5288980343467641,0.0483050557477807,-1.9417750236891322,-4.3197871285736635,-71.99546932526401,1,0.22,0.38886409997940063,15.72,0.22,0,0,1,0,1,0
1767900740.6909454,20260108153220.690907,18.189034,-64.95866500000001,0.07267458883453942,1.3244702785526392,-1.0090005728767695,0.4715771125628463,0.0483050557477807,-2.938445975261193,-2.9799107878781905,-71.27958328200154,1,0.22,0.8428230285644531,16.09,0.22,0,0,1,0,1,0
1767900740.789603,20260108153220.789565,18.189034,-64.95866500000001,0.07902682726596152,1.3244702785526392,-1.0090005728767695,0.4715771125628463,0.0496468861354826,-2.938445975261193,-2.9799107878781905,-71.27958328200154,1,0.15,0.7757819890975952,16.09,0.15,0,0,1,0,1,0
1767900740.9116778,20260108153220.911640,18.189034,-64.95866500000001,0.07771436045378902,1.3244702785526392,-1.0090005728767695,0.4715771125628463,0.052205798612915334,-2.736374329525988,-1.2941053057104404,-70.64144189476539,1,0.18,0.9204639792442322,16.09,0.18,0,0,1,0,1,0
1767900740.9933403,20260108153220.993302,18.189034,-64.95866500000001,0.07771436045378902,1.3244702785526392,-1.0090005728767695,0.4715771125628463,0.052205798612915334,-2.0133343008801456,0.7750548726210313,-70.14823717354108,1,0.18,0.9204639792442322,16.09,0.18,0,0,1,0,1,0
1767900741.087452,20260108153221.087414,18.189034,-64.95866500000001,0.07771436045378902,1.3244702785526392,-1.0090005728767695,0.4715771125628463,0.052205798612915334,0.45280541849880257,4.2010587615519706,-69.30465045280032,1,0.18,0.4744625985622406,16.09,0.18,0,0,1,0,1,0
1767900741.1800642,20260108153221.180026,18.189036666666667,-64.95866883333333,0.06056800047608548,1.3244702785526392,-0.873283842915422,0.3948533735474863,0.018972252615970714,0.45280541849880257,4.2010587615519706,-69.30465045280032,1,0.18,0.4744625985622406,16.09,0.18,0,0,1,0,1,0
1767900741.2963402,20260108153221.296302,18.189036666666667,-64.95866883333333,0.06056800047608548,1.3244702785526392,-0.873283842915422,0.3948533735474863,0.018972252615970714,2.5602708588570247,5.041358025692397,-68.83739021441508,1,0.24,0.7390632033348083,15.84,0.24,0,0,1,0,1,0
1767900741.381741,20260108153221.381703,18.189036666666667,-64.95866883333333,0.0437042050594682,1.3244702785526392,-0.873283842915422,0.3948533735474863,-0.024919655607084035,2.5602708588570247,5.041358025692397,-68.83739021441508,1,0.22,0.4345475733280182,15.84,0.22,0,0,1,0,1,0
1767900741.477896,20260108153221.477858,18.189036666666667,-64.95866883333333,0.0437042050594682,1.3244702785526392,-0.873283842915422,0.3948533735474863,-0.024919655607084035,3.482311508334416,4.478844361969822,-68.66034481763414,1,0.17,0.4345475733280182,15.84,0.17,0,0,1,0,1,0
1767900741.5877047,20260108153221.587666,18.189036666666667,-64.95866883333333,0.03061677818098139,1.3244702785526392,-0.873283842915422,0.3948533735474863,-0.03331091299421215,4.527544055052091,1.372854853677744,-68.1675123418527,1,0.19,0.5863409638404846,15.84,0.19,0,0,1,0,1,0
1767900741.6871834,20260108153221.687145,18.189038666666665,-64.95867166666667,0.03061677818098139,1.3244702785526392,-0.6493037458312582,0.30443252885246425,-0.03331091299421215,4.527544055052091,1.372854853677744,-68.1675123418527,1,0.19,0.46055805683135986,15.84,0.19,0,0,1,0,1,0
1767900741.7786531,20260108153221.778615,18.189038666666665,-64.95867166666667,0.04731438610355039,1.3244702785526392,-0.6493037458312582,0.30443252885246425,-0.03217151924684152,2.1162994394346963,-3.1198646156653824,-67.73347074037365,1,0.19,0.4578905701637268,15.84,0.19,0,0,1,0,1,0
1767900741.888582,20260108153221.888544,18.189038666666665,-64.95867166666667,0.04731438610355039,1.3244702785526392,-0.6493037458312582,0.30443252885246425,-0.03217151924684152,2.1162994394346963,-3.1198646156653824,-67.73347074037365,1,0.18,0.4578905701637268,16.09,0.18,0,0,1,0,1,0
1767900741.9771886,20260108153221.977150,18.189038666666665,-64.95867166666667,0.07470509843188004,1.3244702785526392,-0.6493037458312582,0.30443252885246425,0.018311744467541642,-3.385405816957365,-6.520064200767878,-66.53685532086662,1,0.14,0.43144890666007996,16.09,0.14,0,0,1,0,1,0
1767900742.0773747,20260108153222.077337,18.189038666666665,-64.95867166666667,0.07470509843188004,1.3244702785526392,-0.6493037458312582,0.30443252885246425,0.018311744467541642,-3.385405816957365,-6.520064200767878,-66.53685532086662,1,0.16,0.43144890666007996,16.09,0.16,0,0,1,0,1,0
1767900742.175814,20260108153222.175776,18.189040499999997,-64.95867366666667,0.09817439110209641,1.3244702785526392,-0.49387383217775543,0.26337184354629994,0.03812421949963716,-5.369379685418318,-8.58141944443882,-64.54937657536664,1,0.16,0.9228062629699707,16.09,0.16,0,0,1,0,1,0
1767900742.2857695,20260108153222.285731,18.189040499999997,-64.95867366666667,0.09817439110209641,1.3244702785526392,-0.49387383217775543,0.26337184354629994,0.03812421949963716,-5.369379685418318,-8.58141944443882,-64.54937657536664,1,0.12,1.0252512693405151,16.09,0.12,0,0,1,0,1,0
1767900742.3863366,20260108153222.386298,18.189040499999997,-64.95867366666667,0.10821983696916773,1.3244702785526392,-0.49387383217775543,0.26337184354629994,0.09721634451270272,-4.5569766313701985,-8.148742173734314,-62.34273974100746,1,0.12,0.7349303960800171,16.09,0.12,0,0,1,0,1,0
1767900742.4753714,20260108153222.475333,18.189040499999997,-64.95867366666667,0.0963005673289984,1.3244702785526392,-0.49387383217775543,0.26337184354629994,0.06508413445229792,-4.5569766313701985,-8.148742173734314,-62.34273974100746,1,0.25,0.7113272547721863,16.06,0.25,0,0,1,0,1,0
1767900742.5943549,20260108153222.594317,18.189040499999997,-64.95867366666667,0.0963005673289984,1.3244702785526392,-0.49387383217775543,0.26337184354629994,0.06508413445229792,-5.865076145920168,-6.9113556329459,-61.336126591769805,1,0.11,0.7113272547721863,16.06,0.11,0,0,1,0,1,0
1767900742.6764076,20260108153222.676369,18.189042333333337,-64.95867616666666,0.0963005673289984,1.3244702785526392,-0.607247788608113,0.40513707423967776,0.06508413445229792,-7.685882286295306,-5.551535773073143,-60.93594566520845,1,0.12,0.7113272547721863,16.06,0.12,0,0,1,0,1,0
1767900742.779843,20260108153222.779805,18.189042333333337,-64.95867616666666,0.08728744034279538,1.3244702785526392,-0.607247788608113,0.40513707423967776,0.040229828813073965,-9.307874355447302,-3.1472432252995723,-61.749264391819615,1,0.15,0.5921377539634705,16.06,0.15,0,0,1,0,1,0
1767900742.883787,20260108153222.883749,18.189042333333337,-64.95867616666666,0.08728744034279538,1.3244702785526392,-0.607247788608113,0.40513707423967776,0.040229828813073965,-9.307874355447302,-3.1472432252995723,-61.749264391819615,1,0.19,0.708699643611908,16.06,0.19,0,0,1,0,1,0
1767900742.9742897,20260108153222.974251,18.189042333333337,-64.95867616666666,0.09252120045011578,1.3244702785526392,-0.607247788608113,0.40513707423967776,-0.008382621101899947,-8.716530879816423,-2.260473471864319,-62.88705137097038,1,0.22,0.708699643611908,16.06,0.22,0,0,1,0,1,0
1767900743.085039,20260108153223.085001,18.189042333333337,-64.95867616666666,0.09252120045011578,1.3244702785526392,-0.607247788608113,0.40513707423967776,-0.008382621101899947,-7.060624774874761,-1.4143435719654023,-65.59742166692413,1,0.18,0.6311072111129761,15.86,0.18,0,0,1,0,1,0
1767900743.1866298,20260108153223.186592,18.189045333333336,-64.9586795,0.05363640367111193,1.3244702785526392,-0.7996735076263749,0.5727211336266967,-0.0698881168651569,-7.060624774874761,-1.4143435719654023,-65.59742166692413,1,0.18,0.7030064463615417,15.86,0.18,0,0,1,0,1,0
1767900743.2752192,20260108153223.275181,18.189045333333336,-64.9586795,0.05363640367111193,1.3244702785526392,-0.7996735076263749,0.5727211336266967,-0.0698881168651569,-6.4336925858482825,-1.360602343699342,-66.62344963581954,1,0.15,0.46832671761512756,15.86,0.15,0,0,1,0,1,0
1767900743.3847759,20260108153223.384738,18.189045333333336,-64.9586795,0.031636403671113464,1.3244702785526392,-0.7996735076263749,0.5727211336266967,-0.07855778128639393,-5.759195369321119,-1.3832395196937086,-67.53515044241347,1,0.18,0.46832671761512756,15.86,0.18,0,0,1,0,1,0
1767900743.4807572,20260108153223.480719,18.189045333333336,-64.9586795,0.031636403671113464,1.3244702785526392,-0.7996735076263749,0.5727211336266967,-0.07855778128639393,-1.1980759065728752,-0.6564218081167026,-69.17356997616686,1,0.16,0.4622214734554291,15.86,0.16,0,0,1,0,1,0
1767900743.5765212,20260108153223.576483,18.189045333333336,-64.9586795,0.07557406004106527,1.3244702785526392,-0.7996735076263749,0.5727211336266967,-0.01723386029868993,-1.1980759065728752,-0.6564218081167026,-69.17356997616686,1,0.3,0.4622214734554291,15.86,0.3,0,0,1,0,1,0
1767900743.685403,20260108153223.685365,18.18904716666667,-64.95868399999999,0.07557406004106527,1.3244702785526392,-1.008890055283154,0.5025743900815044,-0.01723386029868993,6.139500438290826,1.7094674003474362,-70.2913683995644,1,0.19,0.5104297995567322,16.06,0.19,0,0,1,0,1,0
1767900743.7874842,20260108153223.787446,18.18904716666667,-64.95868399999999,0.07557406004106527,1.3244702785526392,-1.008890055283154,0.5025743900815044,-0.02351394034791888,6.139500438290826,1.7094674003474362,-70.2913683995644,1,0.19,0.5495525598526001,16.06,0.19,0,0,1,0,1,0
1767900743.8976412,20260108153223.897603,18.18904716666667,-64.95868399999999,0.07557406004106527,1.3244702785526392,-1.008890055283154,0.5025743900815044,-0.02351394034791888,9.037680513006439,3.5492311644293304,-71.45264782276548,1,0.15,0.6033391356468201,16.06,0.15,0,0,1,0,1,0
1767900744.0015614,20260108153224.001523,18.18904716666667,-64.95868399999999,0.04080827611604783,1.3244702785526392,-1.008890055283154,0.5025743900815044,-0.014550565544364086,9.037680513006439,3.5492311644293304,-71.45264782276548,1,0.18,0.6663757562637329,16.06,0.18,0,0,1,0,1,0
1767900744.1055524,20260108153224.105514,18.18904716666667,-64.95868399999999,0.00580827611604769,1.3244702785526392,-1.008890055283154,0.5025743900815044,-0.07874149225141766,7.171446768218268,3.6924856823131402,-71.70955181987681,1,0.15,0.702238142490387,16.06,0.15,0,0,1,0,1,0
1767900744.1809888,20260108153224.180951,18.189048500000002,-64.95868866666666,0.00580827611604769,1.3244702785526392,-0.9936511675530442,0.3970298306922441,-0.07874149225141766,3.573878337749084,3.1924108555443533,-71.72397718456186,1,0.18,0.702238142490387,16.06,0.18,0,0,1,0,1,0
1767900744.2996755,20260108153224.299637,18.189048500000002,-64.95868866666666,0.00580827611604769,1.3244702785526392,-0.9936511675530442,0.3970298306922441,-0.07874149225141766,-5.590875969211767,1.1477912888713115,-69.81047851381697,1,0.11,0.5273057222366333,15.95,1.3244702785526392,0,0,1,0,1,0
1767900744.4160879,20260108153224.416050,18.189048500000002,-64.95868866666666,0.018838741054786386,1.3244702785526392,-0.9936511675530442,0.3970298306922441,-0.11346863701263583,-5.590875969211767,1.1477912888713115,-69.81047851381697,1,0.14,0.6114752888679504,15.95,0.14,0,0,1,0,1,0
1767900744.5049398,20260108153224.504902,18.189048500000002,-64.95868866666666,0.05383874105478653,1.3244702785526392,-0.9936511675530442,0.3970298306922441,-0.024167211689948988,-9.658822407093657,0.416176755069377,-67.79392932712234,1,0.35,0.6939529776573181,15.95,1.3244702785526392,0,0,1,0,1,0
1767900744.5870314,20260108153224.586993,18.189048500000002,-64.95868866666666,0.05383874105478653,1.3244702785526392,-0.9936511675530442,0.3970298306922441,-0.024167211689948988,-12.049170905247346,0.3717825373029273,-65.7027842027346,1,0.24,0.6939529776573181,15.95,0.24,0,0,1,0,1,0
1767900744.6819615,20260108153224.681923,18.18905,-64.95869266666666,0.05383874105478653,1.3244702785526392,-0.8127275622976665,0.3116514266302064,-0.024167211689948988,-10.989911492836487,1.2728625560223992,-63.8498659164945,1,0.15,0.73114413022995,15.95,0.15,0,0,1,0,1,0
1767900744.7747607,20260108153224.774723,18.18905,-64.95869266666666,0.04074293456385425,1.3244702785526392,-0.8127275622976665,0.3116514266302064,-0.033871908102801114,-6.9862047146156545,2.6398987267769813,-62.52873268880047,1,0.15,0.73114413022995,15.95,0.15,0,0,1,0,1,0
1767900744.890195,20260108153224.890157,18.18905,-64.95869266666666,0.04074293456385425,1.3244702785526392,-0.8127275622976665,0.3116514266302064,-0.033871908102801114,1.7413491339672242,3.6203161701902693,-61.62201792208349,1,0.22,0.6706408858299255,15.78,0.22,0,0,1,0,1,0
1767900744.9801462,20260108153224.980108,18.18905,-64.95869266666666,0.03832221952416691,1.3244702785526392,-0.8127275622976665,0.3116514266302064,-0.003979591227559294,1.7413491339672242,3.6203161701902693,-61.62201792208349,1,0.22,0.5423729419708252,15.78,0.22,0,0,1,0,1,0
1767900745.0816064,20260108153225.081568,18.18905,-64.95869266666666,0.03832221952416691,1.3244702785526392,-0.8127275622976665,0.3116514266302064,-0.003979591227559294,2.5888415503710394,2.4278673810101994,-61.29747112234034,1,0.18,0.5423729419708252,15.78,0.18,0,0,1,0,1,0
1767900745.1748173,20260108153225.174779,18.189051,-64.9586955,-0.0033314455133937135,1.3244702785526392,-0.6080651865820437,0.2500058234393888,0.016049291396261177,-4.042918908266735,-1.7230007846966438,-59.76720133835184,1,0.21,0.4512272775173187,15.78,0.21,0,0,1,0,1,0
1767900745.2863772,20260108153225.286339,18.189051,-64.9586955,-0.0033314455133937135,1.3244702785526392,-0.6080651865820437,0.2500058234393888,0.016049291396261177,-4.042918908266735,-1.7230007846966438,-59.76720133835184,1,0.11,0.4512272775173187,15.78,0.11,0,0,1,0,1,0
1767900745.394455,20260108153225.394417,18.189051,-64.9586955,0.029938812920071084,1.3244702785526392,-0.6080651865820437,0.2500058234393888,-0.03811357537432945,-10.240987812745582,-3.5929612527832435,-58.28473898477658,1,0.16,0.38529977202415466,15.78,0.16,0,0,1,0,1,0
1767900745.4763253,20260108153225.476287,18.189051,-64.9586955,0.029938812920071084,1.3244702785526392,-0.6080651865820437,0.2500058234393888,-0.03811357537432945,-19.203346680200113,-4.473426739360396,-53.47343589985475,1,0.16,0.44173258543014526,16.0,0.16,0,0,1,0,1,0
1767900745.5744636,20260108153225.574425,18.189051,-64.9586955,0.04244308907776699,1.3244702785526392,-0.6080651865820437,0.2500058234393888,0.0013596743935018335,-19.203346680200113,-4.473426739360396,-53.47343589985475,1,0.19,0.44173258543014526,16.0,0.19,0,0,1,0,1,0
1767900745.6982198,20260108153225.698182,18.189053,-64.95869833333333,0.04244308907776699,1.3244702785526392,-0.5687101038808094,0.3278157653668789,0.0013596743935018335,-16.015146424341214,-2.6957940267227642,-47.9121333796631,1,0.17,0.4569965898990631,16.0,0.17,0,0,1,0,1,0
1767900745.779455,20260108153225.779417,18.189053,-64.95869833333333,0.07061699605516775,1.3244702785526392,-0.5687101038808094,0.3278157653668789,0.03943226898806774,-16.015146424341214,-2.6957940267227642,-47.9121333796631,1,0.17,0.7126158475875854,16.0,0.17,0,0,1,0,1,0
1767900745.8835044,20260108153225.883466,18.189053,-64.95869833333333,0.07061699605516775,1.3244702785526392,-0.5687101038808094,0.3278157653668789,0.03943226898806774,-11.174401798474799,-0.6020165571598353,-43.08244341892108,1,0.23,0.649173378944397,16.0,0.23,0,0,1,0,1,0
1767900745.990304,20260108153225.990266,18.189053,-64.95869833333333,0.0606324204834798,1.3244702785526392,-0.5687101038808094,0.3278157653668789,0.07948363120521178,-11.174401798474799,-0.6020165571598353,-43.08244341892108,1,0.23,0.6725056171417236,16.0,0.23,0,0,1,0,1,0
1767900746.0865905,20260108153226.086552,18.189053,-64.95869833333333,0.05263242048348068,1.3244702785526392,-0.5687101038808094,0.3278157653668789,0.04806843652216969,-10.81170069461168,1.1365667227305427,-41.137962999023074,1,0.35,0.6725056171417236,15.72,1.3244702785526392,0,0,1,0,1,0
1767900746.1770027,20260108153226.176964,18.189055166666666,-64.95870133333332,0.05263242048348068,1.3244702785526392,-0.6680896130117209,0.462952285162185,0.04806843652216969,-11.554369626733674,2.5483681827552593,-39.75500116930711,1,-1.0,0.5651329159736633,15.72,1.3244702785526392,0,0,1,0,1,0
1767900746.302928,20260108153226.302890,18.189055166666666,-64.95870133333332,0.05263242048348068,1.3244702785526392,-0.6680896130117209,0.462952285162185,0.04806843652216969,-12.470578359791649,3.0794330829732086,-38.41803214236008,1,-1.0,0.6910117864608765,15.72,1.3244702785526392,0,0,1,0,1,0
1767900746.3898995,20260108153226.389861,18.189055166666666,-64.95870133333332,0.04876177167572799,1.3244702785526392,-0.6680896130117209,0.462952285162185,0.022102606941182202,-13.565324032723922,2.7235619572788456,-36.97360541832555,1,-1.0,0.7741876840591431,15.72,1.3244702785526392,0,0,1,0,1,0
1767900746.475531,20260108153226.475493,18.189055166666666,-64.95870133333332,0.04876177167572799,1.3244702785526392,-0.6680896130117209,0.462952285162185,0.022102606941182202,-14.639021616429103,2.2523901535347086,-35.774206695736524,1,-1.0,0.7741876840591431,15.72,1.3244702785526392,0,0,1,0,1,0
1767900746.5866888,20260108153226.586651,18.189055166666666,-64.95870133333332,0.01828309901703257,1.3244702785526392,-0.6680896130117209,0.462952285162185,-0.030270346296598045,-16.76430233094694,2.6882906343497326,-34.55950663638818,1,-1.0,0.5842768549919128,15.72,1.3244702785526392,0,0,1,0,1,0
1767900746.678004,20260108153226.677966,18.189058,-64.9587025,0.01828309901703257,1.3244702785526392,-0.6038514722825651,0.5448564056012447,-0.030270346296598045,-16.76430233094694,2.6882906343497326,-34.55950663638818,1,-1.0,0.359643816947937,15.89,1.3244702785526392,0,0,1,0,1,0
1767900746.7943373,20260108153226.794299,18.189058,-64.9587025,0.04593245311720571,1.3244702785526392,-0.6038514722825651,0.5448564056012447,-0.026522415589822122,-18.233532895821348,2.4381487403780184,-33.67452041673766,1,-1.0,0.6180174946784973,15.89,1.3244702785526392,0,0,1,0,1,0
1767900746.8782446,20260108153226.878206,18.189058,-64.9587025,0.04593245311720571,1.3244702785526392,-0.6038514722825651,0.5448564056012447,-0.026522415589822122,-19.137216765010365,1.3960042940430328,-32.468752540470234,1,-1.0,0.6180174946784973,15.89,1.3244702785526392,0,0,1,0,1,0
1767900746.9758146,20260108153226.975776,18.189058,-64.9587025,0.00845153277453985,1.3244702785526392,-0.6038514722825651,0.5448564056012447,-0.058932913685107134,-19.14658608035446,-0.46239388694409617,-30.566253893316848,1,-1.0,0.5350286364555359,15.89,1.3244702785526392,0,0,1,0,1,0
1767900747.1202643,20260108153227.120226,18.189058,-64.9587025,0.00845153277453985,1.3244702785526392,-0.6038514722825651,0.5448564056012447,-0.058932913685107134,-19.14658608035446,-0.46239388694409617,-30.566253893316848,1,-1.0,0.4760267436504364,15.89,1.3244702785526392,0,0,1,0,1,0
1767900747.1894736,20260108153227.189435,18.189061833333334,-64.95870316666667,0.06756763675085323,1.3244702785526392,-0.5286426363886149,0.7236227021149662,0.02291817759570291,-18.91863697303535,-0.5721458347220008,-30.12715624249684,1,-1.0,0.4760267436504364,15.89,1.3244702785526392,0,0,1,0,1,0
