timestamp_ros,timestamp_sys (%Y%m%d%H%M%S.%f),latitude,longitude,depth,distance_to_ocean_floor,velX,velY,velZ,roll,pitch,yaw,navMode,acousticAltimeter,forwardStereo,battery_volts,altitudeUsed,cotsNumFound,cotsNumMaybe,missionState,errorState,storeData,storeImageData
1767986948.9522307,20260109152908.952196,18.189127833333334,-64.95867666666666,-0.06155924597683951,0.0,-0.4192766782439579,-0.49702609455176305,0.02749122297789298,1.0307420817688013,2.4278421946786275,-86.56350955427126,1,-1.0,0.3992425203323364,16.06,0.0,0,0,1,0,1,0
1767986949.041326,20260109152909.041292,18.189127833333334,-64.95867666666666,-0.06155924597683951,0.0,-0.4192766782439579,-0.49702609455176305,0.02749122297789298,1.0307420817688013,2.4278421946786275,-86.56350955427126,1,-1.0,0.38798031210899353,16.06,0.0,0,0,1,0,1,0
1767986949.1399572,20260109152909.139923,18.189127833333334,-64.95867666666666,-0.016976237249175873,0.0,-0.4192766782439579,-0.49702609455176305,0.11408083694778023,1.5215705366425123,-0.17580075444225896,-87.57356512008141,1,-1.0,0.3657953143119812,16.06,0.0,0,0,1,0,1,0
1767986949.2399487,20260109152909.239914,18.189127833333334,-64.95867666666666,-0.016976237249175873,0.0,-0.4192766782439579,-0.49702609455176305,0.11408083694778023,2.4044784570515074,-2.9739721497148346,-88.25941881082488,1,-1.0,0.3657953143119812,16.06,0.0,0,0,1,0,1,0
1767986949.3660126,20260109152909.365978,18.189127833333334,-64.95867666666666,0.04268613171246392,0.0,-0.4192766782439579,-0.49702609455176305,0.15144327072046507,3.040409210083625,-5.414278376868374,-88.52676617091133,1,-1.0,0.3320132791996002,16.06,0.0,0,0,1,0,1,0
1767986949.4401305,20260109152909.440096,18.1891265,-64.95867833333334,0.04268613171246392,0.0,-0.2913259383737753,-0.27966449171069124,0.15144327072046507,3.6534767504677075,-6.961440574264533,-88.41194087426143,1,-1.0,0.3320132791996002,16.06,0.0,0,0,1,0,1,0
1767986949.5425658,20260109152909.542532,18.1891265,-64.95867833333334,0.09719883869434087,0.0,-0.2913259383737753,-0.27966449171069124,0.1572358744331283,3.8377779451757568,-6.209372871597116,-88.88111356629807,1,-1.0,0.3477783203125,16.06,0.0,0,0,1,0,1,0
1767986949.6520102,20260109152909.651976,18.1891265,-64.95867833333334,0.09719883869434087,0.0,-0.2913259383737753,-0.27966449171069124,0.1572358744331283,3.8377779451757568,-6.209372871597116,-88.88111356629807,1,-1.0,0.8594203591346741,15.95,0.0,0,0,1,0,1,0
1767986949.7594352,20260109152909.759401,18.1891265,-64.95867833333334,0.11802189851021676,0.0,-0.2913259383737753,-0.27966449171069124,0.22575737511503713,2.9346240561671464,-3.997139975872642,-90.32180588306862,1,-1.0,0.5880837440490723,15.95,0.0,0,0,1,0,1,0
1767986949.8770218,20260109152909.876988,18.1891265,-64.95867833333334,0.11177044116125799,0.0,-0.2913259383737753,-0.27966449171069124,0.1635687127159117,1.4188606764994478,-1.4055718983873795,-92.25845207318741,1,-1.0,1.0447858572006226,15.95,0.0,0,0,1,0,1,0
1767986949.983612,20260109152909.983578,18.189125833333332,-64.9586815,0.11177044116125799,0.0,-0.596385890160364,-0.24996297582401375,0.1635687127159117,-0.7453221413981251,0.8459193912589854,-94.43343096942382,1,-1.0,0.5715451240539551,15.95,0.0,0,0,1,0,1,0
1767986950.0401416,20260109152910.040107,18.189125833333332,-64.9586815,0.11308877768293232,0.0,-0.596385890160364,-0.24996297582401375,0.1332110963294407,-3.2565717545583923,2.597741716928774,-96.70912104098278,1,-1.0,0.5715451240539551,15.95,0.0,0,0,1,0,1,0
1767986950.1515615,20260109152910.151527,18.189125833333332,-64.9586815,0.11308877768293232,0.0,-0.596385890160364,-0.24996297582401375,0.1332110963294407,-8.02389224748016,4.1300567853078185,-101.71702436127144,1,-1.0,0.5138509273529053,15.95,0.0,0,0,1,0,1,0
1767986950.2830744,20260109152910.283040,18.189125833333332,-64.9586815,0.07182089312657028,0.0,-0.596385890160364,-0.24996297582401375,0.010074511999804088,-8.02389224748016,4.1300567853078185,-101.71702436127144,1,-1.0,0.43184059858322144,15.75,0.0,0,0,1,0,1,0
1767986950.414223,20260109152910.414189,18.189125833333332,-64.9586815,0.07182089312657028,0.0,-0.596385890160364,-0.24996297582401375,0.010074511999804088,-9.801841496810326,3.7166820629864845,-104.51822937547642,1,-1.0,0.7213850021362305,15.75,0.0,0,0,1,0,1,0
1767986950.4838593,20260109152910.483825,18.189125666666666,-64.95868449999999,0.08857076487675333,0.0,-0.6252544653437779,-0.15242060884335776,0.03863228677190931,-10.958968163511164,2.815903373111032,-107.60438315355259,1,-1.0,0.5152335166931152,15.75,0.0,0,0,1,0,1,0
1767986950.5391898,20260109152910.539156,18.189125666666666,-64.95868449999999,0.08857076487675333,0.0,-0.6252544653437779,-0.15242060884335776,0.03863228677190931,-11.563680885449054,1.6132180476956008,-110.92343963541467,1,-1.0,0.5152335166931152,15.75,0.0,0,0,1,0,1,0
1767986950.6625655,20260109152910.662531,18.189125666666666,-64.95868449999999,0.08857076487675333,0.0,-0.6252544653437779,-0.15242060884335776,0.03863228677190931,-11.568637897011639,-1.9009614271536526,-118.34020127312618,1,-1.0,0.5192098021507263,15.75,0.0,0,0,1,0,1,0
1767986950.7573912,20260109152910.757357,18.189125666666666,-64.95868449999999,0.06711853204210116,0.0,-0.6252544653437779,-0.15242060884335776,-0.014732163243776027,-11.568637897011639,-1.9009614271536526,-118.34020127312618,1,-1.0,0.5641505122184753,15.75,0.0,0,0,1,0,1,0
1767986950.8649216,20260109152910.864887,18.189125666666666,-64.95868449999999,0.06711853204210116,0.0,-0.6252544653437779,-0.15242060884335776,-0.014732163243776027,-10.896451419684297,-3.998691710029549,-122.45675092763382,1,-1.0,0.6697569489479065,15.89,0.0,0,0,1,0,1,0
1767986950.9394383,20260109152910.939404,18.189125666666666,-64.95868716666668,0.07864315559785262,0.0,-0.567779225771841,-0.08505780349932843,-0.0009926023479201684,-9.710170933860546,-5.8167145473226975,-126.72813419579941,1,-1.0,0.6697569489479065,15.89,0.0,0,0,1,0,1,0
1767986951.0465388,20260109152911.046505,18.189125666666666,-64.95868716666668,0.07864315559785262,0.0,-0.567779225771841,-0.08505780349932843,-0.0009926023479201684,-6.033783159403507,-8.050711848619589,-135.3171001481958,1,-1.0,0.6315875053405762,15.89,0.0,0,0,1,0,1,0
1767986951.1551626,20260109152911.155128,18.189125666666666,-64.95868716666668,0.13455956466130095,0.0,-0.567779225771841,-0.08505780349932843,0.1081768989908021,-6.033783159403507,-8.050711848619589,-135.3171001481958,1,-1.0,0.9509297609329224,15.89,0.0,0,0,1,0,1,0
1767986951.2493205,20260109152911.249286,18.189125666666666,-64.95868716666668,0.13455956466130095,0.0,-0.567779225771841,-0.08505780349932843,0.1081768989908021,-3.9325976533457654,-8.796321178230649,-139.77828078088243,1,-1.0,0.9509297609329224,15.89,0.0,0,0,1,0,1,0
1767986951.3391447,20260109152911.339110,18.189125666666666,-64.95868716666668,0.13955956466130173,0.0,-0.567779225771841,-0.08505780349932843,0.09141586862723716,-1.610231759856643,-9.465825951576237,-144.35868923835235,1,-1.0,0.9509297609329224,15.89,0.0,0,0,1,0,1,0
1767986951.4376922,20260109152911.437658,18.189122833333332,-64.95869066666667,0.13955956466130173,0.0,-0.6522135712971618,-0.40171536507475997,0.09141586862723716,4.15776943400055,-10.157232588100436,-152.70689093641715,1,-1.0,0.9509297609329224,15.67,0.0,0,0,1,0,1,0
1767986951.5530639,20260109152911.553030,18.189122833333332,-64.95869066666667,0.18436353047402423,0.0,-0.6522135712971618,-0.40171536507475997,0.15490947996326904,4.15776943400055,-10.157232588100436,-152.70689093641715,1,40.95,0.9509297609329224,15.67,40.95,0,0,1,0,1,0
1767986951.649853,20260109152911.649819,18.189122833333332,-64.95869066666667,0.18436353047402423,0.0,-0.6522135712971618,-0.40171536507475997,0.15490947996326904,7.1857150384962525,-9.707783781892063,-156.21539644302803,1,40.95,0.9509297609329224,15.67,40.95,0,0,1,0,1,0
1767986951.7459219,20260109152911.745888,18.189122833333332,-64.95869066666667,0.1979921062570318,0.0,-0.6522135712971618,-0.40171536507475997,0.1575367505598907,9.421072828584906,-8.706660399162773,-159.6004530664392,1,40.95,0.9509297609329224,15.67,40.95,0,0,1,0,1,0
1767986951.8385627,20260109152911.838528,18.189122833333332,-64.95869066666667,0.1979921062570318,0.0,-0.6522135712971618,-0.40171536507475997,0.1575367505598907,11.598041871902346,-6.114247085465495,-165.56147547525842,1,40.95,0.9509297609329224,15.67,40.95,0,0,1,0,1,0
1767986951.9484432,20260109152911.948409,18.189119333333334,-64.95869316666668,0.16980458267629908,0.0,-0.5552196401497669,-0.6549242165198147,0.09614023686977317,11.598041871902346,-6.114247085465495,-165.56147547525842,1,40.95,0.9509297609329224,15.67,40.95,0,0,1,0,1,0
1767986952.0402508,20260109152912.040217,18.189119333333334,-64.95869316666668,0.16980458267629908,0.0,-0.5552196401497669,-0.6549242165198147,0.09614023686977317,12.44970102535486,-4.678681681273882,-167.97710934276063,1,40.95,0.9509297609329224,15.84,40.95,0,0,1,0,1,0
1767986952.1401098,20260109152912.140076,18.189119333333334,-64.95869316666668,0.17682401460365493,0.0,-0.5552196401497669,-0.6549242165198147,0.04420201512617494,15.261837761235231,-1.6744946848578781,-171.65156118478254,1,40.95,0.9509297609329224,15.84,40.95,0,0,1,0,1,0
1767986952.2892478,20260109152912.289213,18.189119333333334,-64.95869316666668,0.17682401460365493,0.0,-0.5552196401497669,-0.6549242165198147,0.04420201512617494,15.261837761235231,-1.6744946848578781,-171.65156118478254,1,40.95,0.9509297609329224,15.84,40.95,0,0,1,0,1,0
1767986952.3388383,20260109152912.338804,18.189119333333334,-64.95869316666668,0.17761814031260648,0.0,-0.5552196401497669,-0.6549242165198147,0.0367393851408548,17.022406734234092,-0.08667358409408889,-172.94616936335044,1,40.95,0.9509297609329224,15.84,40.95,0,0,1,0,1,0
1767986952.4576616,20260109152912.457627,18.189114500000002,-64.95869599999999,0.17761814031260648,0.0,-0.585325434076407,-0.8883672219579877,0.0367393851408548,19.504986724823713,2.8257674504600443,-174.62188053513768,1,40.95,1.277983546257019,15.84,40.95,0,0,1,0,1,0
1767986952.5546565,20260109152912.554622,18.189114500000002,-64.95869599999999,0.1442907737705174,0.0,-0.585325434076407,-0.8883672219579877,-0.0702289182247881,19.504986724823713,2.8257674504600443,-174.62188053513768,1,40.95,0.8909242749214172,15.84,40.95,0,0,1,0,1,0
1767986952.6624417,20260109152912.662407,18.189114500000002,-64.95869599999999,0.1285244148187984,0.0,-0.585325434076407,-0.8883672219579877,-0.051156517137412066,19.606421900457143,3.8888464340865587,-175.08372443157438,1,40.95,0.786983847618103,15.72,40.95,0,0,1,0,1,0
1767986952.7668402,20260109152912.766806,18.189114500000002,-64.95869599999999,0.1285244148187984,0.0,-0.585325434076407,-0.8883672219579877,-0.051156517137412066,18.662935089647764,4.739206143584844,-175.3497740552545,1,40.95,0.48711681365966797,15.72,40.95,0,0,1,0,1,0
1767986952.8396208,20260109152912.839587,18.189114500000002,-64.95869599999999,0.09327717745146984,0.0,-0.585325434076407,-0.8883672219579877,-0.10647855122046038,17.0114767201066,5.288370197801289,-175.58208253237012,1,40.95,0.48711681365966797,15.72,40.95,0,0,1,0,1,0
1767986952.945248,20260109152912.945214,18.189110000000003,-64.958699,0.09327717745146984,0.0,-0.6559313864537156,-0.9655361735280125,-0.10647855122046038,13.756561713901162,5.340843144862352,-176.18077614794973,1,40.95,0.5265204310417175,15.72,40.95,0,0,1,0,1,0
1767986953.0401475,20260109152913.040113,18.189110000000003,-64.958699,0.09327717745146984,0.0,-0.6559313864537156,-0.9655361735280125,-0.10647855122046038,13.756561713901162,5.340843144862352,-176.18077614794973,1,40.95,0.5265204310417175,15.72,40.95,0,0,1,0,1,0
1767986953.1410313,20260109152913.140997,18.189110000000003,-64.958699,0.08478080779050648,0.0,-0.6559313864537156,-0.9655361735280125,-0.11763997593148154,12.200689314651488,3.2293920742548976,-177.06478052755597,1,40.95,0.5558112263679504,15.72,40.95,0,0,1,0,1,0
1767986953.2446165,20260109152913.244582,18.189110000000003,-64.958699,0.08478080779050648,0.0,-0.6559313864537156,-0.9655361735280125,-0.11763997593148154,12.200689314651488,3.2293920742548976,-177.06478052755597,1,40.95,0.627281129360199,15.84,40.95,0,0,1,0,1,0
1767986953.3531694,20260109152913.353135,18.189110000000003,-64.958699,0.1217423705684622,0.0,-0.6559313864537156,-0.9655361735280125,-0.06293937462710543,11.706232960814235,1.170594737342743,-177.40122210599188,1,40.95,0.44111722707748413,15.84,40.95,0,0,1,0,1,0
1767986953.4654002,20260109152913.465366,18.189110000000003,-64.95870616666666,0.08819817050252506,0.0,-1.0159461647420622,-1.2933581483817223,-0.08360970718126978,10.47272596886158,-1.511290457935632,-177.84560803266766,1,40.95,0.4809570908546448,15.84,40.95,0,0,1,0,1,0
1767986953.540003,20260109152913.539969,18.189110000000003,-64.95870616666666,0.08819817050252506,0.0,-1.0159461647420622,-1.2933581483817223,-0.08360970718126978,7.879382468444109,-4.916070540288091,-178.42202156320815,1,40.95,0.4809570908546448,15.84,40.95,0,0,1,0,1,0
1767986953.6634789,20260109152913.663445,18.189110000000003,-64.95870616666666,0.08819817050252506,0.0,-1.0159461647420622,-1.2933581483817223,-0.08360970718126978,2.2005840039297913,-12.762716754108665,-179.83017484713795,1,40.95,0.5643734335899353,15.84,40.95,0,0,1,0,1,0
1767986953.746757,20260109152913.746723,18.189110000000003,-64.95870616666666,0.13988598609703795,0.0,-1.0159461647420622,-1.2933581483817223,-0.009189376849998399,2.2005840039297913,-12.762716754108665,-179.83017484713795,1,40.95,0.5438680052757263,15.84,40.95,0,0,1,0,1,0
1767986953.839349,20260109152913.839315,18.189110000000003,-64.95870616666666,0.13988598609703795,0.0,-1.0159461647420622,-1.2933581483817223,-0.009189376849998399,0.3569807383465568,-16.130086596339943,-180.11560855461363,1,40.95,0.5438680052757263,15.84,40.95,0,0,1,0,1,0
1767986953.9390833,20260109152913.939049,18.18910944543096,-64.95870599607655,0.210948699711307,0.0,0.1802050225034732,-0.6166385893410521,0.1669627979310936,-0.9639983031079136,-20.840063788694142,-179.1811290589929,5,40.95,0.5421550273895264,15.84,40.95,0,0,1,0,1,0
1767986954.0990725,20260109152914.099038,18.18910889092107,-64.95870582550464,0.210948699711307,0.0,0.1802050225034732,-0.6166385893410521,0.1669627979310936,-0.9639983031079136,-20.840063788694142,-179.1811290589929,5,40.95,0.5421550273895264,15.84,40.95,0,0,1,0,1,0
1767986954.1398356,20260109152914.139801,18.18910833410335,-64.95870566334244,0.23733751781178394,0.0,0.1713102947230292,-0.6191686223654336,0.15999264037522848,-0.8944702608693357,-22.497406368309267,-178.3563697614312,5,40.95,0.5421550273895264,15.84,40.95,0,0,1,0,1,0
1767986954.2393105,20260109152914.239276,18.18910790218038,-64.95870575261722,0.23733751781178394,0.0,-0.09431291306685197,-0.4802979017535309,0.15999264037522848,-0.32406311011920036,-25.437387215691807,-176.63996993004088,5,41.23,0.5421550273895264,15.84,41.23,0,0,1,0,1,0
1767986954.3501816,20260109152914.350147,18.18910747018812,-64.95870584190632,0.2657701220251044,0.0,-0.09431291306685197,-0.4802979017535309,0.15233691311728675,-0.32406311011920036,-25.437387215691807,-176.63996993004088,5,41.23,0.5421550273895264,15.84,41.23,0,0,1,0,1,0
1767986954.4828026,20260109152914.482768,18.189107041739867,-64.95870594812861,0.2657701220251044,0.0,-0.11221659530820477,-0.4764330338436185,0.15233691311728675,0.8560746588863419,-27.695233411663775,-174.4958225187421,5,41.23,0.5421550273895264,15.86,41.23,0,0,1,0,1,0
1767986954.5390332,20260109152914.538999,18.18910661326573,-64.95870605435731,0.30090096577169856,0.0,-0.11221659530820477,-0.4764330338436185,0.21865215128761828,0.8560746588863419,-27.695233411663775,-174.4958225187421,5,41.23,0.5421550273895264,15.86,41.23,0,0,1,0,1,0
1767986954.6456835,20260109152914.645649,18.1891061871575,-64.95870617059684,0.30090096577169856,0.0,-0.12279544086074146,-0.4738167153064739,0.21865215128761828,1.4330673683311794,-28.451783000689755,-173.22016129170655,5,41.23,0.5421550273895264,15.86,41.23,0,0,1,0,1,0
1767986954.7542956,20260109152914.754261,18.18910576397172,-64.95870629791777,0.33646729942320197,0.0,-0.13451781959530762,-0.47062294484154116,0.15689174293582628,1.7568450244657683,-29.005901078259956,-171.79792415267227,5,41.23,0.5421550273895264,15.86,41.23,0,0,1,0,1,0
1767986954.8389294,20260109152914.838895,18.189105328105228,-64.95870638876632,0.33646729942320197,0.0,-0.09595897435604901,-0.48459970619113574,0.15689174293582628,1.1507030849330122,-29.98064113833905,-168.45147177225348,5,42.7,0.5421550273895264,15.86,42.7,0,0,1,0,1,0
1767986954.9770517,20260109152914.977017,18.18910489236766,-64.95870647958799,0.3938634711939571,0.0,-0.09595897435604901,-0.48459970619113574,0.1829237510703549,1.1507030849330122,-29.98064113833905,-168.45147177225348,5,42.7,0.5421550273895264,15.86,42.7,0,0,1,0,1,0
1767986955.039596,20260109152915.039562,18.189104459896374,-64.9587065869478,0.3938634711939571,0.0,-0.11339743659219109,-0.4808180751327054,0.1829237510703549,0.341581991315445,-30.628344793832294,-166.38181443067793,5,42.7,0.5421550273895264,15.75,42.7,0,0,1,0,1,0
1767986955.144171,20260109152915.144137,18.18910403203649,-64.95870671271048,0.38986347119395753,0.0,-0.13286728903455056,-0.47580593050592507,0.15509804884196693,-0.6275099805481772,-31.369888451886176,-164.04989139157533,5,42.7,0.5421550273895264,15.75,42.7,0,0,1,0,1,0
1767986955.2535214,20260109152915.253487,18.189103615664283,-64.95870687589658,0.38986347119395753,0.0,-0.17237796406932676,-0.4629587859662174,0.15509804884196693,-2.9501277373530024,-32.52807721338273,-159.22981151043177,5,42.7,0.5421550273895264,15.75,42.7,0,0,1,0,1,0
1767986955.3406816,20260109152915.340647,18.18910319930943,-64.95870703907589,0.45483752679411715,0.0,-0.17237796406932676,-0.4629587859662174,0.18905786912239247,-2.9501277373530024,-32.52807721338273,-159.22981151043177,5,42.7,0.5421550273895264,15.75,42.7,0,0,1,0,1,0
1767986955.4414425,20260109152915.441408,18.1891029373664,-64.95870726174273,0.45483752679411715,0.0,-0.2352582106941937,-0.2913118162741882,0.18905786912239247,-4.1665227514386265,-32.654708965873716,-157.0427480957997,5,45.75,0.5421550273895264,15.75,45.75,0,0,1,0,1,0
1767986955.542668,20260109152915.542634,18.189102689195252,-64.95870750145264,0.47834539026988077,0.0,-0.253167645108968,-0.27588973063522976,0.17741799330609606,-6.229954373359686,-31.989390246212484,-153.4257108444703,5,45.75,0.5421550273895264,15.75,45.75,0,0,1,0,1,0
1767986955.6550093,20260109152915.654975,18.189102441110638,-64.95870774107895,0.47834539026988077,0.0,-0.253167645108968,-0.27588973063522976,0.17741799330609606,-6.229954373359686,-31.989390246212484,-153.4257108444703,5,45.75,0.5421550273895264,15.81,45.75,0,0,1,0,1,0
1767986955.7439203,20260109152915.743886,18.18910219913445,-64.95870798761658,0.506198943670616,0.0,-0.2604245790512159,-0.2690502529751589,0.16974973217755945,-7.189943780878187,-31.36753886597157,-151.89979139676217,5,45.75,0.5421550273895264,15.81,45.75,0,0,1,0,1,0
1767986955.840322,20260109152915.840288,18.18910196325003,-64.95870824056385,0.506198943670616,0.0,-0.26722054223834707,-0.26230169996750646,0.16974973217755945,-8.037307597580558,-30.707598922204973,-150.43425084290627,5,45.75,0.5421550273895264,15.81,45.75,0,0,1,0,1,0
1767986955.952372,20260109152915.952338,18.189101733937296,-64.95870850013753,0.5248028909282034,0.0,-0.274211045616908,-0.25498490634090865,0.16863474317391633,-8.899080557262895,-30.041884051430227,-148.88577810249453,5,45.75,0.5421550273895264,15.81,45.75,0,0,1,0,1,0
1767986956.0417705,20260109152916.041736,18.189101615940636,-64.95870859925411,0.5248028909282034,0.0,-0.10470484435130238,-0.131205547022104,0.16863474317391633,-9.82251051040292,-29.342619279456144,-147.2219161049855,5,48.7,0.5421550273895264,15.81,48.7,0,0,1,0,1,0
1767986956.141951,20260109152916.141917,18.189101504241677,-64.95870870614618,0.5697801391083874,0.0,-0.11292074975100676,-0.12420508957232997,0.12673845887787277,-11.635519133278732,-27.992351869440082,-143.53706871132974,5,48.7,0.5421550273895264,15.81,48.7,0,0,1,0,1,0
1767986956.2469494,20260109152916.246915,18.189101392548725,-64.9587088130325,0.5697801391083874,0.0,-0.11292074975100676,-0.12420508957232997,0.12673845887787277,-11.635519133278732,-27.992351869440082,-143.53706871132974,5,48.7,0.5421550273895264,15.84,48.7,0,0,1,0,1,0
1767986956.3456233,20260109152916.345589,18.18910128791023,-64.95870892758263,0.5796873629720225,0.0,-0.12100240233498066,-0.11634611565997151,0.11882210421810413,-12.803306875312334,-26.95514970706702,-139.68865188894392,5,48.7,0.5421550273895264,15.84,48.7,0,0,1,0,1,0
1767986956.4416826,20260109152916.441648,18.189101183287086,-64.95870904211597,0.5796873629720225,0.0,-0.12100240233498066,-0.11634611565997151,0.11882210421810413,-12.803306875312334,-26.95514970706702,-139.68865188894392,5,48.7,0.5421550273895264,15.84,48.7,0,0,1,0,1,0
1767986956.5449257,20260109152916.544891,18.189101085744035,-64.95870916341809,0.5773930798092555,0.0,-0.12812703040124815,-0.10845028391183509,0.08145835948229141,-12.971251895543935,-25.97152186015249,-136.0580362166894,5,48.7,0.5421550273895264,15.84,48.7,0,0,1,0,1,0
1767986956.6399992,20260109152916.639965,18.189101060757903,-64.95870913749224,0.5773930798092555,0.0,0.02738772663153177,-0.027783312076793246,0.08145835948229141,-12.971251895543935,-25.97152186015249,-136.0580362166894,5,46.41,0.5421550273895264,15.84,46.41,0,0,1,0,1,0
1767986956.7444792,20260109152916.744445,18.18910103508487,-64.95870911231484,0.628451834703813,0.0,0.026594087329904956,-0.028543905112815043,0.12213570423127185,-12.720438721802836,-25.360033588135252,-134.44357016492015,5,46.41,0.5421550273895264,15.84,46.41,0,0,1,0,1,0
1767986956.8478007,20260109152916.847766,18.189101008806958,-64.95870908784681,0.628451834703813,0.0,0.025848586453448886,-0.029220721728913178,0.12213570423127185,-12.417643521022805,-24.700016804713016,-132.96475171857006,5,46.41,0.5421550273895264,15.92,46.41,0,0,1,0,1,0
1767986956.9401405,20260109152916.940106,18.18910098141299,-64.95870906478697,0.6337645178715372,0.0,0.02436596226631357,-0.030468014094072217,0.08751460760328783,-11.82794697534442,-23.445114237534998,-130.11896604371196,5,46.41,0.5421550273895264,15.92,46.41,0,0,1,0,1,0
1767986957.0403678,20260109152917.040334,18.189100954013984,-64.95870904172288,0.6337645178715372,0.0,0.02436596226631357,-0.030468014094072217,0.08751460760328783,-11.82794697534442,-23.445114237534998,-130.11896604371196,5,46.41,0.5421550273895264,15.92,46.41,0,0,1,0,1,0
1767986957.1391206,20260109152917.139086,18.189100926054994,-64.95870901940113,0.6480869707018766,0.0,0.023576068151406927,-0.03108325932910215,0.09431960350220525,-11.452127634716039,-22.872505123722558,-128.6484804311288,5,46.41,0.5421550273895264,15.92,46.41,0,0,1,0,1,0
1767986957.2433984,20260109152917.243364,18.18910089755176,-64.95870899786516,0.6480869707018766,0.0,0.022749595319746376,-0.03169315245897406,0.09431960350220525,-10.940787047213318,-22.26743040162921,-127.1399301606906,5,46.41,0.5421550273895264,15.92,46.41,0,0,1,0,1,0
1767986957.3446343,20260109152917.344600,18.189100941932747,-64.95870910005728,0.688563541014152,0.0,-0.10795624887457175,0.04935026169060834,0.1495498024719952,-10.34464109310508,-21.528603452289108,-125.62863415322428,5,44.88,0.5421550273895264,15.92,44.88,0,0,1,0,1,0
1767986957.4395509,20260109152917.439517,18.189100988836476,-64.95870920099051,0.688563541014152,0.0,-0.1066287353869288,0.05215661789058331,0.1495498024719952,-9.716546917730575,-20.581455658775578,-124.13008328330642,5,44.88,0.5421550273895264,15.81,44.88,0,0,1,0,1,0
1767986957.5403135,20260109152917.540279,18.189101038248904,-64.95870930061425,0.7112396367481959,0.0,-0.10522415307822922,0.05493521283265758,0.14232311594710412,-9.123518092319378,-19.423630604982385,-122.62722256248122,5,44.88,0.5421550273895264,15.81,44.88,0,0,1,0,1,0
1767986957.6622655,20260109152917.662231,18.189101090102188,-64.95870939881678,0.7112396367481959,0.0,-0.10375300316080566,0.05766553854004879,0.14232311594710412,-8.612892113614086,-18.112431890988354,-121.13014701395159,5,44.88,0.5421550273895264,15.81,44.88,0,0,1,0,1,0
1767986957.7569783,20260109152917.756944,18.189101144430147,-64.95870949555555,0.7109546359222596,0.0,-0.10218310260240909,0.06040375437458778,0.10895740046105061,-8.123409846818452,-16.742642085796604,-119.60657715215808,5,44.88,0.5421550273895264,15.81,44.88,0,0,1,0,1,0
1767986957.839028,20260109152917.838994,18.189101201270894,-64.95870959065587,0.7109546359222596,0.0,-0.10047160700146215,0.0632096209966785,0.10895740046105061,-7.624129670155053,-15.431451909542087,-118.02009439542418,5,44.88,0.5421550273895264,15.81,44.88,0,0,1,0,1,0
1767986957.9400995,20260109152917.940065,18.189101241416747,-64.95870996150396,0.7290969247789612,0.0,-0.39174027952460305,0.04463802636750305,0.10529441271772484,-6.646039401090155,-13.345672754439718,-114.48801789755946,5,43.73,0.5421550273895264,15.81,43.73,0,0,1,0,1,0
1767986958.0452266,20260109152918.045192,18.1891012815625,-64.9587103323511,0.7290969247789612,0.0,-0.39174027952460305,0.04463802636750305,0.10529441271772484,-6.646039401090155,-13.345672754439718,-114.48801789755946,5,43.73,0.5421550273895264,15.86,43.73,0,0,1,0,1,0
1767986958.1402133,20260109152918.140179,18.189101333589118,-64.95871070151678,0.7373238400102383,0.0,-0.3900074663638943,0.05785478528536653,0.06092374335227563,-6.0760752789795465,-12.764336363294728,-112.55083895249491,5,43.73,0.37633559107780457,15.86,43.73,0,0,1,0,1,0
1767986958.2652328,20260109152918.265199,18.189101397818337,-64.95871106855394,0.7373238400102383,0.0,-0.3877521579460308,0.0714231335646683,0.06092374335227563,-5.500498446911579,-12.564384211394195,-110.55194239602213,5,43.73,0.37633559107780457,15.86,43.73,0,0,1,0,1,0
1767986958.3412864,20260109152918.341252,18.189101486380174,-64.95871142995591,0.759161327063393,0.0,-0.3817793444313422,0.09847604868989517,0.05991098489791739,-4.1912202974215225,-13.272439439973242,-106.52512779891616,5,43.73,0.37633559107780457,15.86,43.73,0,0,1,0,1,0
1767986958.442596,20260109152918.442562,18.189101574930973,-64.95871179131252,0.759161327063393,0.0,-0.38177932422153005,0.09847612704078033,0.05991098489791739,-4.1912202974215225,-13.272439439973242,-106.52511604035239,5,43.73,0.37633559107780457,15.86,43.73,0,0,1,0,1,0
1767986958.5863602,20260109152918.586326,18.189101564049988,-64.95871208463765,0.815953200430516,0.0,-0.30986225038275683,-0.012098999451760663,0.13120658751284087,-3.1613200367689207,-15.251942521137005,-102.6400962211166,5,41.42,0.37633559107780457,15.86,41.42,0,0,1,0,1,0
1767986958.6396408,20260109152918.639607,18.18910155316723,-64.95871237801046,0.815953200430516,0.0,-0.30986225038275683,-0.012098999451760663,0.13120658751284087,-3.1613200367689207,-15.251942521137005,-102.6400962211166,5,41.42,0.37633559107780457,15.89,41.42,0,0,1,0,1,0
1767986958.7413542,20260109152918.741320,18.18910155153479,-64.9587126715454,0.8641248403898776,0.0,-0.31009305860166053,-0.001815215432704631,0.15322965795469348,-2.98256623831094,-16.549747229379424,-100.7394314804111,5,41.42,0.37633559107780457,15.89,41.42,0,0,1,0,1,0
1767986958.8517826,20260109152918.851748,18.1891015592455,-64.95871296497951,0.8641248403898776,0.0,-0.30997981846133926,0.008573922478954818,0.15322965795469348,-2.988772534608106,-17.970319509208213,-98.81966269376613,5,41.42,0.37633559107780457,15.89,41.42,0,0,1,0,1,0
1767986958.9391239,20260109152918.939090,18.189101576678,-64.95871325795484,0.8996572847370244,0.0,-0.30949194794692,0.01938386328936991,0.1706330844358765,-3.148762942933298,-19.458614846420293,-96.8202128917728,5,41.42,0.37633559107780457,15.89,41.42,0,0,1,0,1,0
1767986959.04283,20260109152919.042796,18.18910161485108,-64.95871354873286,0.8996572847370244,0.0,-0.30717947265241363,0.04244728001868991,0.1706330844358765,-3.9413804259851664,-22.21484987905026,-92.5365011277471,5,41.42,0.37633559107780457,15.89,41.42,0,0,1,0,1,0
1767986959.1394978,20260109152919.139464,18.189101604659548,-64.95871349139706,0.9969397388264734,0.0,0.0605607890026274,-0.011330967980682134,0.2595786747807531,-3.9413804259851664,-22.21484987905026,-92.5365011277471,5,41.1,0.37633559107780457,15.89,41.1,0,0,1,0,1,0
1767986959.2385864,20260109152919.238552,18.18910159223798,-64.9587134345645,0.9969397388264734,0.0,0.06004319994694159,-0.013813549150438973,0.2595786747807531,-4.48249936825634,-23.214561119663728,-90.17801547346453,5,41.1,0.37633559107780457,15.98,41.1,0,0,1,0,1,0
1767986959.3397062,20260109152919.339672,18.1891015774454,-64.95871337836233,1.0409397388264738,0.0,0.05937514617506607,-0.016449681355258424,0.2817223064098528,-4.963945914620168,-23.798086587220432,-87.64884333079199,5,41.1,0.37633559107780457,15.98,41.1,0,0,1,0,1,0
1767986959.4400606,20260109152919.440026,18.18910155765509,-64.95871332387328,1.0409397388264738,0.0,0.05754950694588302,-0.02200123292649215,0.2817223064098528,-5.398610344196869,-23.56167145739794,-82.2121474112783,5,41.1,0.37633559107780457,15.98,41.1,0,0,1,0,1,0
1767986959.5444891,20260109152919.544455,18.18910153787386,-64.95871326940924,1.085752085650027,0.0,0.05754950694588302,-0.02200123292649215,0.2697998379887506,-5.398610344196869,-23.56167145739794,-82.2121474112783,5,41.1,0.37633559107780457,15.98,41.1,0,0,1,0,1,0
1767986959.6396878,20260109152919.639654,18.189101515525966,-64.95871321603614,1.085752085650027,0.0,0.056378841936581534,-0.024848061934282815,0.2697998379887506,-5.244336806251119,-22.81221160726548,-79.34934089892249,5,41.1,0.37633559107780457,15.98,41.1,0,0,1,0,1,0
1767986959.7513103,20260109152919.751276,18.18910146191372,-64.95871317615078,1.1236224300280337,0.0,0.0421337925830943,-0.059613283105066334,0.2797540271671744,-4.900726941718174,-21.805566014617693,-76.36422614536623,5,43.22,0.37633559107780457,15.98,43.22,0,0,1,0,1,0
1767986959.840252,20260109152919.840218,18.189101406321743,-64.95871313939206,1.1236224300280337,0.0,0.03883131064859601,-0.0618152838164821,0.2797540271671744,-4.2865817251637655,-20.643381591027982,-73.24845665645938,5,43.22,0.37633559107780457,15.75,43.22,0,0,1,0,1,0
1767986959.9403937,20260109152919.940359,18.189101348863325,-64.95871310597512,1.1573348296950865,0.0,0.03530380985544132,-0.06389554765154488,0.2005311494175505,-3.4270033914238307,-19.41573661102653,-70.0338098986779,5,43.22,0.37633559107780457,15.75,43.22,0,0,1,0,1,0
1767986960.0443797,20260109152920.044345,18.189101288117385,-64.95871307976026,1.1573348296950865,0.0,0.027691934215960546,-0.06754373974972747,0.2005311494175505,-1.2056675578281408,-17.236053420317187,-63.40501673140864,5,43.22,0.37633559107780457,15.75,43.22,0,0,1,0,1,0
1767986960.1394224,20260109152920.139388,18.189101227377567,-64.95871305354804,1.199211373441581,0.0,0.027691934215960546,-0.06754373974972747,0.2023276436835563,-1.2056675578281408,-17.236053420317187,-63.40501673140864,5,43.22,0.37633559107780457,15.75,43.22,0,0,1,0,1,0
1767986960.2459166,20260109152920.245882,18.189101165291056,-64.9587130310773,1.199211373441581,0.0,0.02373647037448053,-0.06903318024081904,0.2023276436835563,-0.11772360848292493,-16.465768315958982,-60.08720675951578,5,43.22,0.37633559107780457,15.75,43.22,0,0,1,0,1,0
1767986960.3427455,20260109152920.342711,18.189101102094003,-64.95871301236247,1.2291700197882311,0.0,0.019770099677179416,-0.07027192297606769,0.18823922655902744,0.636603260101549,-15.931252888315923,-56.82537362298109,5,43.22,0.37633559107780457,15.75,43.22,0,0,1,0,1,0
1767986960.4470172,20260109152920.446983,18.18910112492796,-64.95871322659559,1.2291700197882311,0.0,-0.2263015749788439,0.025388918096183266,0.18823922655902744,1.0853050674632065,-15.489781745910648,-50.60651148079972,5,45.56,0.37633559107780457,15.67,45.56,0,0,1,0,1,0
1767986960.543875,20260109152920.543841,18.189101147760624,-64.95871344081668,1.2437317263672647,0.0,-0.2263015749788439,0.025388918096183266,0.15021199265040025,1.0853050674632065,-15.489781745910648,-50.60651148079972,5,45.56,0.37633559107780457,15.67,45.56,0,0,1,0,1,0
1767986960.6392949,20260109152920.639261,18.189101180943794,-64.95871365353376,1.2437317263672647,0.0,-0.22471210339644304,0.036898110888584815,0.15021199265040025,0.8902448268614562,-15.500496609002358,-47.68294016876559,5,45.56,0.37633559107780457,15.67,45.56,0,0,1,0,1,0
1767986960.7490437,20260109152920.749009,18.189101223436836,-64.95871386439923,1.3277317263672643,0.0,-0.22276497977613607,0.04725212995556581,0.20426069252995993,0.5804183707035939,-15.62700200294853,-45.031917407730624,5,45.56,0.37633559107780457,15.67,45.56,0,0,1,0,1,0
1767986960.839648,20260109152920.839614,18.189101274229355,-64.95871407321725,1.3277317263672643,0.0,-0.2206054896143189,0.05648201441190488,0.20426069252995993,0.2774871797413443,-15.891432871216542,-42.646746194819016,5,45.56,0.37633559107780457,15.67,45.56,0,0,1,0,1,0
1767986960.9397948,20260109152920.939761,18.189101338795414,-64.95871427780482,1.3726390341941799,0.0,-0.21610939624143194,0.07178947594295264,0.21536812032108915,0.06875148146877734,-16.719373330521588,-38.6317956405435,5,45.56,0.37633559107780457,15.67,45.56,0,0,1,0,1,0
1767986961.0525038,20260109152921.052470,18.189101564946608,-64.95871460620381,1.3726390341941799,0.0,-0.34689514118003584,0.2514532979017834,0.21536812032108915,0.06875148146877734,-16.719373330521588,-38.6317956405435,5,43.12,0.37633559107780457,15.7,43.12,0,0,1,0,1,0
1767986961.1433685,20260109152921.143334,18.189101805351516,-64.95871492309163,1.4458054466676866,0.0,-0.33479658521492645,0.2673504189793322,0.24364919082336495,0.9886226379744589,-18.14186489419341,-35.959992021528286,5,43.12,0.37633559107780457,15.7,43.12,0,0,1,0,1,0
1767986961.2454333,20260109152921.245399,18.189102045791287,-64.9587152400254,1.4458054466676866,0.0,-0.33479658521492645,0.2673504189793322,0.24364919082336495,0.9886226379744589,-18.14186489419341,-35.959992021528286,5,43.12,0.37633559107780457,15.7,43.12,0,0,1,0,1,0
1767986961.3427997,20260109152921.342765,18.18910229065962,-64.95871555319397,1.4990527163196508,0.0,-0.3308103333763479,0.2722673747099155,0.28734243834863105,1.5343882449768347,-19.131745781528945,-35.11349905425646,5,43.12,0.37633559107780457,15.7,43.12,0,0,1,0,1,0
1767986961.441919,20260109152921.441885,18.189102538733515,-64.95871586353219,1.4990527163196508,0.0,-0.32783449148768473,0.2758433363179382,0.28734243834863105,1.6697707535840471,-20.30138877435922,-34.49135625362796,5,43.12,0.37633559107780457,15.7,43.12,0,0,1,0,1,0
1767986961.5439355,20260109152921.543901,18.189102788812253,-64.95871617203804,1.5649077759311576,0.0,-0.32592596586540845,0.27809578345365216,0.31806642926203765,1.472757611789914,-21.66569222813845,-34.09654727276963,5,43.12,0.37633559107780457,15.7,43.12,0,0,1,0,1,0
1767986961.6431437,20260109152921.643109,18.189103236333256,-64.95871659426197,1.5649077759311576,0.0,-0.4460089448582336,0.4975952382272615,0.31806642926203765,1.1136189864613002,-24.97599069680572,-34.04384722183746,5,42.18,0.37633559107780457,15.45,42.18,0,0,1,0,1,0
1767986961.7517729,20260109152921.751739,18.189103683806525,-64.95871701644087,1.6885474918878722,0.0,-0.4460089448582336,0.4975952382272615,0.378338358360831,1.1136189864613002,-24.97599069680572,-34.04384722183746,5,42.18,0.37633559107780457,15.45,42.18,0,0,1,0,1,0
1767986961.8429203,20260109152921.842886,18.189104128380247,-64.95871744210876,1.6885474918878722,0.0,-0.4496429779081373,0.4943138602324462,0.378338358360831,1.0864490178365138,-26.807837841922037,-34.463671779475625,5,42.18,0.37633559107780457,15.45,42.18,0,0,1,0,1,0
1767986961.9758062,20260109152921.975772,18.18910456813333,-64.95871787321246,1.766084730703617,0.0,-0.45542250582736876,0.48899421385730146,0.4494382674579622,1.070002129877718,-28.627334293055533,-35.13719185171527,5,42.18,0.37633559107780457,15.45,42.18,0,0,1,0,1,0
1767986962.0408382,20260109152922.040804,18.189104994756132,-64.95871831867808,1.766084730703617,0.0,-0.47060322152780426,0.47440236918427425,0.4494382674579622,1.508370871186617,-32.11082080779076,-36.942718853453826,5,42.18,0.37633559107780457,15.45,42.18,0,0,1,0,1,0
1767986962.1427062,20260109152922.142672,18.18910542135777,-64.95871876412161,1.8910251992322165,0.0,-0.47060322152780426,0.47440236918427425,0.48444084040577506,1.508370871186617,-32.11082080779076,-36.942718853453826,5,42.18,0.37633559107780457,15.45,42.18,0,0,1,0,1,0
1767986962.2405534,20260109152922.240519,18.1891058302961,-64.95871922781089,1.8910251992322165,0.0,-0.489735050450426,0.454625758575467,0.48444084040577506,2.0859353957354925,-35.448274410760405,-39.302213668547076,5,42.18,0.37633559107780457,15.47,42.18,0,0,1,0,1,0
1767986962.3386872,20260109152922.338653,18.189106239146692,-64.95871969140069,1.9660251992322157,0.0,-0.489735050450426,0.454625758575467,0.5015382739973745,2.0859353957354925,-35.448274410760405,-39.302213668547076,5,42.18,0.37633559107780457,15.47,42.18,0,0,1,0,1,0
1767986962.4420328,20260109152922.441999,18.189106627674963,-64.95872017388992,1.9660251992322157,0.0,-0.509747291495549,0.4320679330995901,0.5015382739973745,3.0847279755771035,-38.33385619704725,-41.88805078838272,5,42.18,0.37633559107780457,15.47,42.18,0,0,1,0,1,0
1767986962.5397081,20260109152922.539674,18.189107016236754,-64.95872065642077,2.124410020584861,0.0,-0.509747291495549,0.4320679330995901,0.5598046725184642,3.0847279755771035,-38.33385619704725,-41.88805078838272,5,42.18,0.37633559107780457,15.47,42.18,0,0,1,0,1,0
1767986962.6397219,20260109152922.639688,18.1891073947085,-64.95872114780146,2.124410020584861,0.0,-0.5190677501483881,0.4208249882740931,0.5598046725184642,3.626380526567978,-39.66897082697155,-43.14026396761341,5,42.18,0.37633559107780457,15.47,42.18,0,0,1,0,1,0
1767986962.7401273,20260109152922.740093,18.189107763197892,-64.95872164735229,2.2455951922435506,0.0,-0.5278073054019732,0.40981025897884515,0.5995146938083894,3.786471680219458,-40.934632653486744,-44.34589865514443,5,42.18,0.37633559107780457,15.47,42.18,0,0,1,0,1,0
1767986962.8394084,20260109152922.839374,18.189108115706123,-64.9587221598086,2.2455951922435506,0.0,-0.541243836596174,0.39189298200740214,0.5995146938083894,3.1823164726719035,-43.130938823032366,-46.26627191374697,5,42.18,0.37633559107780457,15.53,42.18,0,0,1,0,1,0
1767986962.9500074,20260109152922.949973,18.18910846811845,-64.9587226721255,2.3416932111010085,0.0,-0.541243836596174,0.39189298200740214,0.5634771048920597,3.1823164726719035,-43.130938823032366,-46.26627191374697,5,42.18,0.37633559107780457,15.53,42.18,0,0,1,0,1,0
1767986963.0436034,20260109152923.043569,18.189108805535078,-64.95872319571724,2.3416932111010085,0.0,-0.5530043279785952,0.3751149333696839,0.5634771048920597,2.3867500543914737,-44.80947890231609,-48.02316112101476,5,42.18,0.37633559107780457,15.53,42.18,0,0,1,0,1,0
1767986963.1424704,20260109152923.142436,18.189109142816626,-64.95872371909935,2.4791657234841358,0.0,-0.5530043279785952,0.3751149333696839,0.6412607924759164,2.3867500543914737,-44.80947890231609,-48.02316112101476,5,42.18,0.37633559107780457,15.53,42.18,0,0,1,0,1,0
1767986963.2434204,20260109152923.243386,18.189109473082404,-64.95872424759582,2.4791657234841358,0.0,-0.5582750616147821,0.3672246663542787,0.6412607924759164,2.1882354443818217,-45.26397692767381,-48.83676671567363,5,42.18,0.37633559107780457,15.53,42.18,0,0,1,0,1,0
1767986963.3475223,20260109152923.347488,18.189109797947424,-64.95872477981106,2.5952426102388872,0.0,-0.5621862580075809,0.3612085426833559,0.5880715038178914,2.0149607402577874,-45.487378834927085,-49.45204062139194,5,42.18,0.37633559107780457,15.53,42.18,0,0,1,0,1,0
1767986963.4430304,20260109152923.442996,18.189110118793778,-64.95872531445865,2.5952426102388872,0.0,-0.5649533045511577,0.3568651897800161,0.5880715038178914,1.7418112391184932,-45.27649325380326,-49.89360909402768,5,42.18,0.37633559107780457,15.75,42.18,0,0,1,0,1,0
1767986963.5463598,20260109152923.546326,18.189110439805678,-64.9587258493821,2.692305093041176,0.0,-0.5649533045511577,0.3568651897800161,0.5581685379082791,1.7418112391184932,-45.27649325380326,-49.89360909402768,5,42.18,0.37633559107780457,15.75,42.18,0,0,1,0,1,0
1767986963.6444466,20260109152923.644412,18.189110761249093,-64.95872638382342,2.692305093041176,0.0,-0.5645910910216045,0.3574379665606808,0.5581685379082791,1.4041427875142325,-44.9143564945221,-49.83550123888652,5,42.18,0.37633559107780457,15.75,42.18,0,0,1,0,1,0
1767986963.740542,20260109152923.740508,18.18911108518948,-64.95872691663989,2.780305093041175,0.0,-0.5628384638152835,0.3601914263972032,0.5480858505358283,1.05238087584859,-44.375952980303786,-49.5556409677665,5,42.18,0.37633559107780457,15.75,42.18,0,0,1,0,1,0
1767986963.8454328,20260109152923.845399,18.18911141334984,-64.9587274464651,2.780305093041175,0.0,-0.5597693826443534,0.36494278764480254,0.5480858505358283,0.8644443116549357,-43.701570596373074,-49.07064272176425,5,42.18,0.37633559107780457,15.75,42.18,0,0,1,0,1,0
1767986963.9413803,20260109152923.941346,18.18911175569292,-64.95872796641311,2.8740467961204192,0.0,-0.5492190381586755,0.3806355844164592,0.4589553738786587,1.3925088367637033,-42.077675465083125,-47.44921670474214,5,42.18,0.37633559107780457,15.75,42.18,0,0,1,0,1,0
1767986964.0470946,20260109152924.047060,18.189112097976526,-64.95872848627077,2.8740467961204192,0.0,-0.5492190381586755,0.3806355844164592,0.4589553738786587,1.3925088367637033,-42.077675465083125,-47.44921670474214,5,42.18,0.37633559107780457,15.75,42.18,0,0,1,0,1,0
1767986964.13906,20260109152924.139026,18.189112461746284,-64.95872898980447,2.967315448363376,0.0,-0.5319050565554755,0.4044774540202662,0.5290512759786891,2.3649201216682627,-40.426982077002535,-44.922554657487076,5,42.18,0.37633559107780457,15.75,42.18,0,0,1,0,1,0
1767986964.241312,20260109152924.241278,18.189112716634153,-64.95872938706113,2.967315448363376,0.0,-0.41963865322488364,0.28341030454026517,0.5290512759786891,2.3649201216682627,-40.426982077002535,-44.922554657487076,5,56.51,0.37633559107780457,15.75,56.51,0,0,1,0,1,0
1767986964.3402941,20260109152924.340260,18.189112981417573,-64.95872977703795,3.0472088505819483,0.0,-0.41197852677053926,0.29443453173834083,0.4929242864891877,2.794064689204822,-39.6555699910283,-43.403574684456984,5,56.51,0.37633559107780457,15.75,56.51,0,0,1,0,1,0
1767986964.4389555,20260109152924.438921,18.189113268515815,-64.9587301491697,3.0472088505819483,0.0,-0.3930883422841676,0.31921709722426383,0.4929242864891877,2.937485906452662,-38.25630620148183,-39.877187720722915,5,56.51,0.37633559107780457,15.75,56.51,0,0,1,0,1,0
1767986964.541996,20260109152924.541962,18.189113555592776,-64.95873052127385,3.1321985918162616,0.0,-0.3930883422841676,0.31921709722426383,0.48056745662667666,2.937485906452662,-38.25630620148183,-39.877187720722915,5,56.51,0.37633559107780457,15.75,56.51,0,0,1,0,1,0
1767986964.6587083,20260109152924.658674,18.189113853942278,-64.95873088339245,3.1321985918162616,0.0,-0.38255624676605016,0.3317660592349267,0.48056745662667666,3.170378364951151,-37.687511749684816,-38.02340029260018,5,56.51,0.37633559107780457,15.67,56.51,0,0,1,0,1,0
1767986964.744887,20260109152924.744853,18.189114172240686,-64.9587312260841,3.2042461264895636,0.0,-0.3620823418371224,0.3539977086504166,0.47486466594145754,4.230469566634281,-36.77525428247452,-34.603212578631414,5,56.51,0.37633559107780457,15.67,56.51,0,0,1,0,1,0
1767986964.8395278,20260109152924.839494,18.189114490658213,-64.958731568904,3.2042461264895636,0.0,-0.3620823418371224,0.3539977086504166,0.47486466594145754,4.230469566634281,-36.77525428247452,-34.603212578631414,5,56.51,0.37633559107780457,15.67,56.51,0,0,1,0,1,0
1767986964.941204,20260109152924.941170,18.18911481541063,-64.95873195835226,3.305435243916582,0.0,-0.41139235877376434,0.3610946235303959,0.53643344452088,5.238958030356455,-36.44904774616957,-33.03876743513444,5,53.28,0.37633559107780457,15.67,53.28,0,0,1,0,1,0
1767986965.044152,20260109152925.044118,18.189115157640533,-64.95873233080904,3.305435243916582,0.0,-0.3934655902825299,0.3805493782199892,0.53643344452088,7.307588708755363,-36.21120339875221,-30.269437217635886,5,53.28,0.37633559107780457,15.67,53.28,0,0,1,0,1,0
1767986965.1445363,20260109152925.144502,18.189115499873438,-64.95873270326908,3.3776737652815267,0.0,-0.3934655902825299,0.3805493782199892,0.4468932831495206,7.307588708755363,-36.21120339875221,-30.269437217635886,5,53.28,0.37633559107780457,15.67,53.28,0,0,1,0,1,0
1767986965.2443397,20260109152925.244305,18.189115849744315,-64.95873306785695,3.3776737652815267,0.0,-0.38511015309539065,0.3890027891710351,0.4468932831495206,7.914551978829485,-36.27722744597197,-29.025304155082466,5,53.28,0.37633559107780457,15.59,53.28,0,0,1,0,1,0
1767986965.352518,20260109152925.352484,18.189116206102682,-64.95873342523043,3.4683140486674713,0.0,-0.3775826248768531,0.39631346355013686,0.4658205323983185,8.321465766772612,-36.48886434817314,-27.92693762682176,5,53.28,0.37633559107780457,15.59,53.28,0,0,1,0,1,0
1767986965.4407487,20260109152925.440714,18.189116572313193,-64.9587337715634,3.4683140486674713,0.0,-0.3658372918296301,0.4071806428438883,0.4658205323983185,8.674181984272586,-37.402757646274544,-26.251977421716813,5,53.28,0.37633559107780457,15.59,53.28,0,0,1,0,1,0
1767986965.558719,20260109152925.558685,18.189117005634344,-64.95873419493107,3.549731786253139,0.0,-0.447270501913541,0.48186419053298524,0.45413513687548634,8.674181984272586,-37.402757646274544,-26.251977421716813,5,49.27,0.37633559107780457,15.59,49.27,0,0,1,0,1,0
1767986965.6399326,20260109152925.639898,18.189117442652915,-64.95873461413338,3.549731786253139,0.0,-0.4428380625211924,0.48594078896762366,0.45413513687548634,8.56240419099031,-38.0301927081585,-25.727164281258958,5,49.27,0.37633559107780457,15.59,49.27,0,0,1,0,1,0
1767986965.7398593,20260109152925.739825,18.189117882379435,-64.95873503015844,3.6595245348199312,0.0,-0.43949483492989405,0.4889665531198889,0.510572045482155,8.446780146056398,-38.78126789860725,-25.334199452135927,5,49.27,0.37633559107780457,15.59,49.27,0,0,1,0,1,0
1767986965.841154,20260109152925.841120,18.18911832334018,-64.95873544471097,3.6595245348199312,0.0,-0.4379498398335061,0.49035083133385865,0.510572045482155,8.30917483696638,-39.59323424727916,-25.153417086769135,5,49.27,0.37633559107780457,15.81,49.27,0,0,1,0,1,0
1767986965.9427955,20260109152925.942761,18.18911876049761,-64.95873586368853,3.785672128838147,0.0,-0.44263141995110244,0.4861290220425754,0.48037776704579693,7.699826976245621,-41.199230861449244,-25.70280440287388,5,49.27,0.37633559107780457,15.81,49.27,0,0,1,0,1,0
1767986966.0396986,20260109152926.039664,18.189119197775447,-64.95873628278149,3.785672128838147,0.0,-0.44263141995110244,0.4861290220425754,0.48037776704579693,7.699826976245621,-41.199230861449244,-25.70280440287388,5,49.27,0.37633559107780457,15.81,49.27,0,0,1,0,1,0
1767986966.1418774,20260109152926.141843,18.189119697329847,-64.95873679487883,3.889840859678853,0.0,-0.5410084081437925,0.5555158884475939,0.5270343799049815,7.2316284402876905,-41.97807419589758,-26.367846499774846,5,38.15,0.37633559107780457,15.81,38.15,0,0,1,0,1,0
1767986966.246934,20260109152926.246900,18.18912017694315,-64.95873732787283,3.889840859678853,0.0,-0.5629775810983667,0.533239386374105,0.5270343799049815,6.975564983631643,-43.319233545398696,-28.67979037463758,5,38.15,0.37633559107780457,15.81,38.15,0,0,1,0,1,0
1767986966.3393455,20260109152926.339311,18.189120656460133,-64.95873786075978,3.9946630169461836,0.0,-0.5629775810983667,0.533239386374105,0.5560109366009861,6.975564983631643,-43.319233545398696,-28.67979037463758,5,38.15,0.37633559107780457,15.81,38.15,0,0,1,0,1,0
1767986966.4428673,20260109152926.442833,18.189121122989718,-64.95873840630193,3.9946630169461836,0.0,-0.5763288904826722,0.5187803099530782,0.5560109366009861,6.8534654901623515,-43.92520814523695,-30.134008178348317,5,38.15,0.37633559107780457,15.53,38.15,0,0,1,0,1,0
1767986966.5415678,20260109152926.541534,18.1891215759982,-64.95873896444986,4.1280896922486985,0.0,-0.5895708689927995,0.5036806432999735,0.5784493330426876,6.781357876650972,-44.39874874480963,-31.61801074013212,5,38.15,0.37633559107780457,15.53,38.15,0,0,1,0,1,0
1767986966.6465633,20260109152926.646529,18.1891220151322,-64.9587395345975,4.1280896922486985,0.0,-0.6023440293774616,0.488333564557387,0.5784493330426876,6.673544155825646,-44.76219348578453,-33.09340896803238,5,38.15,0.37633559107780457,15.53,38.15,0,0,1,0,1,0
1767986966.7423534,20260109152926.742319,18.189122463849877,-64.95874014477484,4.253823004523311,0.0,-0.6445753943213147,0.4989454489576207,0.5943744913186846,7.083495671488319,-45.06391037006379,-35.8681504048357,5,39.3,0.37633559107780457,15.53,39.3,0,0,1,0,1,0
1767986966.839498,20260109152926.839464,18.189122912583823,-64.9587407549743,4.253823004523311,0.0,-0.6445753943213147,0.4989454489576207,0.5943744913186846,7.083495671488319,-45.06391037006379,-35.8681504048357,5,39.3,0.37633559107780457,15.53,39.3,0,0,1,0,1,0
1767986966.944589,20260109152926.944555,18.18912335045002,-64.95874137376013,4.356185757913142,0.0,-0.6537130386188206,0.4869119665193579,0.5829034871444463,7.3270299954056615,-45.0338506967783,-36.93023837034799,5,39.3,0.37633559107780457,15.53,39.3,0,0,1,0,1,0
1767986967.042366,20260109152927.042332,18.189123772665067,-64.95874200453777,4.356185757913142,0.0,-0.6663425520870454,0.46948014151625556,0.5829034871444463,7.467972706872201,-44.50022148649693,-38.44337511445382,5,39.3,0.37633559107780457,15.59,39.3,0,0,1,0,1,0
1767986967.1423302,20260109152927.142296,18.189124194881696,-64.95874263531776,4.453037245323969,0.0,-0.6663425520870454,0.46948014151625556,0.5632155776772529,7.467972706872201,-44.50022148649693,-38.44337511445382,5,39.3,0.37633559107780457,15.59,39.3,0,0,1,0,1,0
1767986967.242996,20260109152927.242962,18.189124610989264,-64.9587432706269,4.453037245323969,0.0,-0.671093219173647,0.46266390736597496,0.5632155776772529,7.439764015513633,-44.04075449674131,-39.027385525615,5,39.3,0.37633559107780457,15.59,39.3,0,0,1,0,1,0
1767986967.3444722,20260109152927.344438,18.189125022683015,-64.95874390900146,4.542580667353787,0.0,-0.6744127621320697,0.4578115619699795,0.5480481257381468,7.266494860920288,-43.52380461437703,-39.44063943892217,5,39.3,0.37633559107780457,15.59,39.3,0,0,1,0,1,0
1767986967.439544,20260109152927.439510,18.1891254696118,-64.95874451491264,4.542580667353787,0.0,-0.6401698132255906,0.49703481793000437,0.5480481257381468,6.076276769632088,-42.55131851752995,-39.269322488558444,5,52.68,0.37633559107780457,15.59,52.68,0,0,1,0,1,0
1767986967.5389984,20260109152927.538964,18.189125916674868,-64.95874512100589,4.635040226448065,0.0,-0.6401698132255906,0.49703481793000437,0.5069236321022361,6.076276769632088,-42.55131851752995,-39.269322488558444,5,52.68,0.37633559107780457,15.59,52.68,0,0,1,0,1,0
1767986967.6399188,20260109152927.639885,18.18912637526252,-64.9587457173436,4.635040226448065,0.0,-0.6299547568546228,0.5099196057382313,0.5069236321022361,4.972701366493082,-41.55473891977073,-38.106887055427,5,52.68,0.37633559107780457,15.64,52.68,0,0,1,0,1,0
1767986967.7431188,20260109152927.743085,18.189126833849983,-64.95874631368108,4.748699210890765,0.0,-0.6299547568546228,0.5099196057382313,0.4904938355730941,4.972701366493082,-41.55473891977073,-38.106887055427,5,52.68,0.37633559107780457,15.64,52.68,0,0,1,0,1,0
1767986967.8404984,20260109152927.840464,18.18912730138701,-64.95874690209888,4.748699210890765,0.0,-0.6216940635670896,0.5199591246679297,0.4904938355730941,4.956808791272319,-41.10429461313485,-37.18776353809847,5,52.68,0.37633559107780457,15.64,52.68,0,0,1,0,1,0
1767986967.939052,20260109152927.939018,18.189127790280253,-64.95874747126015,4.836699210890764,0.0,-0.6011748972739394,0.5435528887676603,0.4805184963346435,5.666307751603407,-40.485339234137534,-34.97713274919407,5,52.68,0.37633559107780457,15.64,52.68,0,0,1,0,1,0
1767986968.0395575,20260109152928.039523,18.18912825292851,-64.9587479690759,4.836699210890764,0.0,-0.5258950493843391,0.5144505778333264,0.4805184963346435,5.666307751603407,-40.485339234137534,-34.97713274919407,5,52.22,0.37633559107780457,15.64,52.22,0,0,1,0,1,0
1767986968.1469555,20260109152928.146921,18.18912872563122,-64.95874845626734,4.927406984721495,0.0,-0.5146954881472178,0.5256553571313596,0.480945212107569,6.350482495871167,-40.2973211345315,-33.7432910778524,5,52.22,0.37633559107780457,15.64,52.22,0,0,1,0,1,0
1767986968.2393777,20260109152928.239343,18.18912920852775,-64.95874893235478,4.927406984721495,0.0,-0.5029145119006293,0.5369376069151347,0.480945212107569,7.105118777471765,-40.088525592041,-32.472865192687685,5,52.22,0.37633559107780457,15.56,52.22,0,0,1,0,1,0
1767986968.3412352,20260109152928.341201,18.189129711552688,-64.95874938473368,5.035363364244626,0.0,-0.4778823588475648,0.5593330413110666,0.5002509718888952,8.350457368844722,-39.93469260145424,-29.85674471079126,5,52.22,0.37633559107780457,15.56,52.22,0,0,1,0,1,0
1767986968.4422238,20260109152928.442190,18.18913021460844,-64.95874983714029,5.035363364244626,0.0,-0.4778823588475648,0.5593330413110666,0.5002509718888952,8.350457368844722,-39.93469260145424,-29.85674471079126,5,52.22,0.37633559107780457,15.56,52.22,0,0,1,0,1,0
1767986968.5594704,20260109152928.559436,18.18913073748462,-64.95875026380668,5.1225249653405305,0.0,-0.4507381057718993,0.5814294110252423,0.46740532169857546,9.334437824401245,-40.27665297471285,-27.130571058994718,5,52.22,0.37633559107780457,15.56,52.22,0,0,1,0,1,0
1767986968.6425798,20260109152928.642546,18.18913123852152,-64.95875061487247,5.1225249653405305,0.0,-0.3708907828902042,0.5571723496074544,0.46740532169857546,9.334437824401245,-40.27665297471285,-27.130571058994718,5,49.24,0.37633559107780457,15.56,49.24,0,0,1,0,1,0
1767986968.7399561,20260109152928.739922,18.189131746698976,-64.95875095438663,5.23817639070597,0.0,-0.3586836700321939,0.5651079762773096,0.4896037106990496,9.142742520385964,-40.59488867740631,-25.884200254914326,5,49.24,0.37633559107780457,15.56,49.24,0,0,1,0,1,0
1767986968.8622131,20260109152928.862179,18.189132264658177,-64.95875127724493,5.23817639070597,0.0,-0.3410497145413842,0.5759219497564236,0.4896037106990496,8.166741436180454,-41.53837719576357,-24.113394532236594,5,49.24,0.37633559107780457,15.67,49.24,0,0,1,0,1,0
1767986968.9400876,20260109152928.940053,18.18913278264392,-64.95875160011977,5.332476178987202,0.0,-0.3410497145413842,0.5759219497564236,0.5060974769611735,8.166741436180454,-41.53837719576357,-24.113394532236594,5,49.24,0.37633559107780457,15.67,49.24,0,0,1,0,1,0
1767986969.0465727,20260109152929.046538,18.1891333048675,-64.95875191524318,5.332476178987202,0.0,-0.3328873364189848,0.5806780702350258,0.5060974769611735,6.834842118957622,-42.50976704685689,-23.30471009063439,5,49.24,0.37633559107780457,15.67,49.24,0,0,1,0,1,0
1767986969.142938,20260109152929.142904,18.18913382703626,-64.95875223033353,5.429476178987201,0.0,-0.3328873364189848,0.5806780702350258,0.49263794220501483,6.834842118957622,-42.50976704685689,-23.30471009063439,5,49.24,0.37633559107780457,15.67,49.24,0,0,1,0,1,0
1767986969.2403557,20260109152929.240321,18.1891343515315,-64.95875250659483,5.429476178987201,0.0,-0.29181759052099393,0.5831702100266453,0.49263794220501483,6.382183549578471,-42.93412685172558,-23.242666337576683,5,48.33,0.37633559107780457,15.67,48.33,0,0,1,0,1,0
1767986969.3436053,20260109152929.343571,18.18913487429194,-64.95875278633939,5.559290752473197,0.0,-0.29552653039586485,0.581299466567949,0.5023446567213476,5.712464478971038,-43.6719685459256,-23.607649579212193,5,48.33,0.37633559107780457,15.67,48.33,0,0,1,0,1,0
1767986969.4483612,20260109152929.448327,18.189135397059133,-64.95875306608755,5.559290752473197,0.0,-0.29552653039586485,0.581299466567949,0.5023446567213476,5.712464478971038,-43.6719685459256,-23.607649579212193,5,48.33,0.37633559107780457,15.84,48.33,0,0,1,0,1,0
1767986969.5456865,20260109152929.545652,18.189135918757188,-64.95875334805359,5.658802768818066,0.0,-0.2978661411196669,0.5801040958090873,0.5592566902383316,5.613932134772811,-43.979501338362695,-23.83849041890518,5,48.33,0.37633559107780457,15.84,48.33,0,0,1,0,1,0
1767986969.6403604,20260109152929.640326,18.189136439094334,-64.95875363276318,5.658802768818066,0.0,-0.30077090730814326,0.578603371332242,0.5592566902383316,5.692613807710973,-44.21915227146148,-24.125759740376623,5,48.33,0.37633559107780457,15.84,48.33,0,0,1,0,1,0
1767986969.7407265,20260109152929.740692,18.189136957741823,-64.95875392121815,5.758356103042763,0.0,-0.30464698710421684,0.5765719497585042,0.5612553298797096,5.708557182481869,-44.373890262436866,-24.510259400770245,5,48.33,0.37633559107780457,15.84,48.33,0,0,1,0,1,0
1767986969.8418272,20260109152929.841793,18.1891374532929,-64.9587541800282,5.758356103042763,0.0,-0.27343945636983535,0.5511005930863883,0.5612553298797096,5.751755583107452,-44.47463900381326,-24.898940845978398,5,49.46,0.37633559107780457,15.84,49.46,0,0,1,0,1,0
1767986969.940002,20260109152929.939968,18.189137946180836,-64.95875444455112,5.887536366678384,0.0,-0.27944511276343836,0.5480797651370002,0.5781262347800273,5.728694294902661,-44.52233081674575,-25.525035482758458,5,49.46,0.37633559107780457,15.84,49.46,0,0,1,0,1,0
1767986970.0415366,20260109152930.041502,18.189138439089916,-64.95875470908541,5.887536366678384,0.0,-0.27944511276343836,0.5480797651370002,0.5781262347800273,5.728694294902661,-44.52233081674575,-25.525035482758458,5,49.46,0.37633559107780457,15.67,49.46,0,0,1,0,1,0
1767986970.1401844,20260109152930.140150,18.189138931162425,-64.9587549752994,6.005757297744569,0.0,-0.2812284005887711,0.5471668728114685,0.5992568154194278,5.46277231042831,-44.47541081546546,-25.711614119482217,5,49.46,0.37633559107780457,15.67,49.46,0,0,1,0,1,0
1767986970.239965,20260109152930.239931,18.189139423023054,-64.95875524201627,6.005757297744569,0.0,-0.2817442566133214,0.5469014297525715,0.5992568154194278,5.2950040214046545,-44.412347656309606,-25.76564435023087,5,49.46,0.37633559107780457,15.67,49.46,0,0,1,0,1,0
1767986970.341697,20260109152930.341663,18.189139914284063,-64.95875550969834,6.0802650566788135,0.0,-0.282821109401894,0.5463453304245236,0.5787496244810415,5.617372843797476,-44.28072303375006,-25.87851753549294,5,49.46,0.37633559107780457,15.67,49.46,0,0,1,0,1,0
1767986970.4496002,20260109152930.449566,18.18914035556408,-64.95875575607248,6.0802650566788135,0.0,-0.2602318563261647,0.4906163276461949,0.5787496244810415,5.617372843797476,-44.28072303375006,-25.878484909350767,5,49.66,0.37633559107780457,15.67,49.66,0,0,1,0,1,0
1767986970.5444608,20260109152930.544427,18.18914079675263,-64.95875600231538,6.193644396732493,0.0,-0.2601657574470638,0.4906513819933616,0.544094301370815,5.842619329673029,-44.1493101471305,-25.87076593905498,5,49.66,0.37633559107780457,15.67,49.66,0,0,1,0,1,0
1767986970.6401777,20260109152930.640143,18.18914123814044,-64.95875624843947,6.193644396732493,0.0,-0.25997607622116803,0.4907519126734459,0.544094301370815,6.13223738328514,-43.95851215953826,-25.848618188978303,5,49.66,0.37633559107780457,15.5,49.66,0,0,1,0,1,0
1767986970.7393484,20260109152930.739314,18.18914168036771,-64.95875649287794,6.3151265628882935,0.0,-0.2581979433273381,0.4916897620060161,0.5568110069416957,6.245643323492979,-43.731763458395,-25.64121771312466,5,49.66,0.37633559107780457,15.5,49.66,0,0,1,0,1,0
1767986970.8391387,20260109152930.839104,18.18914212499284,-64.95875673224309,6.3151265628882935,0.0,-0.25288404680869264,0.4944437873708789,0.5568110069416957,5.852682336352747,-43.12700121756794,-25.023733386645834,5,49.66,0.37633559107780457,15.5,49.66,0,0,1,0,1,0
1767986970.9605858,20260109152930.960552,18.189142569673937,-64.95875697163838,6.412228118918744,0.0,-0.25288404680869264,0.4944437873708789,0.5247894390286013,5.852682336352747,-43.12700121756794,-25.023733386645834,5,49.66,0.37633559107780457,15.5,49.66,0,0,1,0,1,0
