"","timestamp_ros","timestamp_sys...Y.m.d.H.M.S..f.","latitude","longitude","depth","distance_to_ocean_floor","velX","velY","velZ","roll","pitch","yaw","navMode","acousticAltimeter","forwardStereo","battery_volts","altitudeUsed","cotsNumFound","cotsNumMaybe","missionState","errorState","storeData","storeImageData"
"1",1740497618,2.02502e+13,18.3505155,-64.69909083,0.2437,4.698354885,0,0,0.218069108,7.870773866,7.358640976,116.9212646,3,5.18200016,0.45724839,16.87,5.18200016,0,0,1,0,1,0
"11",1740497619,2.02502e+13,18.3505155,-64.69909083,0.0547,4.698354885,0,0,-0.192463337,-0.407514658,3.263923389,137.1414219,3,5.197999954,0.683950365,16.84,5.197999954,0,0,1,0,1,0
"21",1740497620,2.02502e+13,18.35051407,-64.69909119,0.0597,4.698354885,-0.197381238,-0.479870073,-0.004047407,2.133935848,1.767156266,-157.6416004,3,5.21600008,0.885400712,16.76,5.21600008,0,0,1,0,1,0
"31",1740497621,2.02502e+13,18.35050996,-64.69909775,0.0857,4.698354885,-0.970287711,-0.234052824,0.035021346,9.63593785,0.854994742,-103.5618471,3,5.21600008,0.788905919,16.9,5.21600008,0,0,1,0,1,0
"41",1740497622,2.02502e+13,18.35050774,-64.69910687,0.0857,4.698354885,-0.926123977,-0.362146774,0.035289178,6.034963502,-1.583122409,-111.3572714,3,5.193999767,2.031949282,16.73,5.193999767,0,0,1,0,1,0
"51",1740497623,2.02502e+13,18.35050453,-64.6991156,0.1777,4.698354885,-0.931348327,-0.327597245,0.098829989,22.08119327,-10.30428491,-109.3791139,3,5.190999985,1.767517447,16.81,5.190999985,0,0,1,0,1,0
"61",1740497624,2.02502e+13,18.35050216,-64.69912462,0.3007,4.698354885,-0.970789227,-0.206490251,0.151459585,13.99453242,-8.295414562,-102.0080904,3,5.168000221,1.751767516,16.42,5.168000221,0,0,1,0,1,0
"71",1740497625,2.02502e+13,18.35050094,-64.69913393,0.3627,4.698354885,-0.983016691,-0.077688573,0.077167081,13.19944518,-5.141801543,-94.51877161,3,5.143000126,1.979115009,16.73,5.143000126,0,0,1,0,1,0
"81",1740497626,2.02502e+13,18.35050085,-64.69914307,0.3717,4.698354885,-0.956565212,0.00749971,0.006172781,15.48611906,-5.129816264,-89.55082802,3,5.107999802,2.138595819,16.56,5.107999802,0,0,1,0,1,0
"91",1740497627,2.02502e+13,18.35050097,-64.6991521,0.3187,4.698354885,-0.945025529,0.026327425,-0.071319949,8.276949139,4.746589581,-88.40424375,3,5.045000076,1.15879643,16.76,5.045000076,0,0,1,0,1,0
"101",1740497628,2.02502e+13,18.3505011,-64.69916103,0.2357,4.698354885,-0.941049419,-0.008410784,-0.084448821,9.307207558,-10.53546726,-90.51210918,3,4.988999844,1.83005929,16.53,4.988999844,0,0,1,0,1,0
"111",1740497629,2.02502e+13,18.3505009,-64.69916993,0.3407,4.698354885,-0.948809676,-0.059151503,0.10705358,5.150237256,-3.61208707,-93.56739895,3,4.998000145,2.04278779,16.64,4.998000145,0,0,1,0,1,0
"121",1740497630,2.02502e+13,18.35049989,-64.69917902,0.2927,4.698354885,-0.963474745,-0.147051883,-0.048551779,0.146891435,0.963705992,-98.6779259,3,4.962999821,1.314490795,16.45,4.962999821,0,0,1,0,1,0
"131",1740497631,2.02502e+13,18.35049867,-64.69918812,0.2657,4.698354885,-0.957758767,-0.154672541,-0.034089391,8.735543572,-4.799745547,-99.17377049,3,4.923999786,2.610526323,16.62,4.923999786,0,0,1,0,1,0
"141",1740497632,2.02502e+13,18.35049676,-64.69919721,0.1917,4.698354885,-0.958288324,-0.230892564,-0.054767227,-1.217066934,7.806791192,-103.5468297,3,4.948999882,0.615053058,16.45,4.948999882,0,0,1,0,1,0
"151",1740497633,2.02502e+13,18.35049485,-64.69920629,0.1297,4.698354885,-0.954939622,-0.23468944,-0.034181253,8.731316537,-8.770754063,-103.8076064,3,4.940999985,1.173167944,16.62,4.940999985,0,0,1,0,1,0
"161",1740497634,2.02502e+13,18.3504925,-64.69921527,0.2087,4.698354885,-0.953507373,-0.266644221,0.066573147,4.431831726,-3.756820538,-105.6234575,3,4.953000069,1.416162968,16.59,4.953000069,0,0,1,0,1,0
"171",1740497635,2.02502e+13,18.35049004,-64.69922431,0.1867,4.698354885,-0.954006249,-0.277453881,-0.083364381,4.516749791,-0.161334862,-106.2160671,3,4.967000008,0.996815503,16.59,4.967000008,0,0,1,0,1,0
"181",1740497636,2.02502e+13,18.35048771,-64.69923334,0.2047,5.12232307,-0.944409332,-0.282459477,0.043109494,12.9564577,-8.802637398,-106.6512186,3,4.977000237,1.664718747,16.37,4.977000237,0,0,1,0,1,0
"191",1740497637,2.02502e+13,18.35048473,-64.69924224,0.1387,5.12232307,-0.933599439,-0.350950994,-0.066056926,11.9766078,4.775477022,-110.6018697,3,4.980999947,0.693380177,16.48,4.980999947,0,0,1,0,1,0
"201",1740497638,2.02502e+13,18.35048192,-64.69925118,0.1427,5.12232307,-0.956478029,-0.233528221,-0.01326064,11.69430232,-10.64009213,-103.7206174,3,4.998000145,2.889162779,16.64,4.998000145,0,0,1,0,1,0
"211",1740497639,2.02502e+13,18.35048039,-64.69926022,0.2217,5.12232307,-0.95438056,-0.183148117,0.085751202,4.526747057,-5.100022115,-100.8631795,3,5.024000168,1.504663944,16.84,5.024000168,0,0,1,0,1,0
"221",1740497640,2.02502e+13,18.35047816,-64.69926924,0.1557,5.12232307,-0.94933869,-0.262672204,-0.077785789,1.496132342,8.115636235,-105.4662541,3,5.053999901,0.444917023,16.45,5.053999901,0,0,1,0,1,0
"231",1740497641,2.02502e+13,18.35047608,-64.69927828,0.1297,5.12232307,-0.946705581,-0.236288296,-0.028886206,8.540234243,-9.998815685,-104.0141719,3,5.071000099,1.670333147,16.73,5.071000099,0,0,1,0,1,0
"241",1740497642,2.02502e+13,18.35047325,-64.6992872,0.1697,5.12232307,-0.935191598,-0.349159356,0.037099886,4.849849271,3.099731986,-110.4734568,3,5.071000099,0.703695536,16.59,5.071000099,0,0,1,0,1,0
"251",1740497643,2.02502e+13,18.35047029,-64.69929611,0.1207,5.12232307,-0.936428291,-0.328065703,-0.040125348,5.794240656,-8.586671008,-109.3072972,3,5.116000175,2.12827611,16.48,5.116000175,0,0,1,0,1,0
"261",1740497644,2.02502e+13,18.35046983,-64.69933183,0.1297,5.12232307,-1.129768718,-0.249429529,0.007181981,5.441303311,-3.081839445,-116.5463138,1,5.149000168,1.330644965,16.76,5.149000168,0,0,1,0,1,0
"271",1740497645,2.02502e+13,18.3504675,-64.69934233,0.1337,5.12232307,-1.07813811,-0.381365246,0.005091386,2.476500907,-3.219594164,-118.7500751,1,5.172999859,1.75498426,16.81,5.172999859,0,0,1,0,1,0
"281",1740497646,2.02502e+13,18.3504645,-64.69935283,0.0727,5.12232307,-1.10172116,-0.503942218,-0.088292628,6.661749696,0.648424561,-122.9286361,1,5.184999943,0.782254338,16.51,5.184999943,0,0,1,0,1,0
"291",1740497647,2.02502e+13,18.35046067,-64.69936267,0.1337,5.12232307,-0.915266815,-0.481137316,0.071869024,1.080817418,-12.17258735,-117.5434779,1,5.206999779,1.086531997,16.34,5.206999779,0,0,1,0,1,0
"301",1740497648,2.02502e+13,18.35045347,-64.69937388,0.2177,5.12232307,-0.773384758,-0.601039281,0.00998104,0.837993808,5.472559121,-127.8527643,3,5.19299984,0.968919396,16.51,5.19299984,0,0,1,0,1,0
"311",1740497649,2.02502e+13,18.3504481,-64.69938111,0.0987,5.12232307,-0.773609315,-0.585744233,-0.096712476,1.637187538,-2.541739268,-127.1315097,3,5.197999954,0.602808833,16.84,5.197999954,0,0,1,0,1,0
"321",1740497650,2.02502e+13,18.35044298,-64.69938854,0.1167,5.12232307,-0.776755125,-0.570876101,-0.055732495,-5.031458517,-3.838861384,-126.3140678,3,5.202000141,0.587603271,16.73,5.202000141,0,0,1,0,1,0
"331",1740497651,2.02502e+13,18.35043788,-64.69939591,0.2177,5.12232307,-0.772684291,-0.568599842,0.134230606,2.457277759,-3.763852647,-126.3485056,3,5.210999966,0.864956796,16.62,5.210999966,0,0,1,0,1,0
"341",1740497652,2.02502e+13,18.35043277,-64.69940313,0.0907,5.12232307,-0.773192333,-0.554116617,-0.127262348,-1.847148695,-0.454430897,-125.6277292,3,5.235000134,0.750712335,16.59,5.235000134,0,0,1,0,1,0
"351",1740497653,2.02502e+13,18.35042803,-64.69941068,0.0907,5.12232307,-0.795051913,-0.526621514,-0.027733007,-6.610996676,-3.185845761,-123.5194898,3,5.245999813,0.878440499,16.42,5.245999813,0,0,1,0,1,0
"361",1740497654,2.02502e+13,18.35042328,-64.69941815,0.0597,5.12232307,-0.774109732,-0.534680534,-0.034070354,2.524988864,0.007216658,-124.6330296,3,5.296999931,1.025458217,16.59,5.296999931,0,0,1,0,1,0
"371",1740497655,2.02502e+13,18.35042569,-64.69943276,0.0857,5.12232307,-0.697942831,-0.614140257,0.007515443,4.372976819,-3.237872397,-131.345537,3,5.295000076,0.898058534,16.59,5.295000076,0,0,1,0,1,0
"381",1740497656,2.02502e+13,18.35041997,-64.69943849,0.0817,5.12232307,-0.543182128,-0.640761765,-0.002286211,10.03104565,3.00196505,-139.7116695,3,5.323999882,1.050498486,16.7,5.323999882,0,0,1,0,1,0
"391",1740497657,2.02502e+13,18.35041434,-64.6994426,0.0687,5.12232307,-0.336521081,-0.591799763,-0.082819727,6.864761773,1.21591007,-150.375757,3,5.368999958,0.47703889,16.56,5.368999958,0,0,1,0,1,0
"401",1740497658,2.02502e+13,18.35040922,-64.69944751,0.0687,5.12232307,-0.690449877,-0.539887056,-0.026381511,3.070594602,-0.791018204,-128.023149,3,5.393000126,1.201328635,16.64,5.393000126,0,0,1,0,1,0
"411",1740497659,2.02502e+13,18.35040502,-64.69945507,0.0687,5.12232307,-0.873254539,-0.394479605,0.047497681,-9.671436917,7.295924449,-114.3103986,3,5.427999973,0.679093003,16.76,5.427999973,0,0,1,0,1,0
"421",1740497660,2.02502e+13,18.35040287,-64.69946405,0.1117,5.12232307,-0.992040029,-0.035745525,0.048224063,-13.48444176,-6.072616214,-92.06364121,3,5.429999828,1.21799612,16.23,5.429999828,0,0,1,0,1,0
"431",1740497661,2.02502e+13,18.35040437,-64.69947273,0.0857,5.12232307,-0.910448911,0.15422924,-0.041466984,-18.30540017,5.058470217,-80.3854479,3,5.518000126,0.411664426,16.56,5.518000126,0,0,1,0,1,0
"441",1740497662,2.02502e+13,18.35040283,-64.69947633,0.0767,5.12232307,-0.728923638,0.091309063,-0.021923881,-4.325722565,-1.316258499,-75.59736731,1,5.535999775,1.026876211,16.48,5.535999775,0,0,1,0,1,0
"451",1740497663,2.02502e+13,18.350405,-64.69948317,0.0817,5.12232307,-0.864966205,0.245902533,-0.098232064,-2.552546552,-2.249916344,-77.9523764,1,5.565000057,0.857863009,16.81,5.565000057,0,0,1,0,1,0
"461",1740497664,2.02502e+13,18.35041017,-64.69949133,0.0727,5.12232307,-0.974882471,0.560582284,-0.009242958,4.219988211,-2.146061786,-100.0602177,1,5.577000141,1.477524281,16.53,5.577000141,0,0,1,0,1,0
"471",1740497665,2.02502e+13,18.35041117,-64.6995005,0.0947,5.12232307,-0.987369856,0.06125504,-0.127509438,16.81531362,7.60090275,-135.2889504,1,5.587999821,1.994508386,16.78,5.587999821,0,0,1,0,1,0
"481",1740497666,2.02502e+13,18.3504075,-64.699507,0.1207,5.12232307,-0.76408784,-0.342913923,0.01387565,12.23745282,-6.175724786,-145.5910377,1,5.607999802,1.123314023,16.51,5.607999802,0,0,1,0,1,0
"491",1740497667,2.02502e+13,18.35040283,-64.6995115,0.0727,5.12232307,-0.578401556,-0.567402291,-0.062529195,10.73973523,1.214788852,-152.3981159,1,5.590000153,0.970294893,16.7,5.590000153,0,0,1,0,1,0
"501",1740497668,2.02502e+13,18.35039553,-64.69951552,0.0817,5.12232307,-0.555693712,-0.608447721,-0.052707397,3.817387689,-1.157310335,-137.5946787,3,5.605999947,0.687835991,16.81,5.605999947,0,0,1,0,1,0
"511",1740497669,2.02502e+13,18.35039058,-64.69952183,0.0947,5.12232307,-0.833480741,-0.447277583,0.055591814,-6.663061946,-1.027477464,-118.2197473,3,5.651000023,0.782716393,16.53,5.651000023,0,0,1,0,1,0
"521",1740497670,2.02502e+13,18.35038804,-64.69953071,0.0987,5.12232307,-0.994042943,-0.096866931,0.032382112,-20.17237499,2.177471916,-95.56578761,3,5.684999943,0.625075877,16.48,5.684999943,0,0,1,0,1,0
"531",1740497671,2.02502e+13,18.35038879,-64.69953973,0.0767,5.12232307,-0.892000353,0.205308401,-0.016474791,-10.13004501,2.743663852,-77.03821497,3,5.735000134,0.721654058,16.67,5.735000134,0,0,1,0,1,0
"541",1740497672,2.02502e+13,18.35038983,-64.69954097,0.0947,5.12232307,-0.667382304,0.337535093,0.016361791,-9.269962523,-1.597660259,-63.17157362,3,5.741000175,0.986354947,16.78,5.741000175,0,0,1,0,1,0
"551",1740497673,2.02502e+13,18.35039197,-64.69954835,0.1117,5.12232307,-0.870726589,0.150974185,0.02095854,-7.006202662,-5.681037487,-80.16338281,3,5.763000011,1.058095574,16.59,5.763000011,0,0,1,0,1,0
"561",1740497674,2.02502e+13,18.35039185,-64.69955722,0.0547,5.12232307,-0.969334679,-0.136466861,-0.056823943,12.72880485,2.685028791,-98.01369982,3,5.774000168,0.527704775,16.59,5.774000168,0,0,1,0,1,0
"571",1740497675,2.02502e+13,18.350395,-64.6995615,0.0947,5.12232307,-0.783210439,0.087851127,0.049977671,6.704196775,-0.425526807,-124.4592492,1,5.747000217,0.823316216,16.56,5.747000217,0,0,1,0,1,0
"581",1740497676,2.02502e+13,18.35038926,-64.69956772,0.0857,5.12232307,-0.58527826,-0.656732197,-0.252136256,18.68402672,0.381492162,-138.2926958,3,5.748000145,1.682160139,16.59,5.748000145,0,0,1,0,1,0
"591",1740497677,2.02502e+13,18.35038342,-64.69957183,0.2087,5.12232307,-0.389709698,-0.620870592,0.090233518,11.98820291,5.386032546,-147.8842739,3,5.764999866,0.575582325,16.73,5.764999866,0,0,1,0,1,0
"601",1740497678,2.02502e+13,18.35037785,-64.69957627,0.0727,5.12232307,-0.471781833,-0.617524825,-0.004742587,-0.835635684,2.435129796,-142.6206413,3,5.808000088,0.970283926,16.7,5.808000088,0,0,1,0,1,0
"611",1740497679,2.02502e+13,18.35037246,-64.69958064,0.0727,5.12232307,-0.489026847,-0.571363726,0.001777937,-7.789660218,2.808291765,-139.440026,3,5.839000225,0.916921675,16.78,5.839000225,0,0,1,0,1,0
"621",1740497680,2.02502e+13,18.35036827,-64.69958776,0.0987,5.12232307,-0.90119346,-0.354885542,0.009509797,-1.646260167,-3.949904932,-111.4943156,3,5.81400013,1.958137035,16.76,5.81400013,0,0,1,0,1,0
"631",1740497681,2.02502e+13,18.35037033,-64.6995975,0.0687,5.12232307,-0.931798004,-0.462345859,-0.030494543,-14.62157048,2.649942737,-110.7417104,1,5.879000187,0.617656648,16.62,5.879000187,0,0,1,0,1,0
"641",1740497682,2.02502e+13,18.3503695,-64.699607,0.0857,5.12232307,-0.845104452,-0.160142483,0.013972366,-8.08182081,-1.580235906,-90.12157687,1,5.907999992,0.654706001,16.45,5.907999992,0,0,1,0,1,0
"651",1740497683,2.02502e+13,18.35036805,-64.6996175,0.1077,5.12232307,-0.981759022,-0.097225044,0.049711075,-11.7201768,-3.590022136,-95.65567914,3,5.920000076,0.728576779,16.39,5.920000076,0,0,1,0,1,0
"661",1740497684,2.02502e+13,18.35036599,-64.69962664,0.1037,5.12232307,-0.935167416,-0.341639971,-0.01063747,-7.665573565,1.842682817,-110.0685482,3,5.927000046,0.924332857,16.45,5.927000046,0,0,1,0,1,0
"671",1740497685,2.02502e+13,18.3503622,-64.69963501,0.1337,5.12232307,-0.815738632,-0.498452849,0.065366352,17.52368986,-3.640877608,-121.4268427,3,5.907000065,1.12755096,16.51,5.907000065,0,0,1,0,1,0
"681",1740497686,2.02502e+13,18.35036367,-64.69964433,0.0947,5.12232307,-0.862475459,-0.629850692,-0.049323925,23.58082844,-2.099727047,-113.0025764,1,5.955999851,1.501845837,16.9,5.955999851,0,0,1,0,1,0
"691",1740497687,2.02502e+13,18.35036083,-64.6996525,0.0767,5.12232307,-0.802852187,-0.272375333,-0.127878452,11.40030953,-1.069272153,-124.8439566,1,6.022999763,1.285843492,16.59,6.022999763,0,0,1,0,1,0
"701",1740497688,2.02502e+13,18.35036,-64.699662,0.1517,5.12232307,-1.028226571,-0.127343479,0.091206382,11.50902398,7.126397386,-144.3761326,1,6.065999985,0.510469019,16.64,6.065999985,0,0,1,0,1,0
"711",1740497689,2.02502e+13,18.35035733,-64.69966767,0.0767,5.12232307,-0.572217314,-0.26768091,-0.066020826,1.689313639,-0.198057507,-153.4691071,1,6.092000008,1.165881157,16.51,6.092000008,0,0,1,0,1,0
"721",1740497690,2.02502e+13,18.3503505,-64.69967133,0.1647,5.12232307,-0.440245501,-0.895091321,0.089422211,18.35880544,3.07551917,-139.4894534,1,6.086999893,1.055404902,16.76,6.086999893,0,0,1,0,1,0
"731",1740497691,2.02502e+13,18.3503445,-64.699674,0.0857,5.12232307,-0.307728145,-0.610521452,-0.082124038,-9.463677003,-4.109239642,-104.767341,1,6.147999763,0.866571605,16.48,6.147999763,0,0,1,0,1,0
"741",1740497692,2.02502e+13,18.35034083,-64.699681,0.1297,5.12232307,-0.835535216,-0.393173028,0.045514476,-15.96582561,7.010098859,-85.2787555,1,6.212999821,0.825324893,16.48,6.212999821,0,0,1,0,1,0
"751",1740497693,2.02502e+13,18.350342,-64.6996905,0.1427,5.12232307,-0.985746166,0.077060595,0.064979883,-17.79532659,-0.909062218,-48.56758208,1,6.262000084,1.273076057,16.81,6.262000084,0,0,1,0,1,1
"761",1740497694,2.02502e+13,18.35034467,-64.69969783,0.1517,5.12232307,-0.740900268,0.346590103,-1.79e-05,-22.38766056,2.70538511,-20.79204098,1,6.263999939,0.554231644,16.78,6.263999939,0,0,1,0,1,1
"771",1740497695,2.02502e+13,18.35035307,-64.69970169,0.2747,5.12232307,-0.19598577,0.914105465,0.165000937,-24.25958385,-28.56103533,-12.10111523,3,6.320000172,2.485529661,16.81,6.320000172,0,0,1,0,1,1
"781",1740497696,2.02502e+13,18.35036073,-64.69970266,0.8107,5.12232307,-0.044309087,0.808498063,0.532675061,-12.92043271,-42.02318078,-3.136912212,3,6.369999886,2.485529661,16.37,6.369999886,0,0,1,0,1,1
"791",1740497697,2.02502e+13,18.35036771,-64.69970298,1.4607,5.12232307,-0.035144518,0.757286446,0.659489879,-5.890605695,-46.92931083,-2.657104912,3,6.380000114,2.485529661,16.51,6.380000114,0,0,1,0,1,1
"801",1740497698,2.02502e+13,18.3503745,-64.6997033,2.0717,5.12232307,-0.025338857,0.757108518,0.61755547,-0.047906644,-44.44038218,-1.916856534,3,6.352000237,2.485529661,16.53,6.352000237,0,0,1,0,1,1
"811",1740497699,2.02502e+13,18.35038133,-64.69970352,2.6127,5.12232307,-0.031909355,0.759426916,0.540272923,5.432469312,-43.26592048,-2.406021197,3,6.22300005,2.485529661,16.53,6.289000034,0,0,1,0,1,1
"821",1740497700,2.02502e+13,18.35038815,-64.69970437,3.1487,5.12232307,-0.163893421,0.768809012,0.50784524,7.893941022,-44.8462185,-12.03408469,3,5.400000095,2.485529661,16.51,6.289000034,0,0,1,0,1,1
"831",1740497701,2.02502e+13,18.35039059,-64.69970601,3.5477,1,-0.251221758,0.141886778,0.484081128,9.072301047,-41.98104191,-20.12314256,2,4.705999851,2.797851086,16.51,6.289000034,0,0,1,0,1,1
"841",1740497702,2.02502e+13,18.35039295,-64.69970793,4.1497,1,-0.289941799,0.285761794,0.571738068,9.282766571,-47.54861114,-22.67815331,2,4.09499979,1.599330306,16.51,6.289000034,0,0,1,0,1,1
"851",1740497703,2.02502e+13,18.35039958,-64.69971152,4.7477,1,-0.349547562,0.744845931,0.598297127,8.027122928,-46.17657932,-25.14013003,3,3.503000021,0.973074973,16.73,3.503000021,0,0,1,0,1,1
"861",1740497704,2.02502e+13,18.35039819,-64.699711,5.3147,1,0.367215962,-0.691037847,0.577294351,6.535812915,-37.54144469,-27.98608646,3,2.816999912,0.599509835,16.76,2.816999912,0,0,1,0,1,1
"871",1740497705,2.02502e+13,18.35040244,-64.69971411,5.3667,0.643005531,-0.562388245,0.813757673,0.029896056,-2.694472385,-6.813333419,-34.6483783,3,1.983999968,2.353623867,16.45,0.643005531,0,0,1,0,1,1
"881",1740497706,2.02502e+13,18.35040985,-64.69971935,5.4767,0.643005531,-0.536876358,0.831792994,0.114620686,2.518375317,-9.812985808,-32.84001677,3,1.817999959,2.216014147,16.53,0.643005531,0,0,1,0,1,1
"891",1740497707,2.02502e+13,18.3504106,-64.69971986,5.5427,0.643005531,0,0,0.120104972,2.407038071,-5.432493644,-32.07888754,3,1.503999949,2.703039646,16.76,0.643005531,0,0,1,0,1,1
"901",1740497708,2.02502e+13,18.3504106,-64.69971986,5.4637,0.643005531,0,0,-0.081949853,-1.652454083,-5.844347795,-32.16505724,3,1.297000051,2.47349453,16.78,0.643005531,0,0,1,0,1,1
"911",1740497709,2.02502e+13,18.35041191,-64.69972103,5.3447,0.783781198,-0.22681029,0.239924915,-0.144974806,-2.892192345,-7.354971456,-31.81030392,2,0.795000017,2.474410295,16.81,0.783781198,0,0,1,0,1,1
"921",1740497710,2.02502e+13,18.35041284,-64.69972219,5.3187,0.852571614,-0.111477085,0.100736934,-0.024127509,-0.596243978,-9.739182173,-36.00449236,2,0.769999981,2.466190577,16.51,0.852571614,0,0,1,0,1,1
"931",1740497711,2.02502e+13,18.35041328,-64.69971896,5.4547,0.891683618,-1.41e-14,0,0.144019516,-1.267260838,-7.862729608,-38.54864311,2,0.806999981,2.188364267,16.37,0.806999981,0,0,1,0,1,1
"941",1740497712,2.02502e+13,18.3504193,-64.69972439,5.4507,0.891683618,-0.640566978,0.735391714,-0.027524877,-1.21568318,-0.49746484,-41.05768668,3,0.824999988,2.616326094,16.67,0.824999988,0,0,1,0,1,1
"951",1740497713,2.02502e+13,18.35042431,-64.69972857,5.3407,0.821194622,0,0,-0.125814522,2.293701714,2.924066501,-39.44046123,2,0.839999974,2.592507601,16.59,0.839999974,0,0,1,0,1,1
"961",1740497714,2.02502e+13,18.35042854,-64.69973051,5.2047,0.872148121,-1.15e-14,0,-0.129201526,7.391545424,3.646547521,-36.22973159,2,0.860000014,2.592507601,16.53,0.860000014,0,0,1,0,1,1
"971",1740497715,2.02502e+13,18.35043592,-64.69973576,5.1297,0.872148121,-0.524467648,0.84520579,-0.075049864,12.82575686,2.088267479,-31.82046724,3,0.888999999,2.592507601,16.56,0.888999999,0,0,1,0,1,1
"981",1740497716,2.02502e+13,18.35044378,-64.69974031,5.1127,0.872148121,-0.447399437,0.894212332,-0.035628803,13.38908887,0.8224254,-26.58009152,3,0.924000025,2.592507601,16.67,0.924000025,0,0,1,0,1,1
"991",1740497717,2.02502e+13,18.35045165,-64.69974397,5.0507,1.157314931,-0.064843846,0.160529198,-0.070836309,14.49114285,-0.290855972,-21.09307075,2,0.967000008,2.592507601,16.51,0.967000008,0,0,1,0,1,1
"1001",1740497718,2.02502e+13,18.3504563,-64.69974601,5.0377,1.27888638,-0.315722054,0.93917581,-0.008330511,12.27743591,-0.691219233,-18.58106971,3,1.013000011,2.592507601,16.48,1.013000011,0,0,1,0,1,1
"1011",1740497719,2.02502e+13,18.35046338,-64.69974894,4.9977,1.204963777,-0.14574456,0.255088373,-0.043325287,9.064989327,-2.000715095,-17.02398409,2,1.059999943,2.592507601,16.37,1.059999943,0,0,1,0,1,1
"1021",1740497720,2.02502e+13,18.35046883,-64.69975027,5.0117,1.217392661,-0.28636816,0.94009858,0.022020267,6.17869592,-1.389791168,-16.94153002,3,1.100999951,2.592507601,16.56,1.100999951,0,0,1,0,1,1
"1031",1740497721,2.02502e+13,18.35047724,-64.69975313,5.0377,1.217392661,-0.319071951,0.931460826,0.037383361,3.619621625,-3.742407553,-18.90890524,3,1.074000001,2.592507601,16.53,1.074000001,0,0,1,0,1,1
"1041",1740497722,2.02502e+13,18.35048556,-64.69975645,5.0767,1.217392661,-0.378011786,0.917610919,0.03788094,2.05105254,-2.698621086,-22.389325,3,1.065000057,2.592507601,16.59,1.065000057,0,0,1,0,1,1
"1051",1740497723,2.02502e+13,18.35049005,-64.6997582,5.1477,1.001013274,-0.438243152,0.89660826,0.049813322,0.57492663,-1.37256329,-26.04841574,3,1.042999983,2.706411123,16.37,1.042999983,0,0,1,0,1,1
"1061",1740497724,2.02502e+13,18.35049529,-64.69976088,5.1347,1.001802692,-0.49015803,0.871584048,-0.019421877,1.164916287,-0.879735937,-29.35237067,3,1.024000049,2.706411123,16.45,1.024000049,0,0,1,0,1,1
"1071",1740497725,2.02502e+13,18.35050219,-64.69976531,5.0687,1.001802692,-0.535298118,0.842262037,-0.070584155,0.878472832,0.330752002,-32.43793705,3,1.008000016,2.826976776,16.42,1.008000016,0,0,1,0,1,1
"1081",1740497726,2.02502e+13,18.35050977,-64.69977038,4.9847,1.001802692,-0.536434414,0.839993951,-0.088463739,2.559226053,0.658634417,-32.56300469,3,1.008999944,2.826976776,16.53,1.008999944,0,0,1,0,1,1
"1091",1740497727,2.02502e+13,18.35051524,-64.69977562,4.9457,1.063802344,-0.520408538,0.849692265,-0.050772961,4.10738183,-1.069048251,-31.48610887,3,1.042000055,2.826976776,16.56,1.042000055,0,0,1,0,1,1
"1101",1740497728,2.02502e+13,18.35051873,-64.69977747,4.9677,1.066436793,0.4930078,-0.616678992,-0.004982568,3.997688099,-1.542722893,-31.35627376,2,1.05400002,2.923774481,16.42,1.05400002,0,0,1,0,1,1
"1111",1740497729,2.02502e+13,18.35051958,-64.69977876,4.9897,1.069690229,-0.233806252,0.224101671,-0.016216234,5.265860448,-0.379542542,-30.52741635,2,1.052999973,2.923774481,16.48,1.052999973,0,0,1,0,1,1
"1121",1740497730,2.02502e+13,18.35052439,-64.69978139,4.9977,1.104916947,-0.483402181,0.873668954,-0.007087553,5.665650346,-1.113637556,-28.95582341,3,1.065999985,2.923774481,16.48,1.065999985,0,0,1,0,1,1
"1131",1740497731,2.02502e+13,18.35053228,-64.69978589,4.9807,1.104916947,-0.473520069,0.879511413,-0.029043485,4.046965797,-0.834611102,-28.29758418,3,1.069000006,2.923774481,16.56,1.069000006,0,0,1,0,1,1
"1141",1740497732,2.02502e+13,18.35053768,-64.69978856,4.9587,1.053431515,-0.470360198,0.881382083,-0.01058441,3.130715656,-0.748969997,-28.08715964,3,1.062999964,2.923774481,16.28,1.062999964,0,0,1,0,1,1
"1151",1740497733,2.02502e+13,18.35054079,-64.69979008,4.9717,1.031187377,-0.031391506,-0.045358415,-0.002882053,3.221872247,-1.288552573,-27.69527739,2,1.044999957,2.923774481,16.59,1.044999957,0,0,1,0,1,1
"1161",1740497734,2.02502e+13,18.35054596,-64.69979191,4.9807,1.044811481,0.177873451,-0.129877084,0.012680665,2.711707946,0.020583183,-28.3287845,2,1.039000034,2.923774481,16.7,1.039000034,0,0,1,0,1,1
"1171",1740497735,2.02502e+13,18.35055028,-64.69979468,4.9587,1.069904992,0,0,-0.003020858,3.575788444,0.017485771,-27.44827034,2,1.029000044,2.923774481,16.31,1.029000044,0,0,1,0,1,1
"1181",1740497736,2.02502e+13,18.35055828,-64.69979902,4.9147,1.069904992,-0.456361837,0.88933746,-0.045700704,4.173012287,0.093712017,-27.16455101,3,1.024999976,2.923774481,16.45,1.024999976,0,0,1,0,1,1
"1191",1740497737,2.02502e+13,18.3505663,-64.69980329,4.8747,1.069904992,-0.44778195,0.89384301,-0.04292004,4.35288581,0.931115093,-26.60916764,3,1.029999971,2.923774481,16.64,1.029999971,0,0,1,0,1,1
"1201",1740497738,2.02502e+13,18.35057438,-64.69980589,4.7957,1.083434271,0.056600649,0.48785033,-0.047357719,5.283415748,-0.427472985,-24.66305481,2,1.054999948,2.923774481,16.48,1.054999948,0,0,1,0,1,1
"1211",1740497739,2.02502e+13,18.35058186,-64.69980864,4.7737,1.104219183,-0.275723204,0.929577188,0.039471315,4.234298316,-1.352011777,-25.22921622,2,1.07099998,2.923774481,16.76,1.07099998,0,0,1,0,1,1
"1221",1740497740,2.02502e+13,18.35058418,-64.69981325,4.7867,1.112407263,-0.460240049,-0.143467397,0.037124815,3.705399013,-1.128906236,-26.76148092,2,1.085000038,2.923774481,16.51,1.085000038,0,0,1,0,1,1
"1231",1740497741,2.02502e+13,18.35058525,-64.699814,4.8707,1.098378947,-0.465619281,0.883175505,0.087618091,2.258359101,-1.920896195,-27.79867283,3,1.097000003,2.923774481,16.73,1.097000003,0,0,1,0,1,1
"1241",1740497742,2.02502e+13,18.3505884,-64.69981512,4.8797,1.06031571,-0.089668063,0.137960634,-0.008506159,3.097156363,-1.263073504,-28.896551,2,1.105999947,2.976163149,16.76,1.105999947,0,0,1,0,1,1
"1251",1740497743,2.02502e+13,18.35059018,-64.69981569,4.8747,1.035845899,0.017845711,0.236282912,-0.007202847,1.770860791,-1.763640745,-31.27392897,2,1.095999956,2.811756372,16.62,1.095999956,0,0,1,0,1,1
"1261",1740497744,2.02502e+13,18.35059293,-64.69981672,4.8307,0.999058877,-0.530102103,0.83966985,-0.043435938,2.408713816,-1.418701554,-32.2651332,3,1.06400001,2.455164909,16.34,1.06400001,0,0,1,0,1,1
"1271",1740497745,2.02502e+13,18.35060047,-64.69982175,4.8137,0.999058877,-0.531323468,0.836517788,-0.01739745,3.738421282,0.204424994,-32.42213199,3,1.02699995,2.684654236,16.56,1.02699995,0,0,1,0,1,1
"1281",1740497746,2.02502e+13,18.35060799,-64.69982676,4.8487,0.999058877,-0.526502838,0.837345889,0.028420587,5.107321882,0.049259315,-32.16069958,3,1.014000058,2.684654236,16.62,1.014000058,0,0,1,0,1,1
"1291",1740497747,2.02502e+13,18.3506152,-64.69982854,4.8527,0.988323514,-0.500313306,0.860442819,-0.000118356,4.831804759,1.85916471,-30.17631035,3,1.00999999,2.684654236,16.76,1.00999999,0,0,1,0,1,1
"1301",1740497748,2.02502e+13,18.35061838,-64.69982911,4.8227,1.041943417,0.346536954,-0.156083976,-0.029999881,5.406938482,0.834681218,-27.75695402,2,1.014999986,2.684654236,16.78,1.014999986,0,0,1,0,1,1
"1311",1740497749,2.02502e+13,18.3506204,-64.69982963,4.7477,1.152734309,-1.1e-14,0,-0.080652074,6.11636231,1.112338646,-26.45197078,2,1.039999962,2.684654236,16.56,1.039999962,0,0,1,0,1,1
"1321",1740497750,2.02502e+13,18.3506206,-64.69983169,4.6557,1.200930678,-0.204114244,0.065404421,-0.061877103,5.160659275,0.353164315,-27.33128965,2,1.069000006,2.684654236,16.73,1.069000006,0,0,1,0,1,1
"1331",1740497751,2.02502e+13,18.35062773,-64.69983517,4.5407,1.176315762,-0.047805021,0.258903564,-0.113571581,4.670093142,-0.317744889,-29.10172996,2,1.093999982,2.684654236,16.53,1.093999982,0,0,1,0,1,1
"1341",1740497752,2.02502e+13,18.35063029,-64.69983497,4.5847,1.103949697,0.220944522,0.264258146,0.055099299,5.723043592,-1.771208384,-30.44380114,2,1.111999989,2.684654236,16.51,1.111999989,0,0,1,0,1,1
"1351",1740497753,2.02502e+13,18.35063234,-64.69983579,4.6467,1.0796266,-0.52219812,0.84740453,0.06741364,6.520833451,-2.964535386,-31.64273199,3,1.111999989,2.406128168,16.25,1.111999989,0,0,1,0,1,1
"1361",1740497754,2.02502e+13,18.35063748,-64.69983881,4.7917,1.07497924,0.212885548,0.099457492,0.140399932,4.637500748,-1.783739544,-34.14410526,2,1.10800004,2.81596899,16.37,1.10800004,0,0,1,0,1,1
"1371",1740497755,2.02502e+13,18.35063831,-64.69983892,4.8487,1.042503537,-0.364169867,0.284150359,0.051300829,3.784548981,-0.243214692,-35.29213752,2,1.092000008,2.81596899,16.59,1.092000008,0,0,1,0,1,1
"1381",1740497756,2.02502e+13,18.3506425,-64.69984021,4.8177,1.026587479,-0.580402341,0.80239259,-0.028860159,3.319488918,-1.102643616,-35.87971842,3,1.080000043,2.81596899,16.51,1.080000043,0,0,1,0,1,1
"1391",1740497757,2.02502e+13,18.35064618,-64.69984303,4.8267,1.026587479,-0.016314137,0.0219976,0.000116969,3.467165345,0.174829773,-36.56184965,3,1.07099998,2.81596899,16.62,1.07099998,0,0,1,0,1,1
"1401",1740497758,2.02502e+13,18.35064692,-64.69984347,4.7077,1.026587479,-0.081623118,0.186536233,-0.095450376,3.374718702,-0.402372698,-23.63287067,3,1.06099999,2.907585144,16.78,1.06099999,0,0,1,0,1,1
"1411",1740497759,2.02502e+13,18.35064877,-64.69984397,4.6467,0.97040247,-0.015207204,0.131635488,-0.072414462,5.65726842,1.093091272,10.71093785,2,1.055999994,2.719895363,16.7,1.055999994,0,0,1,0,1,1
"1421",1740497760,2.02502e+13,18.35064995,-64.69984391,4.6377,1.024953285,0.003616113,0.200672018,0.001070401,4.099194565,-0.744145427,49.62339153,2,1.065000057,2.719895363,16.42,1.065000057,0,0,1,0,1,1
"1431",1740497761,2.02502e+13,18.35065284,-64.69984009,4.7127,1.066854226,0.287894258,0.260379794,0.07031682,1.492976793,-4.320703655,57.56245622,2,1.07099998,2.839524508,16.42,1.07099998,0,0,1,0,1,1
"1441",1740497762,2.02502e+13,18.35065464,-64.69983696,4.7647,1.075484642,0.273704867,0.815030476,0.05183658,4.507507688,-1.755945574,51.27699971,2,1.065000057,3.264621496,16.64,1.065000057,0,0,1,0,1,1
"1451",1740497763,2.02502e+13,18.35065934,-64.69983126,4.7257,1.075484642,0.743331776,0.662182077,-0.058512859,4.315351773,0.372195364,48.30441665,3,1.047999978,2.927385807,16.42,1.047999978,0,0,1,0,1,1
"1461",1740497764,2.02502e+13,18.35066536,-64.6998243,4.6637,1.075484642,0.731182604,0.671488576,-0.076871588,4.943970165,1.335159987,47.43690547,3,1.029999971,3.013231754,16.48,1.029999971,0,0,1,0,1,1
"1471",1740497765,2.02502e+13,18.35067144,-64.69981742,4.6117,1.075484642,0.722906631,0.676968223,-0.071793784,4.80712685,1.274269789,46.87956525,3,1.008999944,3.013231754,16.37,1.008999944,0,0,1,0,1,1
"1481",1740497766,2.02502e+13,18.35067751,-64.69981056,4.5987,1.075484642,0.724048537,0.67431332,-0.027828574,5.479502011,2.12792037,47.03698409,3,0.971000016,3.013231754,16.51,0.971000016,0,0,1,0,1,1
"1491",1740497767,2.02502e+13,18.35068347,-64.69980359,4.5587,1.075484642,0.749876621,0.650722324,-0.036524039,5.044765011,1.816939825,49.04947102,3,0.948000014,3.013231754,16.53,0.948000014,0,0,1,0,1,1
"1501",1740497768,2.02502e+13,18.3506892,-64.69979635,4.5407,1.075484642,0.770120381,0.6306859,0.0186603,5.207015359,2.787771095,50.68444302,3,0.933000028,3.013231754,16.62,0.933000028,0,0,1,0,1,1
"1511",1740497769,2.02502e+13,18.35069481,-64.69978899,4.5147,1.075484642,0.785748705,0.613951049,-0.040113523,3.598683246,2.247374658,51.9974432,3,0.941999972,3.013231754,16.53,0.941999972,0,0,1,0,1,1
"1521",1740497770,2.02502e+13,18.35070025,-64.69978147,4.4177,1.075484642,0.799347994,0.598920784,-0.100569209,3.804991745,1.416050906,53.15720632,3,0.961000025,3.013231754,16.48,0.961000025,0,0,1,0,1,1
"1531",1740497771,2.02502e+13,18.35070566,-64.69977391,4.3477,1.075484642,0.79652066,0.602502402,-0.069465575,4.35168455,1.318995271,52.89550923,3,0.989000022,3.013231754,16.48,0.989000022,0,0,1,0,1,1
"1541",1740497772,2.02502e+13,18.35071009,-64.69976908,4.3127,1.008913646,0.800914967,0.596960009,-0.042978354,3.845061918,-0.602366338,53.30110479,3,1.026000023,3.013231754,16.7,1.026000023,0,0,1,0,1,1
"1551",1740497773,2.02502e+13,18.35071548,-64.69976151,4.2777,1.008913646,0.792635287,0.607253811,-0.005308481,3.661529546,-0.780039472,52.54356824,3,1.049000025,3.013231754,16.67,1.049000025,0,0,1,0,1,1
"1561",1740497774,2.02502e+13,18.35072106,-64.69975412,4.2427,1.008913646,0.769448177,0.632325692,-0.043522265,3.031259955,-1.684740933,50.58695569,3,1.06099999,3.013231754,16.59,1.06099999,0,0,1,0,1,1
"1571",1740497775,2.02502e+13,18.35072686,-64.69974695,4.2947,1.008913646,0.74705184,0.652906055,0.039573478,2.993824529,-0.957012298,48.84730931,3,1.055999994,3.013231754,16.51,1.055999994,0,0,1,0,1,1
"1581",1740497776,2.02502e+13,18.35073274,-64.69973989,4.3347,1.008913646,0.745825687,0.652809703,0.046657555,4.328892201,-0.086580656,48.80485966,3,1.041000009,3.013231754,16.51,1.041000009,0,0,1,0,1,1
"1591",1740497777,2.02502e+13,18.35073854,-64.69973274,4.3037,1.008913646,0.759970813,0.639559539,-0.015392696,5.051028296,-1.057141306,49.91746031,3,1.023000002,3.013231754,16.59,1.023000002,0,0,1,0,1,1
"1601",1740497778,2.02502e+13,18.35074429,-64.69972554,4.3387,1.008913646,0.76074458,0.638370308,0.051254035,4.583937105,-0.759318218,49.99870032,3,0.998000026,3.013231754,16.45,0.998000026,0,0,1,0,1,1
"1611",1740497779,2.02502e+13,18.35075007,-64.69971839,4.2907,1.008913646,0.747259181,0.650022378,-0.047974475,3.415065497,0.745580942,48.98081223,3,0.966000021,3.013231754,16.59,0.966000021,0,0,1,0,1,1
"1621",1740497780,2.02502e+13,18.35075591,-64.6997113,4.2507,1.008913646,0.744084359,0.652368443,-0.039496327,2.425224951,0.623957,48.75768012,3,0.954999983,3.013231754,16.59,0.954999983,0,0,1,0,1,1
"1631",1740497781,2.02502e+13,18.35076184,-64.69970434,4.1677,1.008913646,0.728840428,0.66322181,-0.089387851,1.437243924,1.981574123,47.69881088,3,0.943000019,2.824518442,16.23,0.943000019,0,0,1,0,1,1
"1641",1740497782,2.02502e+13,18.35076774,-64.69969738,4.0927,1.008913646,0.744433526,0.64775825,-0.127051562,2.062454051,2.301529967,48.97232059,3,0.938000023,2.860055923,16.48,0.938000023,0,0,1,0,1,1
"1651",1740497783,2.02502e+13,18.35077348,-64.69969022,4.0137,1.008913646,0.758438609,0.635908706,-0.115266763,4.243392289,1.829280914,50.02205104,3,0.939999998,2.860055923,16.23,0.939999998,0,0,1,0,1,1
"1661",1740497784,2.02502e+13,18.35077918,-64.699683,3.9347,1.008913646,0.766039269,0.628538345,-0.083051563,5.270288119,0.86269717,50.63100018,3,0.950999975,2.860055923,16.39,0.950999975,0,0,1,0,1,1
"1671",1740497785,2.02502e+13,18.35078481,-64.69967572,3.9657,1.008913646,0.767661832,0.62708655,0.002045705,3.913463298,0.119272728,50.75536602,3,0.967999995,2.674620867,16.51,0.967999995,0,0,1,0,1,1
"1681",1740497786,2.02502e+13,18.35079046,-64.69966846,3.9387,1.008913646,0.769426368,0.624746896,-0.028466554,3.749639445,1.013402573,50.92464549,3,0.978999972,2.674620867,16.56,0.978999972,0,0,1,0,1,1
"1691",1740497787,2.02502e+13,18.35079599,-64.69966108,3.9347,1.008913646,0.784631954,0.610253431,-0.004976981,4.208898541,0.173231669,52.12575688,3,0.991999984,2.674620867,16.48,0.991999984,0,0,1,0,1,1
"1701",1740497788,2.02502e+13,18.35080143,-64.6996536,3.8737,1.008913646,0.79674823,0.597007176,-0.060638343,5.104778489,-0.065013366,53.15562683,3,0.996999979,2.666447401,16.31,0.996999979,0,0,1,0,1,1
"1711",1740497789,2.02502e+13,18.35080666,-64.69964592,3.9037,1.008913646,0.815808978,0.575328353,0.035513672,4.991431459,0.415803256,54.80759747,3,0.991999984,2.8567729,16.45,0.991999984,0,0,1,0,1,1
"1721",1740497790,2.02502e+13,18.35081185,-64.6996382,3.8557,1.008913646,0.810968453,0.582243638,-0.053006954,4.996011957,0.14469198,54.32315076,3,0.98299998,2.8567729,16.34,0.98299998,0,0,1,0,1,1
"1731",1740497791,2.02502e+13,18.35081715,-64.69963057,3.8077,1.008913646,0.801126638,0.5941351,-0.071122076,3.30163992,1.172030038,53.43848385,3,0.966000021,2.8567729,16.51,0.966000021,0,0,1,0,1,1
"1741",1740497792,2.02502e+13,18.35082247,-64.69962296,3.7367,1.008913646,0.803523819,0.59182144,-0.026858207,3.271111525,0.497029308,53.62716448,3,0.948000014,2.854684114,16.59,0.948000014,0,0,1,0,1,1
"1751",1740497793,2.02502e+13,18.35082777,-64.69961533,3.6707,1.008913646,0.80736481,0.587222456,-0.070281539,2.516821449,0.879547573,53.97041576,3,0.936999977,2.854684114,16.67,0.936999977,0,0,1,0,1,1
"1761",1740497794,2.02502e+13,18.350833,-64.69960763,3.6537,1.008913646,0.816324398,0.576206864,-0.025505043,3.124702526,1.011198983,54.78346299,3,0.927999973,2.854684114,16.56,0.927999973,0,0,1,0,1,1
"1771",1740497795,2.02502e+13,18.35083818,-64.6995999,3.6007,1.008913646,0.8174844,0.574909666,-0.054743075,5.0466177,1.164622055,54.88257077,3,0.924000025,2.854684114,16.56,0.924000025,0,0,1,0,1,1
"1781",1740497796,2.02502e+13,18.3508433,-64.69959211,3.5477,1.008913646,0.829473727,0.558411266,-0.052399364,3.963319428,0.878009179,56.05112606,3,0.916000009,2.854684114,16.62,0.916000009,0,0,1,0,1,1
"1791",1740497797,2.02502e+13,18.35084824,-64.6995842,3.5127,1.008913646,0.840067918,0.541886793,-0.037059361,4.409004372,0.924751275,57.17593397,3,0.922999978,2.876301765,16.48,0.922999978,0,0,1,0,1,1
"1801",1740497798,2.02502e+13,18.35084978,-64.69958225,3.4337,0.944899025,0,0,-0.089945236,5.055741555,1.268112798,57.23644263,2,0.927999973,2.876301765,16.37,0.927999973,0,0,1,0,1,1
"1811",1740497799,2.02502e+13,18.35085474,-64.69957435,3.2937,0.944899025,0.828305856,0.560066318,-0.143507421,4.486128761,0.598581451,55.9350811,3,0.931999981,2.876301765,16.95,0.931999981,0,0,1,0,1,1
"1821",1740497800,2.02502e+13,18.35085982,-64.69956653,3.1967,0.944899025,0.826898479,0.562048233,-0.086706514,3.44210153,0.934561778,55.79582033,3,0.930000007,2.876301765,16.48,0.930000007,0,0,1,0,1,1
"1831",1740497801,2.02502e+13,18.35086484,-64.69955867,3.2097,0.944899025,0.827790162,0.560400524,0.012760873,3.887841542,-0.047115916,55.90265648,3,0.925000012,2.876301765,16.53,0.925000012,0,0,1,0,1,1
"1841",1740497802,2.02502e+13,18.35086995,-64.69955088,3.1787,0.944899025,0.821781892,0.569394425,-0.040745155,3.787755756,0.934414182,55.28279097,3,0.930000007,2.876301765,16.56,0.930000007,0,0,1,0,1,1
"1851",1740497803,2.02502e+13,18.35087509,-64.6995431,3.0997,0.944899025,0.817374995,0.575727575,-0.088653409,3.229830701,0.910462941,54.84062315,3,0.92900002,2.876301765,16.39,0.92900002,0,0,1,0,1,1
"1861",1740497804,2.02502e+13,18.35088027,-64.69953536,3.0117,0.944899025,0.817285422,0.575561616,-0.109553216,4.078679657,1.067533549,54.84544356,3,0.940999985,2.876301765,16.34,0.940999985,0,0,1,0,1,1
"1871",1740497805,2.02502e+13,18.35088545,-64.69952762,2.8807,0.944899025,0.820859795,0.570087396,-0.136807566,4.768026564,0.170039568,55.22002834,3,0.92900002,2.876301765,16.56,0.92900002,0,0,1,0,1,1
"1881",1740497806,2.02502e+13,18.35089052,-64.69951981,2.8317,0.944899025,0.822829867,0.566260392,-0.052073611,5.009793576,1.24896649,55.4647968,3,0.917999983,2.838937283,16.48,0.917999983,0,0,1,0,1,1
"1891",1740497807,2.02502e+13,18.35089557,-64.69951199,2.7747,0.944899025,0.829465034,0.554682584,-0.05530685,5.807793463,0.949021827,56.22845149,3,0.912999988,2.586902142,16.64,0.912999988,0,0,1,0,1,1
"1901",1740497808,2.02502e+13,18.35090046,-64.69950407,2.7577,0.944899025,0.840629155,0.532808225,-0.01381419,7.465442975,1.087008987,57.63264839,3,0.907000005,2.382629633,16.48,0.907000005,0,0,1,0,1,1
"1911",1740497809,2.02502e+13,18.35090439,-64.69949724,2.7357,0.944899025,0.429000205,0.244868083,-0.026295824,9.504160402,2.394973819,60.28282421,3,0.899999976,2.596312284,16.59,0.899999976,0,0,1,0,1,1
"1921",1740497810,2.02502e+13,18.35090647,-64.69949313,2.6557,0.944899025,0.435849173,0.219284425,-0.101819747,5.95000531,4.83000543,63.29214089,3,0.887000024,2.466533422,16.7,0.887000024,0,0,1,0,1,1
"1931",1740497811,2.02502e+13,18.35090837,-64.699489,2.4457,0.944899025,0.436038207,0.210843361,-0.22839493,5.372681229,3.233048788,64.19424442,3,0.893999994,2.664388657,16.7,0.893999994,0,0,1,0,1,1
"1941",1740497812,2.02502e+13,18.35091077,-64.69948408,2.1857,0.944899025,0.857923182,0.466616936,-0.241068252,2.865606037,-3.255605496,61.45863828,3,0.902999997,2.621238232,16.73,0.902999997,0,0,1,0,1,1
"1951",1740497813,2.02502e+13,18.35091331,-64.69947845,2.1377,0.928645392,0.347394397,0.019181408,-0.065852949,1.732876815,-6.359534207,55.5154717,2,0.897000015,2.498345613,16.7,0.897000015,0,0,1,0,1,1
"1961",1740497814,2.02502e+13,18.35091527,-64.69947626,2.2167,0.912206156,1.35e-14,0,0.066329611,1.652327938,-2.44492429,50.41117901,2,0.888999999,2.38259244,16.34,0.888999999,0,0,1,0,1,1
"1971",1740497815,2.02502e+13,18.35092058,-64.69946983,2.2167,0.912206156,0.748282314,0.662861345,0.005654696,3.084033857,2.474102869,48.46408433,3,0.913999975,2.559556246,16.73,0.913999975,0,0,1,0,1,1
"1981",1740497816,2.02502e+13,18.35092666,-64.69946286,2.0807,0.912206156,0.727476107,0.682507292,-0.144939612,6.419207457,4.833067917,46.82674055,3,0.941999972,2.880422592,16.37,0.941999972,0,0,1,0,1,1
"1991",1740497817,2.02502e+13,18.35093243,-64.69945913,1.8917,1.107527924,-0.090539044,0.52369534,-0.212711826,9.622657396,2.549825575,46.92047127,2,0.952000022,2.880422592,16.76,0.952000022,0,0,1,0,1,1
"2001",1740497818,2.02502e+13,18.35093783,-64.69945279,1.8297,1.107527924,0.754629833,0.654871002,-0.045058799,10.52515879,0.829177044,49.04843284,3,0.958000004,2.165776491,16.53,0.958000004,0,0,1,0,1,1
"2011",1740497819,2.02502e+13,18.35094346,-64.69944541,1.7687,1.107527924,0.798117857,0.601543861,-0.05383991,13.21476786,1.893128265,52.99457433,3,0.953000009,0.949807107,16.64,0.953000009,0,0,1,0,1,1
"2021",1740497820,2.02502e+13,18.35094782,-64.69943882,1.6327,1.107527924,0.827870052,0.551187784,-0.117740716,13.2676916,3.39288509,56.34473209,3,0.947000027,1.518808365,16.53,0.947000027,0,0,1,0,1,1
"2031",1740497821,2.02502e+13,18.35094946,-64.69943603,1.4967,1.107527924,0.429271178,0.242349066,-0.112404153,5.043946241,1.626240021,60.55271411,3,0.855000019,2.235935211,16.7,0.855000019,0,0,1,0,1,1
"2041",1740497822,2.02502e+13,18.35095142,-64.69943192,1.3557,1.107527924,0.430670715,0.220971013,-0.154442102,2.915711042,-0.139317179,62.83830881,3,0.759000003,2.177120924,16.73,0.759000003,0,0,1,0,1,1
"2051",1740497823,2.02502e+13,18.35095364,-64.69942793,1.2637,1.107527924,0.414079821,0.265538475,-0.096874307,-0.726267134,-0.843517992,57.32903783,3,0.694000006,2.240284443,16.67,0.694000006,0,0,1,0,1,1
"2061",1740497824,2.02502e+13,18.35095615,-64.69942407,1.1887,1.107527924,0.401579569,0.288702837,-0.08520311,0.969451357,-2.177219839,54.28697636,3,0.63499999,2.360186577,16.64,0.63499999,0,0,1,0,1,1
"2071",1740497825,2.02502e+13,18.3509599,-64.69941972,1.0477,0.96767491,0.741914278,0.667195158,-0.109674055,-1.419521711,-3.535834384,48.03532759,3,0.685000002,2.482823849,16.48,0.96767491,0,0,1,0,1,1
"2081",1740497826,2.02502e+13,18.35096108,-64.69942081,0.9997,1.046072446,0,0,-0.047695965,-0.777879904,-4.27165733,57.45340879,3,0.74000001,2.10431838,16.78,1.046072446,0,0,1,0,1,1
"2091",1740497827,2.02502e+13,18.35096159,-64.69942093,0.9647,1.006428878,-0.023566028,0.104000724,-0.037630164,-7.438936709,4.337096115,117.8410931,2,0.822000027,1.361397862,16.56,1.006428878,0,0,1,0,1,1
"2101",1740497828,2.02502e+13,18.35096186,-64.69942021,0.8857,1.113465883,0.029384834,-0.070318155,-0.07727715,7.940733811,4.974668889,-177.9996785,2,0.888999999,1.732094169,16.67,1.113465883,0,0,1,0,1,1
"2111",1740497829,2.02502e+13,18.35096103,-64.69942137,0.8287,1.104347456,-0.086528932,-0.026158771,-0.065227767,10.65191861,-6.343699262,-126.8285318,2,0.950999975,2.326469421,16.73,1.104347456,0,0,1,0,1,1
"2121",1740497830,2.02502e+13,18.35096018,-64.69942472,0.8987,1.162364119,-0.436147802,-0.12622787,0.072742451,4.903064148,-5.657053696,-118.4574217,2,1.023000002,2.232008457,16.42,1.023000002,0,0,1,0,1,1
"2131",1740497831,2.02502e+13,18.35095809,-64.69942728,0.8897,1.088759212,-0.744409712,-0.622305426,-0.009160601,2.437345126,-0.426946446,-129.8947141,3,1.065000057,2.124903679,16.45,1.065000057,0,0,1,0,1,1
"2141",1740497832,2.02502e+13,18.35095488,-64.69943114,0.8287,1.130538036,0,1.92e-14,-0.069792137,-1.719098184,4.205155169,-136.3011197,2,1.090999961,1.162432075,16.37,1.090999961,0,0,1,0,1,1
"2151",1740497833,2.02502e+13,18.35095295,-64.69943317,0.7627,1.224068602,-0.292239248,-0.336348194,-0.069358797,1.306930911,-1.755963289,-140.3519561,2,1.110999942,2.415207863,16.53,1.110999942,0,0,1,0,1,1
"2161",1740497834,2.02502e+13,18.35094997,-64.69943818,0.7227,1.194359924,-0.572558332,-0.819780816,-0.049001539,1.294316401,-0.132811849,-145.0685039,3,1.215000033,1.827742934,16.23,1.215000033,0,0,1,0,1,1
"2171",1740497835,2.02502e+13,18.35094238,-64.69944323,0.6917,1.194359924,-0.504063596,-0.858568164,-0.031245852,0.906773677,-2.047297642,-149.5829464,3,1.355000019,2.508609056,16.62,1.355000019,0,0,1,0,1,1
"2181",1740497836,2.02502e+13,18.35093454,-64.69944765,0.7407,1.194359924,-0.449935372,-0.873753848,0.069518163,0.708134683,-6.259912874,-152.7540677,3,1.467000008,2.321249962,16.42,1.467000008,0,0,1,0,1,1
"2191",1740497837,2.02502e+13,18.35092755,-64.69945147,1.0127,1.965534697,-0.155193639,-0.494974347,0.272843976,2.242041559,-9.659069148,-154.6716987,2,1.575999975,2.56309247,16.28,1.575999975,0,0,1,0,1,1
"2201",1740497838,2.02502e+13,18.35092622,-64.69945265,1.3027,1.787166393,-0.234858768,-0.658471454,0.272545981,2.320581506,-10.93241835,-156.8871533,2,1.73300004,2.56309247,16.48,1.73300004,0,0,1,0,1,1
"2211",1740497839,2.02502e+13,18.35092418,-64.69945348,1.5317,1.647790674,-0.33202768,-0.879852166,0.234619672,0.783577244,-13.95785941,-159.3251765,3,1.717000008,2.56309247,16.14,1.717000008,0,0,1,0,1,1
"2221",1740497840,2.02502e+13,18.35091633,-64.69945643,1.8347,1.647790674,-0.298251094,-0.872626301,0.319397962,-2.276428586,-10.55344005,-161.1303688,3,1.639999986,2.853307247,16.53,1.639999986,0,0,1,0,1,1
"2231",1740497841,2.02502e+13,18.35091036,-64.69945865,2.0057,1.251460762,0,0,0.183694992,-1.68754462,-8.005571112,-160.4513522,2,1.626000047,2.48902154,16.48,1.626000047,0,0,1,0,1,1
"2241",1740497842,2.02502e+13,18.350909,-64.69945872,2.1687,1.186722685,0.082741156,-0.077768727,0.142957169,0.920269495,-7.70335477,-156.9422319,2,1.524000049,2.609949589,16.64,1.524000049,0,0,1,0,1,1
"2251",1740497843,2.02502e+13,18.3509028,-64.69946156,2.3487,1.186722685,-0.367927438,-0.861336754,0.163515646,1.746707739,-4.573988504,-156.8698865,3,1.36500001,3.05648756,16.34,1.36500001,0,0,1,0,1,1
"2261",1740497844,2.02502e+13,18.3508951,-64.69946488,2.3267,1.186722685,-0.349334735,-0.851448591,0.01328592,2.569125135,-0.492378588,-157.6925558,3,1.276000023,3.05648756,16.48,1.276000023,0,0,1,0,1,1
"2271",1740497845,2.02502e+13,18.35088949,-64.69946734,2.3087,1.071304683,0,0,-0.033919608,3.764285083,1.681689865,-154.7227885,2,1.228999972,3.05648756,16.67,1.228999972,0,0,1,0,1,1
"2281",1740497846,2.02502e+13,18.35088271,-64.69947085,2.2127,1.071304683,-0.419646954,-0.834202833,-0.076092995,1.324591866,2.434075385,-153.2953058,3,1.215000033,3.05648756,16.56,1.215000033,0,0,1,0,1,1
"2291",1740497847,2.02502e+13,18.35088118,-64.6994713,2.1817,1.220895061,-0.445554252,-0.827759382,-0.032433196,1.765902712,3.590300039,-151.7080102,3,1.238999963,3.05648756,16.37,1.238999963,0,0,1,0,1,1
"2301",1740497848,2.02502e+13,18.35087908,-64.6994756,2.1287,1.41931781,-0.464100128,-0.831956647,-0.031649899,3.641922201,3.016684113,-150.8454526,3,1.304999948,3.05648756,16.42,1.304999948,0,0,1,0,1,1
"2311",1740497849,2.02502e+13,18.35087584,-64.69947777,2.0977,1.556813579,-0.454980085,-0.832676664,-0.013589732,2.43106263,-1.297437906,-151.3475673,3,1.416000009,3.05648756,16.59,1.416000009,0,0,1,0,1,1
"2321",1740497850,2.02502e+13,18.35087128,-64.69948124,2.1377,1.687387093,-0.280613993,-0.427546445,0.015318854,-0.441186649,-2.535847801,-152.6006889,2,1.506999969,3.05648756,16.62,1.506999969,0,0,1,0,1,1
"2331",1740497851,2.02502e+13,18.3508673,-64.69948165,2.2127,1.674361797,0.372520749,-0.319165546,0.059075994,-2.502503873,-6.903666545,-152.4649594,2,1.577999949,2.695735931,16.23,1.577999949,0,0,1,0,1,1
"2341",1740497852,2.02502e+13,18.35086146,-64.69948517,2.4187,1.674361797,-0.481935734,-0.806671532,0.204700285,-2.24110561,-8.425749132,-149.1443798,3,1.625,2.71391201,16.62,1.625,0,0,1,0,1,1
"2351",1740497853,2.02502e+13,18.35086032,-64.69948414,2.6737,1.442446716,-0.002475853,0.057364414,0.285395557,-0.0101145,-8.711066727,-147.9890255,2,1.626999974,2.71391201,16.84,1.626999974,0,0,1,0,1,1
"2361",1740497854,2.02502e+13,18.35085845,-64.69948415,2.8187,1.407730071,0.081522346,-0.39337259,0.169029838,-1.014188152,-5.959468967,-148.7251972,2,1.593999982,2.71391201,16.59,1.593999982,0,0,1,0,1,1
"2371",1740497855,2.02502e+13,18.35085448,-64.69948529,2.9377,1.273809985,0.441368108,0.111584393,0.100678357,0.847656288,-3.055423252,-148.2379314,2,1.529000044,2.71391201,16.51,1.529000044,0,0,1,0,1,1
"2381",1740497856,2.02502e+13,18.3508495,-64.69948866,2.9507,1.273809985,-0.510118296,-0.7883323,0.011313697,3.497165681,-2.516245578,-147.0937377,3,1.470000029,2.71391201,16.17,1.470000029,0,0,1,0,1,1
"2391",1740497857,2.02502e+13,18.35084733,-64.69949457,2.9947,1.25350405,-0.111444635,-0.187808124,0.030610338,2.386432237,-0.481714845,-148.2984878,2,1.409000039,2.71391201,16.53,1.409000039,0,0,1,0,1,1
"2401",1740497858,2.02502e+13,18.35084346,-64.69949722,3.0167,1.246505037,-0.500818742,-0.79802398,0.009287479,2.854897791,3.21020009,-147.8887583,3,1.368000031,2.71391201,16.39,1.368000031,0,0,1,0,1,1
"2411",1740497859,2.02502e+13,18.35083836,-64.69950047,2.9417,1.446580069,-0.503604678,-0.725805659,-0.074766731,3.573791039,2.65672469,-146.4289551,2,1.371000051,2.71391201,16.51,1.371000051,0,0,1,0,1,1
"2421",1740497860,2.02502e+13,18.35083473,-64.69950377,2.9637,1.508123997,-2.8e-14,0,0.034058049,2.628489532,3.099574891,-147.4573088,2,1.391000032,2.71391201,16.31,1.391000032,0,0,1,0,1,1
"2431",1740497861,2.02502e+13,18.35083253,-64.69950708,2.9597,1.549378622,-0.92365319,-0.345912615,0.021964192,1.864730462,2.175309947,-148.010404,2,1.458999991,2.71391201,16.76,1.458999991,0,0,1,0,1,1
"2441",1740497862,2.02502e+13,18.3508278,-64.69950924,2.9417,1.638008825,-0.215358672,-0.303373761,-0.02733969,1.439046241,-1.427888802,-149.0662287,2,1.514000058,2.71391201,16.23,1.514000058,0,0,1,0,1,1
"2451",1740497863,2.02502e+13,18.35082748,-64.69951497,2.9947,1.534835602,-0.317634973,-0.013815509,0.052709963,-1.776393033,-0.676120881,-150.0345313,2,1.55400002,2.71391201,16.45,1.55400002,0,0,1,0,1,1
"2461",1740497864,2.02502e+13,18.3508273,-64.69951762,3.0517,1.534778983,-0.476461743,-0.820723934,0.052897806,-2.541172789,-2.108122633,-149.8632438,3,1.590000033,2.71391201,16.39,1.590000033,0,0,1,0,1,1
"2471",1740497865,2.02502e+13,18.35082163,-64.69952076,3.1747,1.541083,-0.331564634,-0.582384169,0.092412451,-1.876465372,-4.803469709,-148.1000161,2,1.603000045,2.71391201,16.39,1.603000045,0,0,1,0,1,1
"2481",1740497866,2.02502e+13,18.3508217,-64.69951994,3.3327,1.45727988,-0.074453338,-0.234963217,0.125711668,0.170433718,-3.088858107,-147.0199716,2,1.590000033,2.71391201,16.42,1.590000033,0,0,1,0,1,1
"2491",1740497867,2.02502e+13,18.35081982,-64.69952024,3.4337,1.371520313,0.123026377,0.045213016,0.134011999,0.542238293,-3.082524812,-148.1239491,2,1.552000046,2.71391201,16.34,1.552000046,0,0,1,0,1,1
"2501",1740497868,2.02502e+13,18.350821,-64.6995212,3.4297,1.336714499,-0.26958136,0.026929739,0.000286048,-0.489204257,-1.60504583,-149.0368316,2,1.498000026,2.71391201,16.45,1.498000026,0,0,1,0,1,1
"2511",1740497869,2.02502e+13,18.35081722,-64.69952295,3.4557,1.29054821,-0.490249828,-0.809113435,0.023627994,-0.996975322,2.468494855,-148.7879667,3,1.463999987,2.71391201,16.12,1.463999987,0,0,1,0,1,1
"2521",1740497870,2.02502e+13,18.35081378,-64.69952739,3.5217,1.296219701,-0.501701852,-0.809507339,0.069053329,-0.163254333,3.665222972,-148.2109931,3,1.425999999,2.71391201,16.51,1.425999999,0,0,1,0,1,1
"2531",1740497871,2.02502e+13,18.35080964,-64.69952901,3.5347,1.427304755,-0.333943418,-0.707798412,0.00392401,-1.364051057,2.437410866,-148.8231695,2,1.425999999,2.71391201,16.39,1.425999999,0,0,1,0,1,1
"2541",1740497872,2.02502e+13,18.35080797,-64.69952991,3.4687,1.51497178,-0.470608334,-0.586742237,-0.06880319,-1.842777373,0.205950154,-149.3354749,2,1.447999954,2.71391201,16.56,1.447999954,0,0,1,0,1,1
"2551",1740497873,2.02502e+13,18.35080609,-64.69953146,3.4167,1.528017431,-0.22722167,-0.250256221,-0.051436371,-2.026035469,1.472588458,-150.0963582,2,1.475000024,2.71391201,16.17,1.475000024,0,0,1,0,1,1
"2561",1740497874,2.02502e+13,18.35079882,-64.69953584,3.4117,1.528017431,-0.457306755,-0.806461693,-0.005395019,-2.234749263,0.622248172,-150.4445067,3,1.513000011,2.71391201,16.31,1.513000011,0,0,1,0,1,1
"2571",1740497875,2.02502e+13,18.35079446,-64.69954164,3.5087,1.593378692,-0.211261163,-0.495883991,0.104497952,-0.43425195,-0.884329134,-149.7184027,2,1.557999969,2.71391201,16.62,1.557999969,0,0,1,0,1,1
"2581",1740497876,2.02502e+13,18.35078847,-64.69954483,3.6407,1.540257659,-0.486721185,-0.80022715,0.120512237,-0.867103818,-2.169329474,-148.6908824,3,1.595999956,2.71391201,16.59,1.595999956,0,0,1,0,1,1
"2591",1740497877,2.02502e+13,18.35077958,-64.69954413,3.6797,1.541442455,0.059047516,-0.162084005,0.000877509,-0.221879308,-3.499460625,-147.7575913,2,1.603000045,2.71391201,16.28,1.603000045,0,0,1,0,1,1
"2601",1740497878,2.02502e+13,18.35077779,-64.69954532,3.7017,1.498571666,-0.523987017,-0.765524209,0.016735498,1.726213536,-2.959714125,-145.6091409,3,1.58099997,2.71391201,16.53,1.58099997,0,0,1,0,1,1
"2611",1740497879,2.02502e+13,18.35077326,-64.69954609,3.7547,1.367272035,0.538437633,-0.355326552,0.066275821,3.346714916,-1.596392618,-143.6782867,2,1.532999992,2.71391201,16.23,1.532999992,0,0,1,0,1,1
"2621",1740497880,2.02502e+13,18.3507663,-64.69954964,3.8867,1.352794776,0.174058634,-0.436592369,0.116177152,2.328428969,-0.034778215,-143.0094607,2,1.501000047,2.71391201,16.14,1.501000047,0,0,1,0,1,1
"2631",1740497881,2.02502e+13,18.35076612,-64.69955092,4.0097,1.34598381,-0.976839927,0.057272814,0.141056408,3.170192029,2.296093988,-141.2622977,2,1.470000029,2.71391201,16.45,1.470000029,0,0,1,0,1,1
"2641",1740497882,2.02502e+13,18.35076386,-64.69955282,4.0187,1.444832526,0,0,0.018602013,2.553659447,2.031379667,-140.8424731,2,1.460999966,2.71391201,16.37,1.460999966,0,0,1,0,1,1
"2651",1740497883,2.02502e+13,18.35076138,-64.69955609,3.8247,1.503939913,-0.478691907,-0.425016971,-0.202227517,1.152454389,1.35258658,-142.4922512,2,1.457999945,2.71391201,16.39,1.457999945,0,0,1,0,1,1
"2661",1740497884,2.02502e+13,18.35076015,-64.6995558,3.7147,1.442319369,0.024657472,-0.163514637,-0.084717403,-0.29587539,2.196798797,-143.4560049,2,1.462000012,2.71391201,16.34,1.462000012,0,0,1,0,1,1
"2671",1740497885,2.02502e+13,18.35075933,-64.69955765,3.7857,1.511755467,0.096192928,-0.15768255,0.072063579,1.656350494,1.144704362,-141.7464763,2,1.495000005,2.71391201,16.48,1.495000005,0,0,1,0,1,1
"2681",1740497886,2.02502e+13,18.35075341,-64.69956283,3.8687,1.511755467,-0.614361058,-0.728650286,0.096495973,1.127937203,-0.074930484,-139.8641574,3,1.527999997,2.71391201,16.09,1.527999997,0,0,1,0,1,1
"2691",1740497887,2.02502e+13,18.35075099,-64.69956443,3.9607,1.593110961,0.067278497,-0.248260033,0.098866599,2.276506493,-1.041061221,-139.6513287,2,1.559000015,2.71391201,16.31,1.559000015,0,0,1,0,1,1
"2701",1740497888,2.02502e+13,18.35074915,-64.69956408,4.0137,1.578167426,-0.543273447,-0.484743917,0.053565625,2.289508616,-2.514206766,-139.9443985,2,1.577000022,2.71391201,16.23,1.577000022,0,0,1,0,1,1
"2711",1740497889,2.02502e+13,18.35074893,-64.69956443,4.0577,1.532592298,-0.090716897,0.098408712,0.030075412,2.128573507,-2.784977119,-139.8330937,2,1.577000022,2.71391201,16.17,1.577000022,0,0,1,0,1,1
"2721",1740497890,2.02502e+13,18.35074683,-64.69956618,4.0927,1.421628577,-0.613775196,-0.722541035,0.014096372,2.772363463,-2.37217101,-139.6532275,3,1.562000036,2.71391201,16.25,1.562000036,0,0,1,0,1,1
"2731",1740497891,2.02502e+13,18.35074511,-64.69956636,4.1587,1.379620092,-0.006394125,-0.002121045,0.048859967,1.612436845,-0.156657008,-140.6152326,2,1.529000044,2.673850536,16.45,1.529000044,0,0,1,0,1,1
"2741",1740497892,2.02502e+13,18.35074388,-64.69956605,4.2027,1.340152472,0.793769559,-0.408278245,0.035115854,1.49507046,2.790086743,-139.2402467,2,1.483999968,2.673850536,16.59,1.483999968,0,0,1,0,1,1
"2751",1740497893,2.02502e+13,18.35074369,-64.69956625,4.2287,1.382472127,-0.508591877,0.534021452,0.019025103,1.346834385,-0.187748307,-138.9451961,2,1.457000017,2.673850536,16.53,1.457000017,0,0,1,0,1,1
"2761",1740497894,2.02502e+13,18.3507379,-64.69957145,4.2817,1.390922867,-0.606244561,-0.716684114,0.054700366,0.004568865,1.280543854,-139.7721001,3,1.440999985,2.673850536,16.28,1.440999985,0,0,1,0,1,1
"2771",1740497895,2.02502e+13,18.35073208,-64.69957658,4.2597,1.410357224,-0.602756727,-0.718157723,-0.019775756,-0.13493241,2.950042573,-139.9929885,3,1.437000036,2.673850536,16.39,1.437000036,0,0,1,0,1,1
"2781",1740497896,2.02502e+13,18.35072968,-64.69957854,4.1717,1.471052706,-0.576024306,-0.425704632,-0.091219238,0.232841872,2.858606585,-140.0917394,2,1.44599998,2.673850536,16.51,1.44599998,0,0,1,0,1,1
"2791",1740497897,2.02502e+13,18.35072692,-64.69958058,4.1367,1.497732192,0.148256032,-0.183641843,-0.037594552,1.239637516,1.983347198,-140.0016492,2,1.480000019,2.673850536,16.39,1.480000019,0,0,1,0,1,1
"2801",1740497898,2.02502e+13,18.35072653,-64.69957987,4.1677,1.522846348,0.447345632,0.020121246,0.030054907,-0.954328886,-0.496700499,-139.0761446,2,1.508999944,2.673850536,16.28,1.508999944,0,0,1,0,1,1
"2811",1740497899,2.02502e+13,18.35072292,-64.69958172,4.2777,1.539545781,0.183191156,0.196763069,0.118490656,-0.173724376,-1.451696182,-137.93456,2,1.536999941,2.673953772,16.2,1.536999941,0,0,1,0,1,1
"2821",1740497900,2.02502e+13,18.35072244,-64.6995796,4.3087,1.547168746,0.203437137,0.039641321,0.031744503,-0.399660765,-1.917307783,-137.6036099,2,1.552000046,2.673953772,16.39,1.552000046,0,0,1,0,1,1
"2831",1740497901,2.02502e+13,18.35072255,-64.69957975,4.3437,1.488716084,-0.174272238,0.033202584,0.031674517,-0.236016257,-0.985362822,-137.1680486,2,1.550999999,2.673953772,16.45,1.550999999,0,0,1,0,1,1
"2841",1740497902,2.02502e+13,18.35072174,-64.69957586,4.4357,1.408011624,0.534795517,-0.068760736,0.091994707,1.854316981,-0.442705993,-135.6304632,2,1.537999988,2.673953772,16.25,1.537999988,0,0,1,0,1,1
"2851",1740497903,2.02502e+13,18.35072105,-64.69957731,4.4707,1.405550753,0.244493706,0.412009858,0.024051791,0.961472626,-1.441892189,-135.3283091,2,1.521000028,2.673953772,16.62,1.521000028,0,0,1,0,1,1
"2861",1740497904,2.02502e+13,18.35072375,-64.69957878,4.4887,1.372266679,0.082294123,0.006317905,0.022901539,0.577157861,-0.921090613,-135.5753162,2,1.496000051,2.673953772,16.34,1.496000051,0,0,1,0,1,1
"2871",1740497905,2.02502e+13,18.3507243,-64.69957713,4.5017,1.378307706,0.651295455,0.184940042,0.014275227,0.577304924,1.178780082,-135.7824622,2,1.478000045,2.673953772,16.34,1.478000045,0,0,1,0,1,1
"2881",1740497906,2.02502e+13,18.3507216,-64.69957368,4.6337,1.413744346,0.058787668,-0.620776687,0.127248788,-0.210823763,2.134287176,-136.2676654,2,1.449000001,2.673953772,16.34,1.449000001,0,0,1,0,1,1
"2891",1740497907,2.02502e+13,18.35071954,-64.69957503,4.6337,1.391870839,-0.649411009,-0.6708398,-0.01278968,1.81599363,2.280391164,-135.9299261,3,1.440000057,2.673953772,16.42,1.440000057,0,0,1,0,1,1
"2901",1740497908,2.02502e+13,18.35071476,-64.69957997,4.5677,1.423356312,0,0,-0.057322232,0.606440387,0.044357746,-135.178605,2,1.434999943,2.673953772,16.28,1.434999943,0,0,1,0,1,1
"2911",1740497909,2.02502e+13,18.35071465,-64.69958034,4.5057,1.359966402,-0.145352988,-0.045204005,-0.068188108,1.327570256,1.326064199,-133.4935694,2,1.42900002,2.673953772,16.56,1.42900002,0,0,1,0,1,1
"2921",1740497910,2.02502e+13,18.35071144,-64.69958136,4.5277,1.385246732,0.098448946,-0.81271951,0.02092224,1.786685918,2.773831741,-133.0747011,2,1.42900002,2.673953772,16.25,1.42900002,0,0,1,0,1,1
"2931",1740497911,2.02502e+13,18.3507121,-64.69958196,4.5677,1.395750383,-0.666836335,-0.615901563,0.040007397,1.458762229,0.042523893,-132.8642356,2,1.425999999,2.673953772,16.12,1.425999999,0,0,1,0,1,1
"2941",1740497912,2.02502e+13,18.35071312,-64.69958461,4.6197,1.382681653,-0.12151411,0.473492755,0.058680914,3.575295816,1.030743469,-132.6276241,2,1.419999957,2.673953772,16.34,1.419999957,0,0,1,0,1,1
