timestamp_ros,timestamp_sys (%Y%m%d%H%M%S.%f),latitude,longitude,depth,distance_to_ocean_floor,velX,velY,velZ,roll,pitch,yaw,navMode,acousticAltimeter,forwardStereo,battery_volts,altitudeUsed,cotsNumFound,cotsNumMaybe,missionState,errorState,storeData,storeImageData
1767979679.5419676,20260109132759.541920,18.189055166666666,-64.95878033333334,0.06031510160076921,2.0628251764980723,0.0,0.08282484,0.06176265258207018,-10.16985392842592,3.771454650186004,3.0214117577500272,1,41.2,3.265911102294922,16.03,41.2,0,0,1,0,1,0
1767979679.6469612,20260109132759.646914,18.189055166666666,-64.95878033333334,0.004154009874294113,2.0628251764980723,0.0,0.08282484,0.006056628140992282,-10.16985392842592,3.771454650186004,3.0214117577500272,1,41.2,1.0964475870132446,16.03,41.2,0,0,1,0,1,0
1767979679.7776842,20260109132759.777637,18.189055166666666,-64.95878033333334,0.004154009874294113,2.0628251764980723,0.0,0.08282484,0.006056628140992282,-10.915775739303244,5.318649290992323,2.679149148512569,1,41.2,3.0718960762023926,16.03,41.2,0,0,1,0,1,0
1767979679.830262,20260109132759.830214,18.189055166666666,-64.95878033333334,-0.0027474866226915064,2.0628251764980723,0.0,0.08282484,-0.007833003181171116,-12.27094381180109,4.758924052995445,2.2829160727030904,1,41.2,3.0718960762023926,16.03,41.2,0,0,1,0,1,0
1767979679.9501657,20260109132759.950118,18.189055166666666,-64.95878033333334,-0.0027474866226915064,2.0628251764980723,0.0,0.08282484,-0.007833003181171116,-15.808517760139722,-0.620263253969325,2.5077830560571566,1,41.43,1.90146803855896,16.03,41.43,0,0,1,0,1,0
1767979680.0466866,20260109132800.046639,18.189054666666667,-64.95878033333334,0.052193802820429715,2.0628251764980723,-0.13091979507286727,-0.050833023992015634,0.009810220586095325,-15.808517760139722,-0.620263253969325,2.5077830560571566,1,41.43,2.529578685760498,16.03,41.43,0,0,1,0,1,0
1767979680.169597,20260109132800.169549,18.189054666666667,-64.95878033333334,0.052193802820429715,2.0628251764980723,-0.13091979507286727,-0.050833023992015634,0.009810220586095325,-17.150833119571224,-2.270030830921232,3.5330289680130154,1,41.43,0.9001160860061646,16.0,41.43,0,0,1,0,1,0
1767979680.2452319,20260109132800.245184,18.189054666666667,-64.95878033333334,0.04948711173220365,2.0628251764980723,-0.13091979507286727,-0.050833023992015634,-0.0319329689150929,-18.531122636818903,-1.8886115869447564,4.805934212732997,1,41.43,0.9001160860061646,16.0,41.43,0,0,1,0,1,0
1767979680.3369806,20260109132800.336933,18.189054666666667,-64.95878033333334,0.04948711173220365,2.0628251764980723,-0.13091979507286727,-0.050833023992015634,-0.0319329689150929,-19.479761119651812,2.7613166951894783,7.349306323767391,1,41.43,2.1135640144348145,16.0,41.43,0,0,1,0,1,0
1767979680.4423385,20260109132800.442291,18.189053666666666,-64.958781,0.031979783573912436,2.0628251764980723,-0.23567185963508866,-0.19289518201979405,0.010098353708025757,-19.479761119651812,2.7613166951894783,7.349306323767391,1,41.43,1.7064745426177979,16.0,41.43,0,0,1,0,1,0
1767979680.5545895,20260109132800.554542,18.189053666666666,-64.958781,0.031979783573912436,2.0628251764980723,-0.23567185963508866,-0.19289518201979405,0.010098353708025757,-18.218417681783453,4.5924872244492185,8.575197652072397,1,42.07,3.087357997894287,16.0,42.07,0,0,1,0,1,0
1767979680.6428754,20260109132800.642828,18.189053666666666,-64.958781,0.022979783573912095,2.0628251764980723,-0.23567185963508866,-0.19289518201979405,-0.008604467270575298,-16.772531004291785,4.9391873237997315,9.755036413431863,1,42.07,3.087357997894287,16.0,42.07,0,0,1,0,1,0
1767979680.7336473,20260109132800.733600,18.189053666666666,-64.958781,0.022979783573912095,2.0628251764980723,-0.23567185963508866,-0.19289518201979405,-0.008604467270575298,-13.073134448727975,1.0867618192680193,12.657114820010165,1,42.07,0.6665704846382141,15.89,42.07,0,0,1,0,1,0
1767979680.831078,20260109132800.831030,18.189053666666666,-64.958781,0.013630636968676217,2.0628251764980723,-0.23567185963508866,-0.19289518201979405,-0.006261806755502021,-13.073134448727975,1.0867618192680193,12.657114820010165,1,42.07,0.6665704846382141,15.89,42.07,0,0,1,0,1,0
1767979680.9400918,20260109132800.940044,18.189053666666666,-64.958781,0.013630636968676217,2.0628251764980723,-0.23567185963508866,-0.19289518201979405,-0.006261806755502021,-6.233840752387061,-2.8604140243001246,17.112050950015288,1,42.07,0.8452022671699524,15.89,42.07,0,0,1,0,1,0
1767979681.0380986,20260109132801.038051,18.189053833333332,-64.95878216666667,0.059746609226737885,2.0628251764980723,-0.2544710409213815,-0.06387149379612614,-0.013676442449340038,-6.233840752387061,-2.8604140243001246,17.112049179332463,1,42.07,0.34159690141677856,15.89,42.07,0,0,1,0,1,0
1767979681.1360312,20260109132801.135984,18.189053833333332,-64.95878216666667,0.059746609226737885,2.0628251764980723,-0.2544710409213815,-0.06387149379612614,-0.013676442449340038,-3.1039007503196725,0.28259080029968564,22.609878728871553,1,42.07,0.42332151532173157,15.89,42.07,0,0,1,0,1,0
1767979681.2315364,20260109132801.231489,18.189053833333332,-64.95878216666667,0.010982778009570465,2.0628251764980723,-0.2544710409213815,-0.06387149379612614,-0.10488265865046242,-3.1039007503196725,0.28259080029968564,22.609878728871553,1,44.63,0.42332151532173157,15.89,44.63,0,0,1,0,1,0
1767979681.3693619,20260109132801.369314,18.189053833333332,-64.95878216666667,0.010982778009570465,2.0628251764980723,-0.2544710409213815,-0.06387149379612614,-0.10488265865046242,-7.3537667804718145,5.468455456736689,28.576778517573068,1,44.63,0.42332151532173157,15.81,44.63,0,0,1,0,1,0
1767979681.4306886,20260109132801.430641,18.189054833333334,-64.95878116666667,0.010982778009570465,2.0628251764980723,-0.10068533112415254,0.3091430607220323,-0.10488265865046242,-7.3537667804718145,5.468455456736689,28.576778517573068,1,44.63,3.773329973220825,15.81,44.63,0,0,1,0,1,0
1767979681.542233,20260109132801.542185,18.189054833333334,-64.95878116666667,-0.007501242211172921,2.0628251764980723,-0.10068533112415254,0.3091430607220323,-0.10552539461129214,-10.703268841445459,5.4214236110687315,34.39824645137091,1,44.63,3.8454535007476807,15.81,44.63,0,0,1,0,1,0
1767979681.633453,20260109132801.633405,18.189054833333334,-64.95878116666667,-0.02050124221117282,2.0628251764980723,-0.10068533112415254,0.3091430607220323,-0.11303235077336256,-10.703268841445459,5.4214236110687315,34.39824645137091,1,44.63,3.8454535007476807,15.81,44.63,0,0,1,0,1,0
1767979681.7439628,20260109132801.743915,18.189054833333334,-64.95878116666667,-0.02050124221117282,2.0628251764980723,-0.10068533112415254,0.3091430607220323,-0.11303235077336256,-10.279104550811663,3.0855469582401267,39.09369582616586,1,44.63,2.5209052562713623,15.81,44.63,0,0,1,0,1,0
1767979681.8426316,20260109132801.842584,18.189054833333334,-64.95878116666667,0.012944949027911778,2.0628251764980723,-0.10068533112415254,0.3091430607220323,-0.1247902302649966,-10.279104550811663,3.0855469582401267,39.09369582616586,1,41.04,2.5209052562713623,15.81,41.04,0,0,1,0,1,0
1767979681.9331505,20260109132801.933103,18.189054833333334,-64.95878116666667,0.012944949027911778,2.0628251764980723,-0.10068533112415254,0.3091430607220323,-0.1247902302649966,-7.748477577325713,-1.019461166547233,43.30445089848537,1,41.04,1.7706716060638428,15.92,41.04,0,0,1,0,1,0
1767979682.0305161,20260109132802.030469,18.189055666666665,-64.95878033333334,0.012944949027911778,2.0628251764980723,0.06333231213760442,0.266253449090207,-0.09983218421199727,-7.748477577325713,-1.019461166547233,43.30445089848537,1,41.04,1.7706716060638428,15.92,41.04,0,0,1,0,1,0
1767979682.1310132,20260109132802.130966,18.189055666666665,-64.95878033333334,0.012944949027911778,2.0628251764980723,0.06333231213760442,0.266253449090207,-0.09983218421199727,-6.894175566606234,-11.988736516088242,46.379594407682625,1,41.04,1.0649415254592896,15.92,41.04,0,0,1,0,1,0
1767979682.2339776,20260109132802.233930,18.189055666666665,-64.95878033333334,0.012944949027911778,2.0628251764980723,0.06333231213760442,0.266253449090207,-0.09983218421199727,-6.894175566606234,-11.988736516088242,46.379594407682625,1,41.04,0.8184777498245239,15.92,41.04,0,0,1,0,1,0
1767979682.3497622,20260109132802.349715,18.189055666666665,-64.95878033333334,0.12222120177365453,2.0628251764980723,0.06333231213760442,0.266253449090207,0.1025005649832602,-8.698059480375056,-17.879384045630683,46.87976250925561,1,41.04,0.6812551617622375,15.92,41.04,0,0,1,0,1,0
1767979682.431676,20260109132802.431628,18.189055666666665,-64.95878033333334,0.19202841980945096,2.0628251764980723,0.06333231213760442,0.266253449090207,0.22493806901591012,-9.147748197063814,-20.60458610267042,46.58587302456398,1,42.05,0.6812551617622375,15.92,42.05,0,0,1,0,1,0
1767979682.5329578,20260109132802.532910,18.189057,-64.95878083333334,0.19202841980945096,2.0628251764980723,0.03450321884112932,0.2205848211397211,0.22493806901591012,-4.883481988558184,-16.648609130322924,44.12050853193304,1,42.05,1.0511852502822876,15.59,42.05,0,0,1,0,1,0
1767979682.6301372,20260109132802.630090,18.189057,-64.95878083333334,0.19202841980945096,2.0628251764980723,0.03450321884112932,0.2205848211397211,0.22493806901591012,-4.883481988558184,-16.648609130322924,44.12050853193304,1,42.05,1.0511852502822876,15.59,42.05,0,0,1,0,1,0
1767979682.737719,20260109132802.737671,18.189057,-64.95878083333334,0.17523853651104723,2.0628251764980723,0.03450321884112932,0.2205848211397211,0.255776532786681,0.005173816785392054,-9.366759998658294,42.86736644664307,1,42.05,2.261997938156128,15.59,42.05,0,0,1,0,1,0
1767979682.8436563,20260109132802.843609,18.189057,-64.95878083333334,0.08670141053531115,2.0628251764980723,0.03450321884112932,0.2205848211397211,0.15154572073781253,0.005173816785392054,-9.366759998658294,42.86736644664307,1,42.05,3.4346978664398193,15.59,42.05,0,0,1,0,1,0
1767979682.9598215,20260109132802.959774,18.189057,-64.95878083333334,0.08670141053531115,2.0628251764980723,0.03450321884112932,0.2205848211397211,0.15154572073781253,3.8091453550502563,-8.22322626703977,43.640100174694254,1,42.05,2.573387622833252,15.59,42.05,0,0,1,0,1,0
1767979683.0594962,20260109132803.059449,18.189059166666667,-64.95877983333334,0.10083799855142753,2.0628251764980723,0.272426644024769,0.45627540077710976,0.09293640884183668,3.8091453550502563,-8.22322626703977,43.640100174694254,1,44.69,3.8818576335906982,15.59,44.69,0,0,1,0,1,0
1767979683.13952,20260109132803.139472,18.189059166666667,-64.95877983333334,0.10083799855142753,2.0628251764980723,0.272426644024769,0.45627540077710976,0.09293640884183668,3.8989542638987182,-8.90092214767634,43.88332329800625,1,44.69,3.8818576335906982,15.64,44.69,0,0,1,0,1,0
1767979683.2419395,20260109132803.241892,18.189059166666667,-64.95877983333334,0.13646061620332262,2.0628251764980723,0.272426644024769,0.45627540077710976,0.09980039103393099,2.0487321957975513,-9.618609653976552,45.31112021301289,1,44.69,2.102189064025879,15.64,44.69,0,0,1,0,1,0
1767979683.3324606,20260109132803.332413,18.189059166666667,-64.95877983333334,0.13646061620332262,2.0628251764980723,0.272426644024769,0.45627540077710976,0.09980039103393099,2.0487321957975513,-9.618609653976552,45.31112021301289,1,44.69,1.8835853338241577,15.64,44.69,0,0,1,0,1,0
1767979683.4387922,20260109132803.438745,18.189061666666664,-64.95877783333334,0.13646061620332262,2.0628251764980723,0.4207257731594767,0.6053450547772823,0.09980039103393099,0.5287656869664682,-9.910231515052905,46.28388976281188,1,44.69,1.8835853338241577,15.64,44.69,0,0,1,0,1,0
1767979683.5348513,20260109132803.534804,18.189061666666664,-64.95877783333334,0.17639491991925813,2.0628251764980723,0.4207257731594767,0.6053450547772823,0.010353567521096091,-1.8615108807318015,-9.291859263664476,47.26228739049931,1,44.69,1.9915602207183838,15.64,44.69,0,0,1,0,1,0
1767979683.6311648,20260109132803.631117,18.189061666666664,-64.95877783333334,0.19617615480848136,2.0628251764980723,0.4207257731594767,0.6053450547772823,0.047733661834368626,-1.8615108807318015,-9.291859263664476,47.26228739049931,1,41.34,1.9915602207183838,15.64,41.34,0,0,1,0,1,0
1767979683.7433176,20260109132803.743270,18.189061666666664,-64.95877783333334,0.19617615480848136,2.0628251764980723,0.4207257731594767,0.6053450547772823,0.047733661834368626,-1.3452043170400076,-7.30662479796409,47.865133762579156,1,41.34,2.2514188289642334,15.45,41.34,0,0,1,0,1,0
1767979683.8526597,20260109132803.852612,18.189061666666664,-64.95877783333334,0.18761989154763858,2.0628251764980723,0.4207257731594767,0.6053450547772823,0.12473657007374761,-1.3452043170400076,-7.30662479796409,47.865133762579156,1,41.34,1.524041771888733,15.45,41.34,0,0,1,0,1,0
1767979683.9640546,20260109132803.964007,18.18906283333333,-64.958776,0.18761989154763858,2.0628251764980723,0.27673325104236224,0.37631353933154643,0.12473657007374761,-0.29856771237860463,-7.649461143296951,48.03363561958554,1,41.34,2.2335405349731445,15.45,41.34,0,0,1,0,1,0
1767979684.0704386,20260109132804.070391,18.18906323103007,-64.95877561098845,0.23061989154763962,2.0628251764980723,0.39572984960719737,0.42584373440249756,0.18824767647837,1.0505052411988272,-8.939757763409606,48.03280916640048,5,41.34,1.7274376153945923,15.45,41.34,0,0,1,0,1,0
1767979684.1319518,20260109132804.131904,18.1890634718042,-64.95877537650979,0.23061989154763962,2.0628251764980723,0.3947917280979721,0.4267135941418047,0.18824767647837,2.5112704239003243,-10.46516580052077,47.90671699904685,5,41.34,1.7274376153945923,15.45,41.34,0,0,1,0,1,0
1767979684.239962,20260109132804.239914,18.189063889303483,-64.95877498094043,0.23061989154763962,2.0628251764980723,0.3889204201482986,0.4320716454381968,0.18824767647837,4.4364856480255614,-11.687551532980791,47.123294021122504,5,41.34,1.5192384719848633,15.45,41.34,0,0,1,0,1,0
1767979684.3514302,20260109132804.351383,18.189064229922465,-64.95877461423207,0.23012768857081722,2.0628251764980723,0.36049547097441037,0.35245994865649355,0.13751653118825324,4.4364856480255614,-11.687551532980791,47.123294021122504,5,41.7,1.6475131511688232,15.89,41.7,0,0,1,0,1,0
1767979684.4351723,20260109132804.435125,18.189064503467208,-64.95877432779079,0.2563197670980615,2.0628251764980723,0.35557373906086315,0.35742455999871814,0.15857665420824602,4.540966662231075,-11.301638876697416,46.32882662336116,5,41.7,1.6475131511688232,15.89,41.7,0,0,1,0,1,0
1767979684.542619,20260109132804.542571,18.189064861765722,-64.95877398101446,0.2563197670980615,2.0628251764980723,0.34124554253537476,0.37112865653266086,0.15857665420824602,4.563777367781092,-10.470921090728039,44.07548493875747,5,41.7,1.754852533340454,15.89,41.7,0,0,1,0,1,0
1767979684.6584046,20260109132804.658357,18.189065211344797,-64.95877364267717,0.27910144937057735,2.0628251764980723,0.34124554253537476,0.37112865653266086,0.1747938032967275,4.563777367781092,-10.470921090728039,44.07548493875747,5,41.7,2.5632195472717285,15.89,41.7,0,0,1,0,1,0
1767979684.7916498,20260109132804.791602,18.189065580792885,-64.95877331180967,0.27910144937057735,2.0628251764980723,0.3267065958882313,0.3839893230327165,0.1747938032967275,4.188501454272856,-8.57266228501796,41.869425255589526,5,41.7,2.5845890045166016,15.89,41.7,0,0,1,0,1,0
1767979684.8306057,20260109132804.830558,18.189065860283378,-64.9587730615057,0.3142110006853705,2.0628251764980723,0.3267065958882313,0.3839893230327165,0.20505081834528385,4.188501454272856,-8.57266228501796,41.869425255589526,5,41.7,2.5845890045166016,15.89,41.7,0,0,1,0,1,0
1767979684.933372,20260109132804.933324,18.189066365154904,-64.95877265308123,0.3142110006853705,2.0628251764980723,0.42865487378178296,0.5577490467792156,0.20505081834528385,3.475341938124585,-4.304293265788251,41.211677803330474,5,41.42,2.5845890045166016,15.92,41.42,0,0,1,0,1,0
1767979685.0443437,20260109132805.044296,18.189066919658007,-64.95877220450645,0.3142110006853705,2.0628251764980723,0.42865487378178296,0.5577490467792156,0.20505081834528385,3.475341938124585,-4.304293265788251,41.211677803330474,5,41.42,1.9727656841278076,15.92,41.42,0,0,1,0,1,0
1767979685.145909,20260109132805.145861,18.189067440955412,-64.95877177758682,0.2808817386667013,2.0628251764980723,0.4319595383560722,0.5551936213819544,0.1329118462023578,2.93976057370304,-1.525814753677318,41.55193404378179,5,41.42,1.9727656841278076,15.92,41.42,0,0,1,0,1,0
1767979685.2312984,20260109132805.231251,18.189067858091857,-64.9587714271039,0.26160083081310265,2.0628251764980723,0.43884160410302203,0.5497699941869203,0.06931228111724588,2.657012412191916,1.2861724650397957,42.26563784082416,5,41.42,1.9727656841278076,15.92,41.42,0,0,1,0,1,0
1767979685.3388944,20260109132805.338847,18.189068336857737,-64.95877099191591,0.26160083081310265,2.0628251764980723,0.4597591444091593,0.5324007223249774,0.06931228111724588,2.820270426873106,5.382185014030342,44.48033088618996,5,41.42,2.883436441421509,15.92,41.42,0,0,1,0,1,0
1767979685.4313502,20260109132805.431303,18.189068815685665,-64.95877055667154,0.26160083081310265,2.0628251764980723,0.4597591444091593,0.5324007223249774,0.06931228111724588,2.820270426873106,5.382185014030342,44.48033088618996,5,41.42,2.883436441421509,15.92,41.42,0,0,1,0,1,0
1767979685.5529845,20260109132805.552937,18.18906927910205,-64.95877010326339,0.21331206938581532,2.0628251764980723,0.4789178293319275,0.5152346191280189,-0.03575176003097019,3.5387009299546373,6.609238755570357,46.57569706899408,5,41.42,1.798376441001892,15.89,41.42,0,0,1,0,1,0
1767979685.6456676,20260109132805.645620,18.18906974244758,-64.95876964992456,0.20870489250959254,2.0628251764980723,0.4789178293319275,0.5152346191280189,-0.03778513020658207,3.5387009299546373,6.609238755570357,46.57569706899408,5,41.42,1.798376441001892,15.89,41.42,0,0,1,0,1,0
1767979685.7331383,20260109132805.733091,18.189070210295963,-64.9587691749459,0.20870489250959254,2.0628251764980723,0.4883422921556452,0.5063109772582167,-0.03778513020658207,5.50399465124308,6.9015999848887395,47.63285363616231,5,41.42,1.329248309135437,15.89,41.42,0,0,1,0,1,0
1767979685.8320453,20260109132805.831998,18.189070653068626,-64.95876872542513,0.20870489250959254,2.0628251764980723,0.4883422921556452,0.5063109772582167,-0.03778513020658207,5.50399465124308,6.9015999848887395,47.63285363616231,5,41.42,0.6113766431808472,15.89,41.42,0,0,1,0,1,0
1767979685.9300992,20260109132805.930052,18.189071105325528,-64.95876825973816,0.14957949997872202,2.0628251764980723,0.49190755059599056,0.5028478514090051,-0.1495378325432348,7.259594659844032,6.567762417005008,48.037692753403235,5,41.42,0.6113766431808472,15.89,41.42,0,0,1,0,1,0
1767979686.0302653,20260109132806.030218,18.189071552548203,-64.9587677886941,0.14781294358381417,2.0628251764980723,0.4975656577924764,0.4972498528763384,-0.1231546647485832,9.24277579919099,5.868233828879899,48.68599405066256,5,41.42,0.6113766431808472,15.89,41.42,0,0,1,0,1,0
1767979686.1320806,20260109132806.132033,18.189072000802952,-64.9587672994142,0.14781294358381417,2.0628251764980723,0.5063545164906272,0.488297146857877,-0.1231546647485832,11.9274910416752,3.0428224021576424,49.707865847961926,5,41.42,0.9196304678916931,15.92,41.42,0,0,1,0,1,0
1767979686.2505083,20260109132806.250461,18.189072472596823,-64.95876678444081,0.14781294358381417,2.0628251764980723,0.5063545164906272,0.488297146857877,-0.1231546647485832,11.9274910416752,3.0428224021576424,49.707865847961926,5,41.42,0.9392136335372925,15.92,41.42,0,0,1,0,1,0
1767979686.330534,20260109132806.330486,18.18907287081467,-64.95876635172212,0.132077999792627,2.0628251764980723,0.5052590228149504,0.48943060781287606,-0.07790513149227464,12.499160150367015,0.7842522592356483,49.57947190603498,5,41.42,0.9392136335372925,15.92,41.42,0,0,1,0,1,0
1767979686.447924,20260109132806.447876,18.18907331974929,-64.95876588252244,0.16081129150074908,2.0628251764980723,0.49563662239965367,0.4991726540349172,-0.03123327344095747,12.437186406773318,-5.395869302925463,48.464149427096885,5,41.42,1.103458046913147,15.92,41.42,0,0,1,0,1,0
1767979686.5467215,20260109132806.546674,18.189073795737475,-64.958765385048,0.16081129150074908,2.0628251764980723,0.49563662239965367,0.4991726540349172,-0.03123327344095747,12.437186406773318,-5.395869302925463,48.464149427096885,5,41.42,1.00897216796875,15.92,41.42,0,0,1,0,1,0
1767979686.6380455,20260109132806.637998,18.189074253359095,-64.95876491292738,0.194780765895185,2.0628251764980723,0.4923920901561751,0.5023733965404946,0.061747452674334714,12.489102693217987,-8.220063888323303,48.092928512971426,5,41.42,1.1889740228652954,15.92,41.42,0,0,1,0,1,0
1767979686.7324657,20260109132806.732418,18.189074674024578,-64.95876448301223,0.194780765895185,2.0628251764980723,0.4900156661641917,0.5046916354702775,0.061747452674334714,11.931625868922463,-9.674629178032271,47.82252122704273,5,41.42,1.1889740228652954,15.67,41.42,0,0,1,0,1,0
1767979686.8400528,20260109132806.840005,18.1890751400438,-64.95876402050763,0.2071555405410541,2.0628251764980723,0.4825720009762099,0.5118137003576758,0.08210565023697114,9.094375372257815,-9.234245743641251,46.98340486671212,5,41.42,1.2297461032867432,15.67,41.42,0,0,1,0,1,0
1767979686.940694,20260109132806.940646,18.189075639156986,-64.95876352515846,0.2071555405410541,2.0628251764980723,0.48257210348540014,0.5118136037051734,0.08210565023697114,9.094375372257815,-9.234245743641251,46.9834163422678,5,41.42,2.204775094985962,15.67,41.42,0,0,1,0,1,0
1767979687.0608673,20260109132807.060820,18.189076121493425,-64.95876305208684,0.1864274293016756,2.0628251764980723,0.4795439471928671,0.514651923838515,0.04719807948877722,7.7644158294528625,-7.922006279200312,46.64536283861141,5,41.42,2.204775094985962,15.67,41.42,0,0,1,0,1,0
1767979687.1416233,20260109132807.141576,18.18907651911165,-64.95876266018608,0.1864274293016756,2.0628251764980723,0.48080339842978764,0.5134755028804849,0.04719807948877722,7.296932756066313,-6.015057762211556,46.78573693662624,5,41.42,2.204775094985962,15.67,41.42,0,0,1,0,1,0
1767979687.2319658,20260109132807.231918,18.189076966246354,-64.95876218270521,0.13450912301961326,2.0628251764980723,0.500977056430834,0.4938127063268998,0.002025320593311608,7.880483836841572,-1.518220434378453,49.0804354314421,5,41.42,3.4904911518096924,15.67,41.42,0,0,1,0,1,0
1767979687.341501,20260109132807.341453,18.18907744276243,-64.95876167384891,0.13450912301961326,2.0628251764980723,0.500977056430834,0.4938127063268998,0.002025320593311608,7.880483836841572,-1.518220434378453,49.0804354314421,5,41.42,3.6586906909942627,15.89,41.42,0,0,1,0,1,0
1767979687.4483325,20260109132807.448285,18.189077907929622,-64.95876114846318,0.1333041888782177,2.0628251764980723,0.5146089499990524,0.47959006305476415,-0.031300272815583494,7.772149313905824,0.1652259102786031,50.68511381863098,5,41.42,2.606916666030884,15.89,41.42,0,0,1,0,1,0
1767979687.554786,20260109132807.554738,18.18907833422588,-64.95876058501275,0.1333041888782177,2.0628251764980723,0.7071816784273895,0.5631820963921174,-0.031300272815583494,7.284756231969584,1.6938085457459158,51.974093919310384,5,41.74,2.606916666030884,15.89,41.74,0,0,1,0,1,0
1767979687.6477997,20260109132807.647752,18.18907885300199,-64.95875985617621,0.12492155633768502,2.0628251764980723,0.723497603216058,0.5420620058080251,-0.06892526329346035,5.824934682928015,5.159440085832781,53.66560453246575,5,41.74,3.4821882247924805,15.89,41.74,0,0,1,0,1,0
1767979687.7457805,20260109132807.745733,18.18907938014114,-64.9587591155903,0.12492155633768502,2.0628251764980723,0.723497603216058,0.5420620058080251,-0.06892526329346035,5.824934682928015,5.159440085832781,53.66560453246575,5,41.74,2.9066686630249023,15.89,41.74,0,0,1,0,1,0
1767979687.876333,20260109132807.876285,18.18907989785985,-64.95875836780833,0.04275316217222273,2.0628251764980723,0.7306109344084021,0.5324355947181609,-0.2326778527794559,6.017378319811811,5.890296201561397,54.4242065940712,5,41.74,2.0501527786254883,15.89,41.74,0,0,1,0,1,0
1767979687.95378,20260109132807.953732,18.189080261700802,-64.95875782822124,0.04275316217222273,2.0628251764980723,0.7372182597635646,0.5232487338457509,-0.2326778527794559,6.975908627647153,5.354636716823287,55.141404034123255,5,41.74,2.0501527786254883,15.86,41.74,0,0,1,0,1,0
1767979688.0453978,20260109132808.045350,18.189080758372345,-64.95875705968656,0.12031996313183575,2.0628251764980723,0.7474842967230885,0.5084753938514528,-0.13246010379832374,10.877127100065339,1.3961744085028838,56.281595240721515,5,41.74,0.9341027140617371,15.86,41.74,0,0,1,0,1,0
1767979688.1453524,20260109132808.145305,18.18908121215595,-64.9587564127134,0.12031996313183575,2.0628251764980723,0.644326270565052,0.475697022336415,-0.13246010379832374,10.877127100065339,1.3961744085028838,56.281595240721515,5,40.46,0.8340426683425903,15.86,40.46,0,0,1,0,1,0
1767979688.2510514,20260109132808.251004,18.189081639685533,-64.95875578859966,0.14770610959029673,2.0628251764980723,0.6496363146959682,0.46841931923036767,-0.09667836914495595,12.944850643640752,-1.4744387994222286,56.926092121252836,5,40.46,0.8636025786399841,15.86,40.46,0,0,1,0,1,0
1767979688.3329456,20260109132808.332898,18.18908198670863,-64.95875526855026,0.14770610959029673,2.0628251764980723,0.6553889841042686,0.4603360506355924,-0.09667836914495595,13.653002348676313,-4.398171688176685,57.63585831283074,5,40.46,0.8636025786399841,15.86,40.46,0,0,1,0,1,0
1767979688.4391263,20260109132808.439079,18.189082405311325,-64.95875461860868,0.1667413187578602,2.0628251764980723,0.6629221335299749,0.44941989817548833,-0.06425175815017661,11.598671957078565,-9.162444208091484,58.58470170141203,5,40.46,0.7126989364624023,15.86,40.46,0,0,1,0,1,0
1767979688.5343764,20260109132808.534329,18.18908279506723,-64.95875401345593,0.1667413187578602,2.0628251764980723,0.6629221335299749,0.44941989817548833,-0.06425175815017661,11.598671957078565,-9.162444208091484,58.58470170141203,5,40.46,0.7126989364624023,15.86,40.46,0,0,1,0,1,0
1767979688.6554103,20260109132808.655363,18.18908320916699,-64.95875336832978,0.1667413187578602,2.0628251764980723,0.6636261510253046,0.44837967357512953,-0.06425175815017661,9.47853693816661,-10.945312902930374,58.67455970226272,5,40.46,0.6393700242042542,15.81,40.46,0,0,1,0,1,0
1767979688.7466516,20260109132808.746604,18.189083628357288,-64.95875271527309,0.1687060624267321,2.0628251764980723,0.6636261510253046,0.44837967357512953,-0.04943158152024702,9.47853693816661,-10.945312902930374,58.67455970226272,5,40.46,1.3184504508972168,15.81,40.46,0,0,1,0,1,0
1767979688.833286,20260109132808.833238,18.189084066197253,-64.95875250298579,0.15900090107229853,2.0628251764980723,0.23650342152692874,0.5134414587916094,0.08291402047741982,9.68289456365704,-9.711014462524648,59.2091519695614,5,40.57,3.8453612327575684,15.81,40.57,0,0,1,0,1,0
1767979688.9355829,20260109132808.935535,18.1890845177602,-64.95875227487218,0.15900090107229853,2.0628251764980723,0.24458751851998578,0.5096400158781055,0.08291402047741982,10.027286485129592,-7.053807816758746,60.114603150830085,5,40.57,3.8453612327575684,15.81,40.57,0,0,1,0,1,0
1767979689.04012,20260109132809.040072,18.189085013891205,-64.958752009993,0.15900090107229853,2.0628251764980723,0.2557111175328404,0.5041505969153521,0.08291402047741982,8.295789368954292,-2.5850663754008645,61.37188433223706,5,40.57,4.370236873626709,15.81,40.57,0,0,1,0,1,0
1767979689.1487062,20260109132809.148659,18.18908550594375,-64.95875174729127,0.15443870280549923,2.0628251764980723,0.2557111175328404,0.5041505969153521,0.000786041203261614,8.295789368954292,-2.5850663754008645,61.37188433223706,5,40.57,4.032447338104248,15.72,40.57,0,0,1,0,1,0
1767979689.2341137,20260109132809.234066,18.189085878337494,-64.95875154949279,0.12369692146911966,2.0628251764980723,0.25466742501273587,0.5046786132157599,-0.056186782598229845,5.718944196376195,-1.970084887260937,61.25333269642335,5,40.57,4.032447338104248,15.72,40.57,0,0,1,0,1,0
1767979689.3327985,20260109132809.332751,18.18908633365275,-64.95875131136982,0.12369692146911966,2.0628251764980723,0.2515308495415857,0.5062491794846568,-0.056186782598229845,1.4427526867590759,0.4218147580800646,60.89779390223963,5,40.57,4.032447338104248,15.72,40.57,0,0,1,0,1,0
1767979689.4397583,20260109132809.439711,18.189086865986507,-64.95875038373748,0.12369692146911966,2.0628251764980723,0.8933290381034628,0.5396121103914753,-0.056186782598229845,1.4427526867590759,0.4218147580800646,60.89779390223963,5,41.9,2.2387278079986572,15.72,41.9,0,0,1,0,1,0
1767979689.5503004,20260109132809.550253,18.18908738717271,-64.95874947886938,0.09804488180403886,2.0628251764980723,0.8924475378083687,0.5410687500306963,-0.12008919436231698,-0.1916200918662453,1.4670244129836632,60.804322730026065,5,41.9,2.2323572635650635,15.72,41.9,0,0,1,0,1,0
1767979689.6325192,20260109132809.632472,18.189087793349024,-64.95874877694838,0.12674935923736352,2.0628251764980723,0.891329459849037,0.5429086424116158,-0.04273009375952232,-0.9650538878772495,1.8172815480597382,60.6861262641762,5,41.9,2.2323572635650635,15.72,41.9,0,0,1,0,1,0
1767979689.741296,20260109132809.741248,18.189088310973304,-64.95874788668387,0.12674935923736352,2.0628251764980723,0.8901770011437441,0.5447962065164647,-0.04273009375952232,0.5154356609003528,1.5439005674578317,60.564712778076945,5,41.9,2.3699488639831543,15.56,41.9,0,0,1,0,1,0
1767979689.8609715,20260109132809.860924,18.18908882929678,-64.95874699521677,0.10821074463848245,2.0628251764980723,0.8901770011437441,0.5447962065164647,-0.042117261324233435,0.5154356609003528,1.5439005674578317,60.564712778076945,5,41.9,1.3480024337768555,15.56,41.9,0,0,1,0,1,0
1767979689.9431257,20260109132809.943078,18.18908925932975,-64.95874624636437,0.10821074463848245,2.0628251764980723,0.8931654140655808,0.5398828975963764,-0.042117261324233435,2.289299441789827,1.2998176937766446,60.88042472496968,5,41.9,1.3480024337768555,15.56,41.9,0,0,1,0,1,0
1767979690.042006,20260109132810.041958,18.189089362338056,-64.95874557836632,0.08789468503475242,2.0628251764980723,0.6698583178749663,0.10872825747578535,-0.05464727757560863,5.5438253405168565,1.499332286527015,62.398895245461055,5,40.38,0.7179792523384094,15.56,40.38,0,0,1,0,1,0
1767979690.158573,20260109132810.158525,18.1890894653532,-64.95874491032387,0.08789468503475242,2.0628251764980723,0.6698583178749663,0.10872825747578535,-0.05464727757560863,5.5438253405168565,1.499332286527015,62.398895245461055,5,40.38,1.995843529701233,15.56,40.38,0,0,1,0,1,0
1767979690.260306,20260109132810.260258,18.189089561378985,-64.95874422239477,0.10838333924300476,2.0628251764980723,0.6714164912938813,0.09865036856805715,0.04869327776528638,6.444207665835311,0.6141872115606515,63.25988187933405,5,40.38,1.8239166736602783,15.56,40.38,0,0,1,0,1,0
1767979690.3531492,20260109132810.353102,18.189089627295033,-64.95874370638684,0.10838333924300476,2.0628251764980723,0.6725723152699706,0.09043495304577273,0.04869327776528638,6.48944530554413,-1.735955310306691,63.960338519744475,5,40.38,1.8239166736602783,15.7,40.38,0,0,1,0,1,0
1767979690.4419658,20260109132810.441918,18.189089000000003,-64.95873366666666,0.10491149642521347,2.0628251764980723,0.5214735488915446,0.2314120056551504,0.03530446943107861,4.355468049556011,-6.251444717493649,65.03563607583486,1,40.38,0.6489071249961853,15.7,40.38,0,0,1,0,1,0
1767979690.5532196,20260109132810.553172,18.189089000000003,-64.95873366666666,0.10491149642521347,2.0628251764980723,0.5214735488915446,0.2314120056551504,0.03530446943107861,4.355468049556011,-6.251444717493649,65.03563607583486,1,40.38,0.8619760274887085,15.7,40.38,0,0,1,0,1,0
1767979690.6819553,20260109132810.681908,18.189089000000003,-64.95873366666666,0.11429224603312806,2.0628251764980723,0.5214735488915446,0.2314120056551504,0.0041706214143381855,2.0090073744937693,-6.5489375551477025,65.38987030342064,1,40.38,0.7034710645675659,15.7,40.38,0,0,1,0,1,0
1767979690.7324257,20260109132810.732378,18.189089000000003,-64.95873366666666,0.11429224603312806,2.0628251764980723,0.5214735488915446,0.2314120056551504,0.0041706214143381855,-0.20125535779624165,-5.856167868509879,65.21235362341842,1,40.38,0.7034710645675659,15.7,40.38,0,0,1,0,1,0
1767979690.8364086,20260109132810.836361,18.189089000000003,-64.95873366666666,0.12865585405725202,2.0628251764980723,0.5214735488915446,0.2314120056551504,0.019322438405822078,-3.539836022423217,-2.8596381572216685,64.00302038712938,1,40.38,0.5648407936096191,15.7,40.38,0,0,1,0,1,0
1767979690.94562,20260109132810.945572,18.189089000000003,-64.95873366666666,0.12865585405725202,2.0628251764980723,0.5214735488915446,0.2314120056551504,0.019322438405822078,-3.539836022423217,-2.8596381572216685,64.00302038712938,1,40.38,0.6191846132278442,15.56,40.38,0,0,1,0,1,0
1767979691.0527809,20260109132811.052733,18.189090500000002,-64.95873216666668,0.09086122312506725,2.0628251764980723,0.7520080331055348,0.2306297115028383,-0.016703881282091878,-2.6320102823518297,-1.7008481254197585,64.25275268304786,1,40.38,3.7315127849578857,15.56,40.38,0,0,1,0,1,0
1767979691.1603615,20260109132811.160314,18.189090500000002,-64.95873216666668,0.09086122312506725,2.0628251764980723,0.7520080331055348,0.2306297115028383,-0.016703881282091878,0.0356842026759791,-1.9625255726940858,65.34634149227578,1,40.38,2.3441739082336426,15.56,40.38,0,0,1,0,1,0
1767979691.2345698,20260109132811.234522,18.189090500000002,-64.95873216666668,0.10882756052508666,2.0628251764980723,0.7520080331055348,0.2306297115028383,0.020033591614958886,2.564872700455776,-3.509292899637662,66.35467584979972,1,40.65,2.3441739082336426,15.56,40.65,0,0,1,0,1,0
1767979691.3437135,20260109132811.343666,18.189090500000002,-64.95873216666668,0.10882756052508666,2.0628251764980723,0.7520080331055348,0.2306297115028383,0.020033591614958886,4.993246155975749,-7.601344150936598,66.40273990817508,1,40.65,2.2396059036254883,15.56,40.65,0,0,1,0,1,0
1767979691.4322333,20260109132811.432186,18.189093333333336,-64.95872983333334,0.10839791115265524,2.0628251764980723,0.8392562701108411,0.36370046019643876,0.02320519972155541,4.993246155975749,-7.601344150936598,66.40273990817508,1,40.65,2.2396059036254883,15.56,40.65,0,0,1,0,1,0
1767979691.5383239,20260109132811.538276,18.189093333333336,-64.95872983333334,0.10839791115265524,2.0628251764980723,0.8392562701108411,0.36370046019643876,0.02320519972155541,7.225979871824376,-8.040919915169471,66.55470484135589,1,40.65,2.095062255859375,15.92,40.65,0,0,1,0,1,0
1767979691.6588683,20260109132811.658821,18.189093333333336,-64.95872983333334,0.16142122962106414,2.0628251764980723,0.8392562701108411,0.36370046019643876,0.051082332885240986,7.225979871824376,-8.040919915169471,66.55470484135589,1,40.65,1.5335948467254639,15.92,40.65,0,0,1,0,1,0
1767979691.7301931,20260109132811.730146,18.189093333333336,-64.95872983333334,0.16142122962106414,2.0628251764980723,0.8392562701108411,0.36370046019643876,0.051082332885240986,7.858018482854955,-7.263908779621118,66.63551966851196,1,40.65,1.5335948467254639,15.92,40.65,0,0,1,0,1,0
1767979691.8545215,20260109132811.854474,18.189093333333336,-64.95872983333334,0.16142122962106414,2.0628251764980723,0.8392562701108411,0.36370046019643876,0.051082332885240986,8.240831085920325,-7.788639957779636,65.82844373703442,1,40.65,2.2285139560699463,15.92,40.65,0,0,1,0,1,0
1767979691.9441957,20260109132811.944148,18.189093333333336,-64.95872983333334,0.18162396447335244,2.0628251764980723,0.8392562701108411,0.36370046019643876,0.11134382447602395,8.240831085920325,-7.788639957779636,65.82844373703442,1,40.53,2.7463481426239014,15.92,40.53,0,0,1,0,1,0
1767979692.0553815,20260109132812.055334,18.189096,-64.95872883333332,0.16862396447335254,2.0628251764980723,0.5053516802807415,0.3250531234350433,0.06344714486756246,8.085187240782371,-8.075491783788792,64.23092339065512,1,40.53,2.7463481426239014,15.92,40.53,0,0,1,0,1,0
1767979692.1602366,20260109132812.160189,18.189096,-64.95872883333332,0.16862396447335254,2.0628251764980723,0.5053516802807415,0.3250531234350433,0.06344714486756246,9.133665195733299,-6.1905057479292065,60.6973988921686,1,40.53,2.6854217052459717,15.84,40.53,0,0,1,0,1,0
1767979692.2622805,20260109132812.262233,18.189096,-64.95872883333332,0.14858073669355018,2.0628251764980723,0.5053516802807415,0.3250531234350433,0.021964405482259877,9.133665195733299,-6.1905057479292065,60.6973988921686,1,40.53,1.9980422258377075,15.84,40.53,0,0,1,0,1,0
1767979692.336066,20260109132812.336018,18.189096,-64.95872883333332,0.14858073669355018,2.0628251764980723,0.5053516802807415,0.3250531234350433,0.021964405482259877,9.23208142667412,-4.771402813071007,59.05580331931553,1,40.53,2.043128490447998,15.84,40.53,0,0,1,0,1,0
1767979692.4495883,20260109132812.449541,18.1890985,-64.95872816666666,0.14778095517149958,2.0628251764980723,0.4272716739709319,0.27811003848635024,0.015753400940669904,8.24012074599265,-4.478618538759641,57.44753225133858,1,40.53,2.043128490447998,15.84,40.53,0,0,1,0,1,0
1767979692.5329356,20260109132812.532888,18.1890985,-64.95872816666666,0.14778095517149958,2.0628251764980723,0.4272716739709319,0.27811003848635024,0.015753400940669904,6.742614468504478,-5.734959715045982,55.69442697022398,1,41.26,2.043128490447998,15.84,41.26,0,0,1,0,1,0
1767979692.6410131,20260109132812.640966,18.1890985,-64.95872816666666,0.14778095517149958,2.0628251764980723,0.4272716739709319,0.27811003848635024,0.015753400940669904,3.8717965682744886,-11.702244982686631,51.53456707070312,1,41.26,1.9506617784500122,15.84,41.26,0,0,1,0,1,0
1767979692.7522085,20260109132812.752161,18.1890985,-64.95872816666666,0.19361412662318522,2.0628251764980723,0.4272716739709319,0.27811003848635024,-0.012276507558332317,3.8717965682744886,-11.702244982686631,51.53456707070312,1,41.26,1.7930876016616821,15.72,41.26,0,0,1,0,1,0
1767979692.8429265,20260109132812.842879,18.18909884753798,-64.95872793493061,0.2694396355048221,2.0628251764980723,0.2816643021916777,0.44463380536220504,0.12953707617253102,3.572170789846023,-15.180553358405826,49.4799839620157,5,41.26,1.7930876016616821,15.72,41.26,0,0,1,0,1,0
1767979692.9331849,20260109132812.933137,18.189099262203683,-64.95872769469138,0.2694396355048221,2.0628251764980723,0.2537972134821232,0.4611084193860589,0.12953707617253102,5.3815984713256215,-21.265586433684817,45.95544116549931,5,41.26,1.8333739042282104,15.72,41.26,0,0,1,0,1,0
1767979693.1210766,20260109132813.121029,18.189099713298347,-64.95872743334675,0.2694396355048221,2.0628251764980723,0.25379723399588067,0.4611084080951465,0.12953707617253102,5.3815984713256215,-21.265586433684817,45.95544371447068,5,41.26,2.12813138961792,15.72,41.26,0,0,1,0,1,0
1767979693.1525662,20260109132813.152519,18.189099953618005,-64.95872730766747,0.36291062270101665,2.0628251764980723,0.11974306741016207,0.24101161342807817,0.28913849138092534,6.403992778283342,-23.656187648928157,44.383488775296,5,40.66,2.021918773651123,15.72,40.66,0,0,1,0,1,0
1767979693.2616465,20260109132813.261599,18.189100197315714,-64.95872718843877,0.41091062270101675,2.0628251764980723,0.11343252930507089,0.24404520338546756,0.3179849103146367,6.8446370406165595,-25.83151659248471,42.892748229486756,5,40.66,2.2102322578430176,15.72,40.66,0,0,1,0,1,0
1767979693.3359094,20260109132813.335862,18.189100350994533,-64.95872711776053,0.41091062270101675,2.0628251764980723,0.10774948835469667,0.24660707159224185,0.3179849103146367,6.8552217031806615,-28.088415099370476,41.5655361312578,5,40.66,2.2102322578430176,15.72,40.66,0,0,1,0,1,0
1767979693.443088,20260109132813.443040,18.18910057588845,-64.95872702351369,0.41091062270101675,2.0628251764980723,0.09954549177546505,0.25003138816392795,0.3179849103146367,5.700290943083153,-32.59249958066939,39.67276367696028,5,40.66,2.2102322578430176,15.84,40.66,0,0,1,0,1,0
1767979693.5313056,20260109132813.531258,18.189100800730376,-64.95872692928863,0.5096148347415684,2.0628251764980723,0.09954549177546505,0.25003138816392795,0.44950068205164245,5.700290943083153,-32.59249958066939,39.67276367696028,5,40.66,2.2102322578430176,15.84,40.66,0,0,1,0,1,0
1767979693.6471245,20260109132813.647077,18.18910103509913,-64.9587268341162,0.5536148347415689,2.0628251764980723,0.09686463143043277,0.25108214428319353,0.40291305889562024,3.7035228450715416,-34.93055613183974,39.05972665899497,5,40.66,3.506920576095581,15.84,40.66,0,0,1,0,1,0
1767979693.7387464,20260109132813.738699,18.189101270900704,-64.95872673836195,0.5536148347415689,2.0628251764980723,0.09686463143043277,0.25108214428319353,0.40291305889562024,3.7035228450715416,-34.93055613183974,39.05972665899497,5,40.66,4.002798080444336,15.84,40.66,0,0,1,0,1,0
1767979693.8519766,20260109132813.851929,18.189101534171797,-64.95872638818904,0.6145772406767751,2.0628251764980723,0.35271809008390353,0.2791324935000641,0.3232758091943693,2.5559716801240904,-34.89965976008176,39.05870896044473,5,44.61,3.2447566986083984,15.84,44.61,0,0,1,0,1,0
1767979693.9334087,20260109132813.933361,18.189101751625582,-64.95872609739861,0.6145772406767751,2.0628251764980723,0.3534463434661623,0.2782097810832673,0.3232758091943693,1.6068183715984108,-34.34979859943389,39.20844042096833,5,44.61,3.2447566986083984,15.84,44.61,0,0,1,0,1,0
1767979694.040183,20260109132814.040135,18.189102014758394,-64.95872573788161,0.6644559749990508,2.0628251764980723,0.3563247959387611,0.2745134601421218,0.31017322958193594,0.5899222621668025,-32.573436515879635,39.80520109232166,5,44.61,3.7118477821350098,15.84,44.61,0,0,1,0,1,0
1767979694.1431425,20260109132814.143095,18.18910227264901,-64.95872538552699,0.6644559749990508,2.0628251764980723,0.3563247959387611,0.2745134601421218,0.31017322958193594,0.5899222621668025,-32.573436515879635,39.80520109232166,5,44.61,2.054473876953125,15.84,44.61,0,0,1,0,1,0
1767979694.2311358,20260109132814.231088,18.189102490434518,-64.95872508404824,0.7166317171523654,2.0628251764980723,0.3580514896760763,0.2722574714139957,0.3228090445512481,0.5048312014527485,-31.70670910595655,40.167078304321564,5,44.61,2.054473876953125,15.84,44.61,0,0,1,0,1,0
1767979694.334282,20260109132814.334234,18.189102729198677,-64.95872474033908,0.7166317171523654,2.0628251764980723,0.36309332180204545,0.2654962140271614,0.3228090445512481,0.392084241333311,-30.442389412093156,41.24142646377781,5,44.61,2.680774688720703,15.84,44.61,0,0,1,0,1,0
1767979694.437702,20260109132814.437654,18.189103032478748,-64.95872426499272,0.7557499419001666,2.0628251764980723,0.4818686315877168,0.32361183830598866,0.29387168792669194,0.392084241333311,-30.442389412093156,41.24142646377781,5,51.52,2.680774688720703,15.84,51.52,0,0,1,0,1,0
1767979694.5329452,20260109132814.532898,18.189103305109413,-64.95872382369748,0.7557499419001666,2.0628251764980723,0.486609820114502,0.3164378026850334,0.29387168792669194,0.40803783471117205,-30.093134394192695,42.0902519414852,5,51.52,2.680774688720703,15.67,51.52,0,0,1,0,1,0
1767979694.6398456,20260109132814.639798,18.18910357340154,-64.95872335241327,0.7557499419001666,2.0628251764980723,0.49790263222064546,0.2983537645610538,0.29387168792669194,0.1703790497260915,-29.83716613333224,44.19489352449873,5,51.52,2.680774688720703,15.67,51.52,0,0,1,0,1,0
1767979694.735158,20260109132814.735110,18.189103855618576,-64.95872285666847,0.8255184507652623,2.0628251764980723,0.49790263222064546,0.2983537645610538,0.29709948976458783,0.1703790497260915,-29.83716613333224,44.19489352449873,5,51.52,3.88987135887146,15.67,51.52,0,0,1,0,1,0
1767979694.8449469,20260109132814.844899,18.189104114178104,-64.95872236159195,0.8720378104771884,2.0628251764980723,0.5086571230401649,0.2796246254901429,0.283634691675252,-0.28040121695968845,-29.615762057125554,46.32686270415287,5,51.52,3.515378952026367,15.67,51.52,0,0,1,0,1,0
1767979694.9303992,20260109132814.930352,18.189104345556753,-64.95872191856,0.8720378104771884,2.0628251764980723,0.5086571230401649,0.2796246254901429,0.283634691675252,-0.28040121695968845,-29.615762057125554,46.32686270415287,5,51.52,3.515378952026367,15.67,51.52,0,0,1,0,1,0
1767979695.049538,20260109132815.049490,18.18910455378393,-64.95872177300976,0.8720378104771884,2.0628251764980723,0.14168868488353256,0.21336428139680505,0.283634691675252,-0.7008843811601517,-29.016484460163102,48.05723027739027,5,48.72,2.4712467193603516,15.67,48.72,0,0,1,0,1,0
1767979695.1488497,20260109132815.148802,18.189104761806192,-64.95872162760276,0.9422568762233792,2.0628251764980723,0.14168868488353256,0.21336428139680505,0.2532110529043386,-0.7008843811601517,-29.016484460163102,48.05723027739027,5,48.72,2.655738592147827,15.78,48.72,0,0,1,0,1,0
1767979695.2616096,20260109132815.261562,18.189104972444717,-64.95872147681709,0.9862568762233797,2.0628251764980723,0.14403326606436515,0.21178861694347928,0.3030145988662133,-0.8946373871203622,-28.545310521984092,48.68915960535505,5,48.72,2.655738592147827,15.78,48.72,0,0,1,0,1,0
1767979695.329877,20260109132815.329829,18.189105109773262,-64.95872137688941,0.9862568762233797,2.0628251764980723,0.14564450067354542,0.21068383759451892,0.3030145988662133,-1.0560215814214313,-28.033737707966562,49.12618941566446,5,48.72,2.655738592147827,15.78,48.72,0,0,1,0,1,0
1767979695.4371777,20260109132815.437130,18.189105306500192,-64.95872123082803,0.9862568762233797,2.0628251764980723,0.14762969498019454,0.20929757084126593,0.3030145988662133,-1.2871296523612121,-26.54326695472598,49.66784410109023,5,48.72,2.11299467086792,15.78,48.72,0,0,1,0,1,0
1767979695.5359519,20260109132815.535904,18.18910549371467,-64.95872109182925,1.0374721294989764,2.0628251764980723,0.14762969498019454,0.20929757084126593,0.28940128097669493,-1.2871296523612121,-26.54326695472598,49.66784410109023,5,48.72,2.052147388458252,15.78,48.72,0,0,1,0,1,0
1767979695.6349075,20260109132815.634860,18.189105674373057,-64.95872095751912,1.063580484506227,2.0628251764980723,0.14776112853099427,0.20920480131977612,0.2838694565372632,-1.1534781704407324,-25.79113479212522,49.70383238069515,5,48.72,2.052147388458252,15.78,48.72,0,0,1,0,1,0
1767979695.7380521,20260109132815.738004,18.189105875710524,-64.95872080877412,1.063580484506227,2.0628251764980723,0.14714079305974323,0.20964156796243877,0.2838694565372632,-0.7983932638339775,-24.636916079503294,49.5341157795141,5,48.72,2.557451009750366,15.84,48.72,0,0,1,0,1,0
1767979695.847473,20260109132815.847425,18.189106081135275,-64.95872065700951,1.1180129430930659,2.0628251764980723,0.14714079305974323,0.20964156796243877,0.25533040265405893,-0.7983932638339775,-24.636916079503294,49.5341157795141,5,48.72,2.557451009750366,15.84,48.72,0,0,1,0,1,0
1767979695.9567575,20260109132815.956710,18.189106289996314,-64.95872050361397,1.1180129430930659,2.0628251764980723,0.14655916007419867,0.21004859580188917,0.25533040265405893,-0.6848855110824248,-24.30331586077808,49.375307645535635,5,48.72,3.2716896533966064,15.84,48.72,0,0,1,0,1,0
1767979696.0866692,20260109132816.086622,18.189106497034352,-64.95872035257169,1.1620129430930664,2.0628251764980723,0.14589944388814133,0.21050736869081588,0.2835999160942802,-0.5756701068721861,-24.132463740241523,49.1955506626846,5,48.72,3.5508034229278564,15.84,48.72,0,0,1,0,1,0
1767979696.1324847,20260109132816.132437,18.189106619077293,-64.95872026425218,1.1620129430930664,2.0628251764980723,0.1451042691177752,0.21105627468473018,0.2835999160942802,-0.5604863774746749,-24.07530186663865,48.97940241892353,5,48.72,3.5508034229278564,15.84,48.72,0,0,1,0,1,0
1767979696.2389145,20260109132816.238867,18.189106815893556,-64.958720124652,1.1620129430930664,2.0628251764980723,0.1431270474137623,0.21240209108814967,0.2835999160942802,-0.806107324929547,-24.25107343268393,48.44435252878682,5,48.72,2.663330554962158,15.84,48.72,0,0,1,0,1,0
1767979696.33722,20260109132816.337172,18.189107001142975,-64.95871999325608,1.2036442437796164,2.0628251764980723,0.1431270474137623,0.21240209108814967,0.24592572353099967,-0.806107324929547,-24.25107343268393,48.44435252878682,5,48.72,2.663330554962158,15.84,48.72,0,0,1,0,1,0
1767979696.4316618,20260109132816.431614,18.189107197580526,-64.95871985763672,1.2736442437796167,2.0628251764980723,0.14047164717307886,0.21416749599433163,0.2672785482876736,-1.2931471578933433,-24.603063942325115,47.73102780737892,5,48.72,2.8007686138153076,15.84,48.72,0,0,1,0,1,0
1767979696.5534863,20260109132816.553439,18.189107400165387,-64.95871971777329,1.2736442437796167,2.0628251764980723,0.14047164717307886,0.21416749599433163,0.2672785482876736,-1.2931471578933433,-24.603063942325115,47.73102780737892,5,48.72,3.9112417697906494,15.84,48.72,0,0,1,0,1,0
1767979696.6293645,20260109132816.629317,18.189107579776778,-64.95871959570307,1.2928011801568355,2.0628251764980723,0.1389302196225782,0.215170616199383,0.27013535750473655,-1.6482067714467747,-24.769939183795447,47.31961804580703,5,48.72,3.9112417697906494,15.84,48.72,0,0,1,0,1,0
1767979696.7347472,20260109132816.734700,18.189107783105385,-64.95871946233575,1.2928011801568355,2.0628251764980723,0.13545582822417584,0.21737460431269925,0.27013535750473655,-2.272817975986013,-24.940395153218493,46.39918825433272,5,48.72,3.9112417697906494,15.84,48.72,0,0,1,0,1,0
1767979696.840261,20260109132816.840213,18.18910799123587,-64.95871932581878,1.360851034584326,2.0628251764980723,0.13545582822417584,0.21737460431269925,0.2610996340779664,-2.272817975986013,-24.940395153218493,46.39918825433272,5,48.72,2.3941564559936523,15.84,48.72,0,0,1,0,1,0
1767979696.946367,20260109132816.946319,18.18910819807244,-64.95871919276598,1.360851034584326,2.0628251764980723,0.13355958990642042,0.21854481449814542,0.2610996340779664,-2.6081592532418774,-24.947078495711086,45.90072087047115,5,48.72,2.363662004470825,15.86,48.72,0,0,1,0,1,0
1767979697.038381,20260109132817.038333,18.189108364610703,-64.95871908772968,1.422885087207925,2.0628251764980723,0.13164404993311968,0.21970399203748275,0.2987570426616931,-2.9968868022434503,-24.95945480291246,45.39985608935374,5,48.72,2.363662004470825,15.86,48.72,0,0,1,0,1,0
1767979697.1365068,20260109132817.136459,18.189108565778387,-64.95871896517271,1.422885087207925,2.0628251764980723,0.12830104095846934,0.22167282848597653,0.2987570426616931,-3.631705087816727,-25.062138196063025,44.53195047137755,5,48.72,2.954784631729126,15.86,48.72,0,0,1,0,1,0
1767979697.2322495,20260109132817.232202,18.189108763330356,-64.95871884481853,1.4759516712974596,2.0628251764980723,0.12830104095846934,0.22167282848597653,0.32601340176184634,-3.631705087816727,-25.062138196063025,44.53195047137755,5,48.72,2.954784631729126,15.86,48.72,0,0,1,0,1,0
1767979697.3305633,20260109132817.330516,18.189108963449165,-64.95871872472114,1.4759516712974596,2.0628251764980723,0.1268578374365848,0.22250188556709588,0.32601340176184634,-3.852247279219337,-25.16370314533709,44.1596230662109,5,48.72,2.954784631729126,15.86,48.72,0,0,1,0,1,0
1767979697.4480817,20260109132817.448034,18.189109181473217,-64.95871859713135,1.4759516712974596,2.0628251764980723,0.12445573720860843,0.22385434879819022,0.32601340176184634,-4.144031784233464,-25.62802640132903,43.54294555611628,5,48.72,2.4236581325531006,15.86,48.72,0,0,1,0,1,0
1767979697.5483801,20260109132817.548333,18.189109400894825,-64.95871846872372,1.5189885912837369,2.0628251764980723,0.12445573720860843,0.22385434879819022,0.30912572485422785,-4.144031784233464,-25.62802640132903,43.54294555611628,5,48.72,1.8680627346038818,15.7,48.72,0,0,1,0,1,0
1767979697.6485684,20260109132817.648521,18.189109605569154,-64.95871835033466,1.5629885912837356,2.0628251764980723,0.12334925827318345,0.22446594504168219,0.3539133004462452,-4.119389306670437,-25.953601144909847,43.26012781202808,5,48.72,2.4310171604156494,15.7,48.72,0,0,1,0,1,0
1767979697.7308452,20260109132817.730798,18.18910968141481,-64.95871837167567,1.5629885912837356,2.0628251764980723,-0.027729994536478425,0.10373546839440634,0.3539133004462452,-4.106479390749349,-26.24823512048721,42.972006424152994,5,45.16,2.4310171604156494,15.7,45.16,0,0,1,0,1,0
1767979697.8477662,20260109132817.847719,18.189109774432765,-64.95871839900919,1.5629885912837356,2.0628251764980723,-0.02887253795306679,0.10342328824857927,0.3539133004462452,-4.345149764464807,-26.589229021632665,42.340005379176304,5,45.16,3.863792896270752,15.7,45.16,0,0,1,0,1,0
1767979697.933633,20260109132817.933585,18.1891098674351,-64.9587184263381,1.6197418823389411,2.0628251764980723,-0.02887253795306679,0.10342328824857927,0.32330535139215894,-4.345149764464807,-26.589229021632665,42.340005379176304,5,45.16,3.863792896270752,15.7,45.16,0,0,1,0,1,0
1767979698.0369415,20260109132818.036894,18.189109966938666,-64.95871845676248,1.6527863820465762,2.0628251764980723,-0.029953326050576337,0.10311546081217823,0.22619745132421318,-4.71486504822673,-26.624809197288744,41.74036919715421,5,45.16,2.4280855655670166,15.7,45.16,0,0,1,0,1,0
1767979698.1337452,20260109132818.133698,18.189110056324576,-64.95871848409328,1.6527863820465762,2.0628251764980723,-0.029953326050576337,0.10311546081217823,0.22619745132421318,-4.71486504822673,-26.624809197288744,41.74036919715421,5,45.16,2.4280855655670166,15.7,45.16,0,0,1,0,1,0
1767979698.2320387,20260109132818.231991,18.189110145540827,-64.95871851180853,1.6527863820465762,2.0628251764980723,-0.030394307891821258,0.10298633913183425,0.22619745132421318,-4.97907052017153,-26.566856729006762,41.4951858088495,5,45.16,2.4280855655670166,15.7,45.16,0,0,1,0,1,0
1767979698.3356555,20260109132818.335608,18.189110199700558,-64.95871837613531,1.7046277955059084,2.0628251764980723,0.14059808348075095,0.059077736259438615,0.2583041935083101,-5.246952342751636,-26.3255477668941,41.14741977272049,5,45.25,2.4280855655670166,15.7,45.25,0,0,1,0,1,0
1767979698.4386916,20260109132818.438644,18.189110254407115,-64.95871823909224,1.7381642910613744,2.0628251764980723,0.14059808348075095,0.059077736259438615,0.2394523651839986,-5.246952342751636,-26.3255477668941,41.14741977272049,5,45.25,3.7689433097839355,15.7,45.25,0,0,1,0,1,0
1767979698.5301602,20260109132818.530113,18.189110305077786,-64.95871811263025,1.7381642910613744,2.0628251764980723,0.1405194306152026,0.05926457305658465,0.2394523651839986,-5.231204482215654,-26.179851242065425,41.071259721148174,5,45.25,3.7689433097839355,15.7,45.25,0,0,1,0,1,0
1767979698.6361048,20260109132818.636057,18.1891103606062,-64.95871797344377,1.7381642910613744,2.0628251764980723,0.1406109082892381,0.05904720543832254,0.2394523651839986,-4.988935024407515,-25.846100759124745,41.15986096674219,5,45.25,2.721020221710205,15.7,45.25,0,0,1,0,1,0
1767979698.7388244,20260109132818.738777,18.189110411286972,-64.9587178464083,1.8032863335357405,2.0628251764980723,0.1406109082892381,0.05904720543832254,0.2294754381947686,-4.988935024407515,-25.846100759124745,41.15986096674219,5,45.25,2.721020221710205,15.53,45.25,0,0,1,0,1,0
1767979698.8354392,20260109132818.835392,18.189110464048188,-64.95871771316642,1.8672788527445658,2.0628251764980723,0.14076745735174037,0.058673017228756494,0.31759451888906814,-4.794266879493011,-25.719269223529093,41.312249371802956,5,45.25,2.721020221710205,15.53,45.25,0,0,1,0,1,0
1767979698.9365675,20260109132818.936520,18.18911059136179,-64.95871755060365,1.8672788527445658,2.0628251764980723,0.1631471610152292,0.13449164975072198,0.31759451888906814,-4.383349745491158,-25.602939107537257,41.79432417785859,5,46.03,3.5784738063812256,15.53,46.03,0,0,1,0,1,0
1767979699.0419943,20260109132819.041947,18.189110719533282,-64.95871738694547,1.9008279254227245,2.0628251764980723,0.1631471610152292,0.13449164975072198,0.31691934562465374,-4.383349745491158,-25.602939107537257,41.79432417785859,5,46.03,2.313310146331787,15.53,46.03,0,0,1,0,1,0
1767979699.150843,20260109132819.150795,18.189110847753156,-64.95871722150633,1.9008279254227245,2.0628251764980723,0.16383386105905134,0.1336542777859484,0.31691934562465374,-4.3599994548037735,-25.581294230318058,42.08778336047865,5,46.03,3.3876099586486816,15.53,46.03,0,0,1,0,1,0
1767979699.234546,20260109132819.234498,18.189110945736857,-64.95871709355997,1.936827925422724,2.0628251764980723,0.16461262453808903,0.1326939480258317,0.3207498155587215,-4.302242927643664,-25.545415233778947,42.42283157982563,5,46.03,3.3876099586486816,15.53,46.03,0,0,1,0,1,0
1767979699.3319662,20260109132819.331919,18.189111063228324,-64.95871693618618,1.936827925422724,2.0628251764980723,0.1662452349030993,0.13064272605856528,0.3207498155587215,-3.8662111790835976,-25.47339769341945,43.13325688489413,5,46.03,3.3876099586486816,15.86,46.03,0,0,1,0,1,0
1767979699.443719,20260109132819.443671,18.189111192338977,-64.95871676324909,1.936827925422724,2.0628251764980723,0.1662452349030993,0.13064272605856528,0.3207498155587215,-3.8662111790835976,-25.47339769341945,43.13325688489413,5,46.03,3.466209888458252,15.86,46.03,0,0,1,0,1,0
1767979699.5493476,20260109132819.549300,18.189111410519406,-64.95871667144458,2.019058653344559,2.0628251764980723,0.0894688258574048,0.22381315689587458,0.3489253122919025,-3.5537256439536944,-25.44700071038604,43.45795394885277,5,45.1,3.40252947807312,15.86,45.1,0,0,1,0,1,0
1767979699.6467102,20260109132819.646663,18.189111574630715,-64.95871660136068,2.0630586533445596,2.0628251764980723,0.0906161629205244,0.22335109361174166,0.36008723760523853,-3.2824389708548876,-25.44272159534096,43.75197320718504,5,45.1,3.40252947807312,15.86,45.1,0,0,1,0,1,0
1767979699.731256,20260109132819.731208,18.189111774676995,-64.9587165135473,2.0630586533445596,2.0628251764980723,0.09277408869882806,0.22246340927465352,0.36008723760523853,-2.738897871883226,-25.451245674473036,44.306639407632105,5,45.1,2.416109800338745,15.86,45.1,0,0,1,0,1,0
1767979699.8374984,20260109132819.837451,18.189111988489977,-64.9587164196908,2.0630586533445596,2.0628251764980723,0.09277408869882806,0.22246340927465352,0.36008723760523853,-2.738897871883226,-25.451245674473036,44.306639407632105,5,45.1,2.7102057933807373,15.86,45.1,0,0,1,0,1,0
1767979699.930804,20260109132819.930756,18.18911217446632,-64.95871633692664,2.1109547031871547,2.0628251764980723,0.09386173975273687,0.22200669767056463,0.29715440209531163,-2.4690773421026897,-25.431378354620925,44.58705292427277,5,45.1,2.7102057933807373,15.75,45.1,0,0,1,0,1,0
1767979700.0485437,20260109132820.048496,18.189112398764035,-64.95871623484284,2.1598397137916945,2.0628251764980723,0.09565977721238339,0.22123789689760925,0.27260935610800885,-2.1934460268080365,-25.26061161147952,45.05189527482723,5,45.1,2.086294174194336,15.75,45.1,0,0,1,0,1,0
1767979700.1529372,20260109132820.152890,18.189112606205374,-64.95871614043082,2.1598397137916945,2.0628251764980723,0.09565977721238339,0.22123789689760925,0.27260935610800885,-2.1934460268080365,-25.26061161147952,45.05189527482723,5,45.1,2.086294174194336,15.75,45.1,0,0,1,0,1,0
1767979700.2689302,20260109132820.268883,18.189112821359267,-64.95871606978058,2.1848058475301304,2.0628251764980723,0.069546814795166,0.22293326479430314,0.23170491736528295,-2.1056671789728187,-24.99658543206453,45.42733041717743,5,44.24,2.086294174194336,15.75,44.24,0,0,1,0,1,0
1767979700.372214,20260109132820.372166,18.189113048012427,-64.9587159953543,2.1848058475301304,2.0628251764980723,0.069546814795166,0.22293326479430314,0.23170491736528295,-2.1056671789728187,-24.99658543206453,45.42733041717743,5,44.24,2.544283628463745,15.75,44.24,0,0,1,0,1,0
1767979700.4327135,20260109132820.432666,18.18911317344884,-64.95871595369813,2.275197274601369,2.0628251764980723,0.07026354631774924,0.22270840590075064,0.3439653839807594,-1.9922949628360729,-24.8504176240146,45.61162947745063,5,44.24,2.544283628463745,15.75,44.24,0,0,1,0,1,0
1767979700.530658,20260109132820.530610,18.189113373307777,-64.95871588567421,2.275197274601369,2.0628251764980723,0.07184947835413164,0.2222018282108389,0.3439653839807594,-1.6865971440643188,-24.553698732447614,46.020102256629244,5,44.24,2.9503543376922607,15.78,44.24,0,0,1,0,1,0
