timestamp_ros,timestamp_sys (%Y%m%d%H%M%S.%f),latitude,longitude,depth,distance_to_ocean_floor,velX,velY,velZ,roll,pitch,yaw,navMode,acousticAltimeter,forwardStereo,battery_volts,altitudeUsed,cotsNumFound,cotsNumMaybe,missionState,errorState,storeData,storeImageData
1767988284.3421955,20260109155124.342161,18.188972999999997,-64.9587195,-0.2654698603691882,0.7303162810193973,0.4944167689157496,-0.5307539623055775,-0.17896017954227647,2.823324589741225,27.687972917979973,113.7167104930631,1,-1.0,1.013545274734497,15.42,0.7303162810193973,0,0,1,0,1,0
1767988284.440395,20260109155124.440361,18.188972999999997,-64.9587195,-0.21932991825111642,0.7303162810193973,0.4944167689157496,-0.5307539623055775,-0.10371002114549743,6.11958146511465,23.94959731265903,112.33611020209707,1,-1.0,0.8318837881088257,15.42,0.7303162810193973,0,0,1,0,1,0
1767988284.5512173,20260109155124.551183,18.188969166666666,-64.958718,-0.21932991825111642,0.7303162810193973,0.4603651978971811,-0.702708449250868,-0.10371002114549743,6.11958146511465,23.94959731265903,112.33611020209707,1,-1.0,0.9059902429580688,15.42,0.7303162810193973,0,0,1,0,1,0
1767988284.6467662,20260109155124.646732,18.188969166666666,-64.958718,-0.20911222915302252,0.7303162810193973,0.4603651978971811,-0.702708449250868,-0.062079043434417815,7.044335194766518,20.29697817812562,113.82106216051497,1,-1.0,0.8404191732406616,15.39,0.7303162810193973,0,0,1,0,1,0
1767988284.7538624,20260109155124.753828,18.188969166666666,-64.958718,-0.20911222915302252,0.7303162810193973,0.4603651978971811,-0.702708449250868,-0.062079043434417815,7.044335194766518,20.29697817812562,113.82106216051497,1,-1.0,0.8404191732406616,15.39,0.7303162810193973,0,0,1,0,1,0
1767988284.8383777,20260109155124.838343,18.188969166666666,-64.958718,-0.18482960084619426,0.7303162810193973,0.4603651978971811,-0.702708449250868,0.024528098162812102,0.7308950691651513,10.967678365364677,115.97534557616629,1,0.12,0.9501643776893616,15.39,0.12,0,0,1,0,1,0
1767988284.9397564,20260109155124.939722,18.188966333333333,-64.95871666666667,-0.18482960084619426,0.7303162810193973,0.3546048044636972,-0.5475067710829423,0.024528098162812102,0.7308950691651513,10.967678365364677,115.97534557616629,1,0.12,0.9501643776893616,15.39,0.12,0,0,1,0,1,0
1767988285.0550926,20260109155125.055058,18.188966333333333,-64.95871666666667,-0.10265241328210725,0.7303162810193973,0.3546048044636972,-0.5475067710829423,0.17910602674161338,-0.6769843667697191,6.012060161867743,116.65402073552526,1,-1.0,0.7337908148765564,15.39,0.7303162810193973,0,0,1,0,1,0
1767988285.1433911,20260109155125.143357,18.188966333333333,-64.95871666666667,-0.10265241328210725,0.7303162810193973,0.3546048044636972,-0.5475067710829423,0.17910602674161338,1.5663151218943272,3.0250007246933928,117.25597918269553,1,-1.0,0.6467326283454895,15.39,0.7303162810193973,0,0,1,0,1,0
1767988285.2371616,20260109155125.237127,18.188966333333333,-64.95871666666667,-0.06406219036570504,0.7303162810193973,0.3546048044636972,-0.5475067710829423,0.2657638670656932,4.666863742236791,2.233748212746537,117.76689117567457,1,-1.0,0.6467326283454895,15.42,0.7303162810193973,0,0,1,0,1,0
1767988285.361674,20260109155125.361640,18.188966333333333,-64.95871666666667,-0.06406219036570504,0.7303162810193973,0.3546048044636972,-0.5475067710829423,0.2657638670656932,6.781666942821441,2.462650558682536,118.28099969832815,1,-1.0,0.5851683616638184,15.42,0.7303162810193973,0,0,1,0,1,0
1767988285.4435847,20260109155125.443550,18.188966333333333,-64.95871666666667,-0.015712730825160247,0.7303162810193973,0.3546048044636972,-0.5475067710829423,0.28380065525777276,5.860902898845075,1.668365228216355,118.31676258160986,1,-1.0,0.5851683616638184,15.42,0.7303162810193973,0,0,1,0,1,0
1767988285.5518117,20260109155125.551777,18.188964166666665,-64.95871516666666,-0.015712730825160247,0.7303162810193973,0.3319805897366872,-0.42675508293300374,0.28380065525777276,1.9855507889494275,-1.1694998789716462,116.49062889177719,1,-1.0,0.8648138642311096,15.42,0.7303162810193973,0,0,1,0,1,0
1767988285.6366036,20260109155125.636569,18.188964166666665,-64.95871516666666,0.028184794563208132,0.7303162810193973,0.3319805897366872,-0.42675508293300374,0.3067862918940424,1.9855507889494275,-1.1694998789716462,116.49062889177719,1,-1.0,0.373434841632843,15.42,0.7303162810193973,0,0,1,0,1,0
1767988285.7538266,20260109155125.753792,18.188964166666665,-64.95871516666666,0.028184794563208132,0.7303162810193973,0.3319805897366872,-0.42675508293300374,0.3067862918940424,0.6623861662203419,-2.471513799516851,114.98147073428548,1,-1.0,0.5849446654319763,15.42,0.7303162810193973,0,0,1,0,1,0
1767988285.836604,20260109155125.836570,18.188964166666665,-64.95871516666666,0.08313982190658536,0.7303162810193973,0.3319805897366872,-0.42675508293300374,0.3447301698828233,-0.5677008740868446,-3.329430475703621,113.49395062382139,1,-1.0,0.5849446654319763,15.31,0.7303162810193973,0,0,1,0,1,0
1767988285.9373136,20260109155125.937279,18.188963333333334,-64.95871433333333,0.08313982190658536,0.7303162810193973,0.18530995531698066,-0.2299033582340463,0.3447301698828233,-2.466426373983178,-3.20421043844148,110.10369360687697,1,-1.0,0.4091413915157318,15.31,0.7303162810193973,0,0,1,0,1,0
1767988286.0491471,20260109155126.049113,18.188963333333334,-64.95871433333333,0.0981786156577401,0.7303162810193973,0.18530995531698066,-0.2299033582340463,0.20045353738009566,-2.466426373983178,-3.20421043844148,110.10369360687697,1,-1.0,0.43787533044815063,15.31,0.7303162810193973,0,0,1,0,1,0
1767988286.138241,20260109155126.138207,18.188963333333334,-64.95871433333333,0.0981786156577401,0.7303162810193973,0.18530995531698066,-0.2299033582340463,0.20045353738009566,-2.9953696459315755,-2.1433775206379537,108.09836300990547,1,-1.0,0.43787533044815063,15.31,0.7303162810193973,0,0,1,0,1,0
1767988286.2473018,20260109155126.247268,18.188963333333334,-64.95871433333333,0.14528329409829346,0.7303162810193973,0.18530995531698066,-0.2299033582340463,0.20909164060897342,-4.158305177155141,0.7396440643725979,104.11823277246917,1,-1.0,0.7044771909713745,15.31,0.7303162810193973,0,0,1,0,1,0
1767988286.3559232,20260109155126.355889,18.188963333333334,-64.95871433333333,0.14528329409829346,0.7303162810193973,0.18530995531698066,-0.2299033582340463,0.20909164060897342,-4.158305177155141,0.7396440643725979,104.11823277246917,1,-1.0,0.6385337710380554,15.31,0.7303162810193973,0,0,1,0,1,0
1767988286.4742332,20260109155126.474199,18.188961666666668,-64.958713,0.12675498781443462,0.7303162810193973,0.26600375750330324,-0.44393222917897446,0.12464731677928516,-4.615858432598418,1.4245570563040744,102.34486914303268,1,-1.0,0.8360812664031982,15.31,0.7303162810193973,0,0,1,0,1,0
1767988286.5935733,20260109155126.593539,18.188961666666668,-64.958713,0.13975498781443452,0.7303162810193973,0.26600375750330324,-0.44393222917897446,0.1232125368566959,-4.503034766225523,1.001397444167739,100.60289707424606,1,-1.0,0.8077514171600342,15.31,0.7303162810193973,0,0,1,0,1,0
1767988286.63847,20260109155126.638436,18.188961666666668,-64.958713,0.13975498781443452,0.7303162810193973,0.26600375750330324,-0.44393222917897446,0.1232125368566959,-3.729142466922109,-0.43180847566751185,98.67226145274606,1,-1.0,0.8077514171600342,15.31,0.7303162810193973,0,0,1,0,1,0
1767988286.7505126,20260109155126.750478,18.188961666666668,-64.958713,0.13975498781443452,0.7303162810193973,0.26600375750330324,-0.44393222917897446,0.1232125368566959,-1.3336507277626601,-3.8997004623323615,94.0490481844422,1,-1.0,0.7740815281867981,15.31,0.7303162810193973,0,0,1,0,1,0
1767988286.8587022,20260109155126.858668,18.188961666666668,-64.958713,0.15295019209604216,0.7303162810193973,0.26600375750330324,-0.44393222917897446,0.07876660525381665,-1.3336507277626601,-3.8997004623323615,94.0490481844422,1,-1.0,0.6569761037826538,15.31,0.7303162810193973,0,0,1,0,1,0
1767988286.9640672,20260109155126.964033,18.188959333333333,-64.95871183333334,0.17212645150020894,0.7303162810193973,0.31420848982816413,-0.594439722451815,0.09802000615516718,-0.22009894931959537,-4.512945374254874,91.60452943661181,1,-1.0,0.6186394095420837,15.31,0.7303162810193973,0,0,1,0,1,0
1767988287.0513854,20260109155127.051351,18.188959333333333,-64.95871183333334,0.17212645150020894,0.7303162810193973,0.31420848982816413,-0.594439722451815,0.09802000615516718,0.4710244210157486,-3.8007361085146587,89.06159445784058,1,-1.0,0.6186394095420837,15.31,0.7303162810193973,0,0,1,0,1,0
1767988287.1559806,20260109155127.155946,18.188959333333333,-64.95871183333334,0.17212645150020894,0.7303162810193973,0.31420848982816413,-0.594439722451815,0.09802000615516718,-0.04770734094624082,-0.5390249549332937,83.98154382355179,1,-1.0,0.5947088003158569,15.31,0.7303162810193973,0,0,1,0,1,0
1767988287.2624767,20260109155127.262442,18.188959333333333,-64.95871183333334,0.15844768543089538,0.7303162810193973,0.31420848982816413,-0.594439722451815,0.07277644952467767,-0.04770734094624082,-0.5390249549332937,83.98154382355179,1,-1.0,0.5252705216407776,15.31,0.7303162810193973,0,0,1,0,1,0
1767988287.3374913,20260109155127.337457,18.188959333333333,-64.95871183333334,0.15844768543089538,0.7303162810193973,0.31420848982816413,-0.594439722451815,0.07277644952467767,-0.2533567531057696,0.21341483309437287,81.79349877076116,1,-1.0,0.5252705216407776,15.31,0.7303162810193973,0,0,1,0,1,0
1767988287.4492598,20260109155127.449226,18.188958166666666,-64.958712,0.1305095859666773,0.7303162810193973,0.08646009131348678,-0.23897367485761503,0.02061729439945962,1.2157350468210808,-1.1776836224622953,78.30008798761332,1,41.94,0.8876205682754517,15.31,41.94,0,0,1,0,1,0
1767988287.5755544,20260109155127.575520,18.188958166666666,-64.958712,0.1305095859666773,0.7303162810193973,0.08646009131348678,-0.23897367485761503,0.02061729439945962,1.2157350468210808,-1.1776836224622953,78.30008798761332,1,41.94,0.9585074186325073,15.31,41.94,0,0,1,0,1,0
1767988287.6624117,20260109155127.662377,18.188958166666666,-64.958712,0.14020811205091663,0.7303162810193973,0.08646009131348678,-0.23897367485761503,0.03097330017200546,5.340222451199585,-5.78501477427631,74.85467979111637,1,41.94,0.6965136528015137,15.33,41.94,0,0,1,0,1,0
1767988287.7698107,20260109155127.769776,18.188958166666666,-64.958712,0.18103608680987976,0.7303162810193973,0.08646009131348678,-0.23897367485761503,0.035268726762103526,5.340222451199585,-5.78501477427631,74.85467979111637,1,41.94,0.9936949014663696,15.33,41.94,0,0,1,0,1,0
1767988287.877861,20260109155127.877827,18.188958166666666,-64.958712,0.18103608680987976,0.7303162810193973,0.08646009131348678,-0.23897367485761503,0.035268726762103526,7.792861869969958,-8.510971140602225,72.73037408645118,1,41.94,0.9576543569564819,15.33,41.94,0,0,1,0,1,0
1767988287.9854217,20260109155127.985387,18.188958166666666,-64.958713,0.17703608680987842,0.7303162810193973,0.005276892185415442,-0.24378745630252818,0.037946296793546636,10.187393860486138,-10.961009537029254,70.29332756824459,1,41.94,0.8127352595329285,15.33,41.94,0,0,1,0,1,0
1767988288.0479279,20260109155128.047894,18.188958166666666,-64.958713,0.17703608680987842,0.7303162810193973,0.005276892185415442,-0.24378745630252818,0.037946296793546636,11.972187815585723,-12.609207343849533,67.51502418651548,1,41.94,0.8127352595329285,15.33,41.94,0,0,1,0,1,0
1767988288.1428702,20260109155128.142836,18.188958166666666,-64.958713,0.17703608680987842,0.7303162810193973,0.005276892185415442,-0.24378745630252818,0.037946296793546636,11.00750692020356,-11.336305514225355,61.115592268681176,1,41.94,0.8127352595329285,15.33,41.94,0,0,1,0,1,0
1767988288.2386916,20260109155128.238657,18.188958037870265,-64.95871286312669,0.2049596384340428,0.7303162810193973,0.1510768182651285,-0.14963888192206373,0.08682219749757852,11.00750692020356,-11.336305514225355,61.115592268681176,5,41.94,0.8127352595329285,15.33,41.94,0,0,1,0,1,0
1767988288.3459234,20260109155128.345889,18.188957915508375,-64.95871269783954,0.2049596384340428,0.7303162810193973,0.16772972515308793,-0.13070095370757465,0.08682219749757852,6.8638281714990645,-6.495570706759385,54.31654633018937,5,41.94,0.8127352595329285,15.33,41.94,0,0,1,0,1,0
1767988288.437501,20260109155128.437467,18.188957802778713,-64.95871254556364,0.16550050422703896,0.7303162810193973,0.16772972515308793,-0.13070095370757465,0.02987761561966622,6.8638281714990645,-6.495570706759385,54.31654633018937,5,41.94,0.8127352595329285,15.33,41.94,0,0,1,0,1,0
1767988288.5583827,20260109155128.558348,18.188957697125986,-64.9587123607455,0.16550050422703896,0.7303162810193973,0.18219898783294866,-0.10963361178328943,0.02987761561966622,5.371882950644183,-3.2160930508553918,47.42591435236898,5,41.94,0.8127352595329285,15.33,41.94,0,0,1,0,1,0
1767988288.6670935,20260109155128.667059,18.188957591134947,-64.95871217533555,0.14184433403608038,0.7303162810193973,0.18219898783294866,-0.10963361178328943,-0.011102459669537833,5.371882950644183,-3.2160930508553918,47.42591435236898,5,41.94,0.8779206275939941,15.33,41.94,0,0,1,0,1,0
1767988288.7621856,20260109155128.762151,18.1889574943106,-64.95871198261014,0.1322619684345721,0.7303162810193973,0.1879751760301567,-0.09940489523374384,-0.05843908574336293,5.991936282943182,-2.562569004891063,44.26030495526756,5,41.94,0.629166841506958,15.33,41.94,0,0,1,0,1,0
1767988288.8571565,20260109155128.857122,18.18895742003971,-64.95871181306724,0.1322619684345721,0.7303162810193973,0.19310074724238394,-0.08903988664881007,-0.05843908574336293,7.1467880689501655,-2.3851729204595036,41.14425884360042,5,41.94,0.467010498046875,15.31,41.94,0,0,1,0,1,0
1767988288.936518,20260109155128.936484,18.18895736104181,-64.95871165523782,0.11069039807511595,0.7303162810193973,0.197874284911351,-0.07785735270879357,-0.09714159975197786,9.017955773404227,-2.3897316464736997,37.867642443195294,5,41.94,0.467010498046875,15.31,41.94,0,0,1,0,1,0
1767988289.0384796,20260109155129.038445,18.188957302098714,-64.9587114637136,0.11069039807511595,0.7303162810193973,0.20229106073634287,-0.06553111281036844,-0.09714159975197786,11.77716193938552,-2.0768403552733323,34.33900836190314,5,41.94,0.6459155678749084,15.31,41.94,0,0,1,0,1,0
1767988289.1525624,20260109155129.152528,18.18895725485988,-64.95871126867002,0.11069039807511595,0.7303162810193973,0.20605015449261352,-0.05252936163299621,-0.09714159975197786,15.108967827665797,-1.0132034303694917,30.691597248474068,5,41.94,0.6459155678749084,15.31,41.94,0,0,1,0,1,0
1767988289.2417524,20260109155129.241718,18.188957217961168,-64.95871106179877,0.08884507458829079,0.7303162810193973,0.20898912304392897,-0.03923705454451838,-0.1333788079006648,18.47519019770621,0.7055108221208721,27.0228691070232,5,41.94,0.7313579320907593,15.31,41.94,0,0,1,0,1,0
1767988289.3455756,20260109155129.345541,18.18895719561468,-64.95871087114993,0.08884507458829079,0.7303162810193973,0.21104037351297006,-0.0260376793801997,-0.1333788079006648,21.24331659393309,2.483323627701407,23.42302686307759,5,41.94,0.7313579320907593,15.31,41.94,0,0,1,0,1,0
1767988289.4675682,20260109155129.467534,18.188957196752376,-64.95871065822868,0.055526404434469226,0.7303162810193973,0.212637178616209,0.001195939019525187,-0.1271477250065448,25.145353835570795,2.6827088736981146,16.0672998176131,5,41.94,0.7010278105735779,15.0,41.94,0,0,1,0,1,0
1767988289.5571418,20260109155129.557108,18.188957197873997,-64.95871044831607,0.055526404434469226,0.7303162810193973,0.212637178616209,0.001195939019525187,-0.1271477250065448,25.145353835570795,2.6827088736981146,16.0672998176131,5,41.94,0.7240758538246155,15.0,41.94,0,0,1,0,1,0
1767988289.661808,20260109155129.661774,18.188957211812063,-64.95871024143877,0.031405229198976335,0.7303162810193973,0.21210783927265292,0.015042091579512133,-0.14737381451551085,27.204815408617243,1.0058964060053261,12.333080383888209,5,41.94,0.4543854892253876,15.0,41.94,0,0,1,0,1,0
1767988289.749249,20260109155129.749215,18.188957233834103,-64.95871006804967,0.06240522919897692,0.7303162810193973,0.21076539009561066,0.02817712437146602,-0.05761117720659682,29.04654413344858,-0.7148487079113706,8.774849374792314,5,41.94,0.4543854892253876,15.0,41.94,0,0,1,0,1,0
1767988289.8633752,20260109155129.863341,18.18895728069079,-64.95870987289376,0.06240522919897692,0.7303162810193973,0.206158667282514,0.052101860852542356,-0.05761117720659682,29.720113724577413,-0.3381538754565626,2.2063377711448178,5,41.94,0.4892853796482086,15.0,41.94,0,0,1,0,1,0
1767988289.9407718,20260109155129.940738,18.188957329135793,-64.95870967112263,0.06240522919897692,0.7303162810193973,0.206158667282514,0.052101860852542356,-0.05761117720659682,29.720113724577413,-0.3381538754565626,2.2063377711448178,5,41.94,1.0402976274490356,15.0,41.94,0,0,1,0,1,0
1767988290.0397673,20260109155130.039733,18.18895738446855,-64.95870948560011,0.0604140197498382,0.7303162810193973,0.20287776389119583,0.06369154511007082,0.003275756793451566,28.942919881403434,1.7145328412018699,-1.0396450519796974,5,41.94,1.0402976274490356,15.22,41.94,0,0,1,0,1,0
1767988290.154208,20260109155130.154174,18.188957748612456,-64.95870943237925,0.0604140197498382,0.7303162810193973,0.05195267955375266,0.37416295793034493,0.003275756793451566,30.622282998776416,6.097248872977492,-7.602876063736952,5,44.5,0.8929484486579895,15.22,44.5,0,0,1,0,1,0
1767988290.2521968,20260109155130.252163,18.188958106400722,-64.95870938008727,0.08127341026254405,0.7303162810193973,0.05195267955375266,0.37416295793034493,0.07038639959822401,30.622282998776416,6.097248872977492,-7.602876063736952,5,44.5,0.9680298566818237,15.22,44.5,0,0,1,0,1,0
1767988290.368151,20260109155130.368117,18.188958480427598,-64.95870934825754,0.028183765342378937,0.7303162810193973,0.030441148655561384,0.3765240184483986,0.037630091374891234,32.45430772887467,7.146229273898897,-10.885690908574004,5,44.5,1.0464810132980347,15.22,44.5,0,0,1,0,1,0
1767988290.4787428,20260109155130.478709,18.188958848722066,-64.95870933899201,0.028183765342378937,0.7303162810193973,0.009026033671645922,0.3776447149321148,0.037630091374891234,33.69019333505629,7.145811778436605,-14.138720288306411,5,44.5,0.8100398182868958,15.22,44.5,0,0,1,0,1,0
1767988290.5532422,20260109155130.553208,18.188959074768967,-64.95870934583553,0.05135712339515815,0.7303162810193973,-0.010860452697519868,0.37759641228063184,0.07266002853329596,33.90696654134988,6.393389332692328,-17.15536988979398,5,44.5,0.8100398182868958,15.22,44.5,0,0,1,0,1,0
1767988290.6488948,20260109155130.648861,18.188959424039044,-64.95870938020376,0.05135712339515815,0.7303162810193973,-0.0351602661204307,0.37611269014264925,0.07266002853329596,31.722859094023704,5.283700481173401,-20.8485590818432,5,44.5,0.3557738959789276,15.28,44.5,0,0,1,0,1,0
1767988290.7596488,20260109155130.759615,18.18895974930153,-64.95870955124154,0.05135712339515815,0.7303162810193973,-0.18458998758822276,0.36949768129472715,0.07266002853329596,31.722859094023704,5.283700481173401,-20.8485590818432,5,47.11,0.5406338572502136,15.28,47.11,0,0,1,0,1,0
1767988290.8468268,20260109155130.846793,18.188960093601082,-64.9587097365216,0.04657470252672587,0.7303162810193973,-0.18801859941562105,0.36776487906512795,0.012713729174333633,30.48124978727101,5.711093318004911,-21.38145916916995,5,47.11,1.2340022325515747,15.28,47.11,0,0,1,0,1,0
1767988290.9369416,20260109155130.936907,18.188960405842167,-64.95870990743838,0.00892058096402143,0.7303162810193973,-0.19056735768360372,0.36645065450274394,-0.06187708470684629,29.52521762201785,6.206506325554851,-21.779251236214925,5,47.11,1.2340022325515747,15.28,47.11,0,0,1,0,1,0
1767988291.039909,20260109155131.039875,18.188960737168653,-64.95871010713964,0.00892058096402143,0.7303162810193973,-0.2052458063773159,0.3584357110620053,-0.06187708470684629,27.133817274355877,4.881764195367696,-24.099334991931606,5,47.11,0.6685463190078735,15.28,47.11,0,0,1,0,1,0
1767988291.1410322,20260109155131.140998,18.188961064968368,-64.95871030471521,0.00892058096402143,0.7303162810193973,-0.2052458063773159,0.3584357110620053,-0.06187708470684629,27.133817274355877,4.881764195367696,-24.099334991931606,5,47.11,0.8233228921890259,15.28,47.11,0,0,1,0,1,0
1767988291.2415252,20260109155131.241491,18.18896138139814,-64.95871050964824,0.015561554990820528,0.7303162810193973,-0.21644653616901194,0.351785299551355,-0.07777069043780252,25.150075205522764,3.151252547775953,-25.90638256507783,5,47.11,0.7859476208686829,15.39,47.11,0,0,1,0,1,0
1767988291.3430634,20260109155131.343029,18.188961809531392,-64.95871075782631,0.015561554990820528,0.7303162810193973,-0.27451766655600507,0.49847973955683084,-0.07777069043780252,23.60519856099485,1.3560498075462875,-27.935832276180065,5,50.96,0.7859476208686829,15.39,50.96,0,0,1,0,1,0
1767988291.4406936,20260109155131.440659,18.188966999999998,-64.95871149999999,0.07601596854269661,0.7303162810193973,-0.19091568182714766,0.6167489177658241,0.03318609692140127,24.351755579692114,-0.4385472067452087,-31.768939224067026,1,50.96,0.6061215400695801,15.39,50.96,0,0,1,0,1,0
1767988291.5455675,20260109155131.545533,18.188966999999998,-64.95871149999999,0.07601596854269661,0.7303162810193973,-0.19091568182714766,0.6167489177658241,0.03318609692140127,24.351755579692114,-0.4385472067452087,-31.768939224067026,1,50.96,0.7300254106521606,15.39,50.96,0,0,1,0,1,0
1767988291.644406,20260109155131.644372,18.188966999999998,-64.95871149999999,0.04439174282815367,0.7303162810193973,-0.19091568182714766,0.6167489177658241,-0.04511641241234282,25.066319980877623,-0.34365495446976624,-33.058197655054606,1,50.96,0.7300254106521606,15.39,50.96,0,0,1,0,1,0
1767988291.7419937,20260109155131.741959,18.188966999999998,-64.95871149999999,0.04439174282815367,0.7303162810193973,-0.19091568182714766,0.6167489177658241,-0.04511641241234282,22.877678993868816,-0.4839316688932533,-35.55787020015388,1,50.96,0.698794424533844,15.39,50.96,0,0,1,0,1,0
1767988291.8637118,20260109155131.863678,18.188966999999998,-64.95871149999999,0.07057320208000746,0.7303162810193973,-0.19091568182714766,0.6167489177658241,0.07853664963070699,22.877678993868816,-0.4839316688932533,-35.55787020015388,1,50.96,0.7450548410415649,15.31,50.96,0,0,1,0,1,0
1767988291.9544568,20260109155131.954423,18.188968833333334,-64.9587135,0.07057320208000746,0.7303162810193973,-0.3144769149098636,0.5294289774006301,0.07853664963070699,21.165380692541582,-1.3579198926653757,-37.137365114669414,1,46.24,1.0295915603637695,15.31,46.24,0,0,1,0,1,0
1767988292.0545545,20260109155132.054520,18.188968833333334,-64.9587135,0.0734475870478561,0.7303162810193973,-0.3144769149098636,0.5294289774006301,0.07639895902883488,20.165978518098576,-2.707915909286591,-38.6211883839234,1,46.24,0.8247064352035522,15.31,46.24,0,0,1,0,1,0
1767988292.1532006,20260109155132.153166,18.188968833333334,-64.9587135,0.10102726781677226,0.7303162810193973,-0.3144769149098636,0.5294289774006301,0.11446202676188136,20.501590228253587,-3.950421465244894,-39.8548268570646,1,46.24,0.8247064352035522,15.31,46.24,0,0,1,0,1,0
1767988292.2486048,20260109155132.248571,18.188968833333334,-64.9587135,0.10102726781677226,0.7303162810193973,-0.3144769149098636,0.5294289774006301,0.11446202676188136,23.380722606110563,-4.3131477554395845,-42.11652015846216,1,46.24,0.691012442111969,15.31,46.24,0,0,1,0,1,0
1767988292.3377078,20260109155132.337674,18.188968833333334,-64.9587135,0.10102726781677226,0.7303162810193973,-0.3144769149098636,0.5294289774006301,0.11446202676188136,23.380722606110563,-4.3131477554395845,-42.11652015846216,1,46.24,0.8020074963569641,15.31,46.24,0,0,1,0,1,0
1767988292.4509077,20260109155132.450873,18.188969666666665,-64.95871666666667,0.08954167065378242,0.7303162810193973,-0.502276536834446,0.40153652766043024,0.044528045745219416,23.777025691384058,-4.238481381395461,-43.400329804091065,1,46.24,0.8020074963569641,15.33,46.24,0,0,1,0,1,0
1767988292.5474293,20260109155132.547395,18.188969666666665,-64.95871666666667,0.08954167065378242,0.7303162810193973,-0.502276536834446,0.40153652766043024,0.044528045745219416,21.952148756808032,-6.654210444693272,-44.412137314049836,1,46.24,1.4428991079330444,15.33,46.24,0,0,1,0,1,0
1767988292.6447136,20260109155132.644679,18.188969666666665,-64.95871666666667,0.08394175100806948,0.7303162810193973,-0.502276536834446,0.40153652766043024,0.053258982002784803,21.952148756808032,-6.654210444693272,-44.412137314049836,1,45.01,1.4213640689849854,15.33,45.01,0,0,1,0,1,0
1767988292.7394302,20260109155132.739396,18.188969666666665,-64.95871666666667,0.08394175100806948,0.7303162810193973,-0.502276536834446,0.40153652766043024,0.053258982002784803,20.053452818834767,-8.605425860407951,-43.54563871554574,1,45.01,1.4213640689849854,15.33,45.01,0,0,1,0,1,0
1767988292.8436573,20260109155132.843623,18.188969666666665,-64.95871666666667,0.11898822817819882,0.7303162810193973,-0.502276536834446,0.40153652766043024,0.07938744580284222,12.531560018053638,-9.147775517830254,-40.97202593114817,1,45.01,0.7240995168685913,15.33,45.01,0,0,1,0,1,0
1767988292.9448686,20260109155132.944834,18.18896983333333,-64.958719,0.11898822817819882,0.7303162810193973,-0.4613605691993128,0.2542646357335595,0.07938744580284222,12.531560018053638,-9.147775517830254,-40.97202593114817,1,45.01,0.6678656339645386,15.33,45.01,0,0,1,0,1,0
1767988293.0387328,20260109155133.038699,18.18896983333333,-64.958719,0.13750535774308204,0.7303162810193973,-0.4613605691993128,0.2542646357335595,0.09472610235557517,7.756447557163221,-7.751758630621433,-39.86431911585769,1,45.01,0.6678656339645386,15.33,45.01,0,0,1,0,1,0
1767988293.153944,20260109155133.153910,18.18896983333333,-64.958719,0.13750535774308204,0.7303162810193973,-0.4613605691993128,0.2542646357335595,0.09472610235557517,2.09943121403082,-5.93324487330616,-37.815575820998795,1,45.01,0.7119567394256592,15.33,45.01,0,0,1,0,1,0
1767988293.2489388,20260109155133.248905,18.18896983333333,-64.958719,0.0974064011834086,0.7303162810193973,-0.4613605691993128,0.2542646357335595,0.012717959900701431,2.09943121403082,-5.93324487330616,-37.815575820998795,1,44.94,0.7119567394256592,15.33,44.94,0,0,1,0,1,0
1767988293.3491275,20260109155133.349093,18.18896983333333,-64.958719,0.09016711752175571,0.7303162810193973,-0.4613605691993128,0.2542646357335595,0.01047639935958801,1.679103036482992,-6.052073131880165,-36.12794817177498,1,44.94,0.7119567394256592,15.33,44.94,0,0,1,0,1,0
1767988293.4487143,20260109155133.448680,18.188970666666666,-64.958721,0.09016711752175571,0.7303162810193973,-0.41115758383020956,0.2735863874403553,0.01047639935958801,2.453904711766528,-5.967087618970873,-33.71447093727434,1,44.94,0.7119567394256592,15.33,44.94,0,0,1,0,1,0
1767988293.5377088,20260109155133.537675,18.188970666666666,-64.958721,0.09016711752175571,0.7303162810193973,-0.41115758383020956,0.2735863874403553,0.01047639935958801,3.752277606573688,-5.19623262050003,-30.73047804269038,1,44.94,0.7119567394256592,15.33,44.94,0,0,1,0,1,0
1767988293.6660383,20260109155133.666004,18.188970666666666,-64.958721,0.07603949083626027,0.7303162810193973,-0.41115758383020956,0.2735863874403553,-0.006617187011952852,4.924912650217102,-4.313642090557517,-24.481132755343538,1,44.94,0.7119567394256592,15.25,44.94,0,0,1,0,1,0
1767988293.7362988,20260109155133.736265,18.188970666666666,-64.958721,0.07603949083626027,0.7303162810193973,-0.41115758383020956,0.2735863874403553,-0.006617187011952852,4.924912650217102,-4.313642090557517,-24.481132755343538,1,44.94,0.8207650184631348,15.25,44.94,0,0,1,0,1,0
1767988293.8389218,20260109155133.838888,18.188970666666666,-64.958721,0.06489102415097513,0.7303162810193973,-0.41115758383020956,0.2735863874403553,-0.05455335349285304,3.4962534235194185,-6.134057202462853,-21.779038090302,1,42.29,0.6620681285858154,15.25,42.29,0,0,1,0,1,0
1767988293.9492903,20260109155133.949256,18.188971166666665,-64.95872283333333,0.06489102415097513,0.7303162810193973,-0.2394758426152651,0.14281290821525616,-0.05455335349285304,0.169093773083375,-9.199193200287223,-19.649695119322786,1,42.29,0.6620681285858154,15.25,42.29,0,0,1,0,1,0
1767988294.0378695,20260109155134.037835,18.188971166666665,-64.95872283333333,0.13856091913049762,0.7303162810193973,-0.2394758426152651,0.14281290821525616,0.0010090823910738123,-8.735367694509044,-12.643056065931916,-16.355086027675803,1,42.29,0.7368377447128296,15.25,42.29,0,0,1,0,1,0
1767988294.1401825,20260109155134.140148,18.188971166666665,-64.95872283333333,0.13856091913049762,0.7303162810193973,-0.2394758426152651,0.14281290821525616,0.0010090823910738123,-8.735367694509044,-12.643056065931916,-16.355086027675803,1,42.29,0.7031126618385315,15.25,42.29,0,0,1,0,1,0
1767988294.2712407,20260109155134.271206,18.188971166666665,-64.95872283333333,0.12148361521818316,0.7303162810193973,-0.2394758426152651,0.14281290821525616,0.02326767678986599,-13.194270458292976,-11.716056483900546,-14.508856740180699,1,42.29,0.6339988112449646,15.25,42.29,0,0,1,0,1,0
1767988294.3387756,20260109155134.338741,18.188971166666665,-64.95872283333333,0.12148361521818316,0.7303162810193973,-0.2394758426152651,0.14281290821525616,0.02326767678986599,-15.966160290098205,-10.330682742771502,-11.643194247235293,1,42.29,0.6339988112449646,15.39,42.29,0,0,1,0,1,0
1767988294.4535062,20260109155134.453472,18.188972166666666,-64.95872433333334,0.09782418346042022,0.7303162810193973,-0.23766041450121858,0.1820997817125417,0.006750312723098848,-17.93392312565447,-9.504063071769478,-2.012449904085631,1,41.86,0.5665504336357117,15.39,41.86,0,0,1,0,1,0
1767988294.537271,20260109155134.537237,18.188972166666666,-64.95872433333334,0.09782418346042022,0.7303162810193973,-0.23766041450121858,0.1820997817125417,0.006750312723098848,-17.93392312565447,-9.504063071769478,-2.012449904085631,1,41.86,0.5665504336357117,15.39,41.86,0,0,1,0,1,0
1767988294.637878,20260109155134.637844,18.188972166666666,-64.95872433333334,0.13019758892419123,0.7303162810193973,-0.23766041450121858,0.1820997817125417,0.054163786118459886,-19.863255888104447,-9.283007335335018,3.3030143831805296,1,41.86,0.5665504336357117,15.39,41.86,0,0,1,0,1,0
1767988294.7380443,20260109155134.738010,18.188972166666666,-64.95872433333334,0.13019758892419123,0.7303162810193973,-0.23766041450121858,0.1820997817125417,0.054163786118459886,-22.363826603400728,-8.213401890179512,8.137237883605115,1,41.86,0.5665504336357117,15.39,41.86,0,0,1,0,1,0
1767988294.8628592,20260109155134.862825,18.188972166666666,-64.95872433333334,0.14637010167616857,0.7303162810193973,-0.23766041450121858,0.1820997817125417,0.08149131571144085,-24.710936573553095,-6.1575142148941735,12.346650823272842,1,41.86,0.5665504336357117,15.17,41.86,0,0,1,0,1,0
1767988294.9378688,20260109155134.937835,18.188974166666664,-64.95872566666667,0.14637010167616857,0.7303162810193973,-0.24986543037048023,0.48121672335885457,0.08149131571144085,-27.760168043321382,-1.0329391623113253,18.374370712378344,1,41.86,0.5973987579345703,15.17,41.86,0,0,1,0,1,0
1767988295.0383124,20260109155135.038278,18.188974166666664,-64.95872566666667,0.09175372074774893,0.7303162810193973,-0.24986543037048023,0.48121672335885457,-0.04671184657508082,-27.760168043321382,-1.0329391623113253,18.374370712378344,1,44.46,0.5973987579345703,15.17,44.46,0,0,1,0,1,0
1767988295.1464312,20260109155135.146397,18.188974166666664,-64.95872566666667,0.09175372074774893,0.7303162810193973,-0.24986543037048023,0.48121672335885457,-0.04671184657508082,-28.828271700096142,1.1041186168156591,19.787421243694133,1,44.46,2.3040664196014404,15.17,44.46,0,0,1,0,1,0
1767988295.2388275,20260109155135.238793,18.188974166666664,-64.95872566666667,0.05675372074774878,0.7303162810193973,-0.24986543037048023,0.48121672335885457,-0.04943369437618355,-29.71698549681904,2.9028401863865616,20.321070944550325,1,44.46,2.3040664196014404,15.17,44.46,0,0,1,0,1,0
1767988295.3402352,20260109155135.340201,18.188974166666664,-64.95872566666667,0.05675372074774878,0.7303162810193973,-0.24986543037048023,0.48121672335885457,-0.04943369437618355,-29.88997034468652,4.160111335949601,20.312318053999245,1,44.46,2.3040664196014404,15.17,44.46,0,0,1,0,1,0
1767988295.4479005,20260109155135.447866,18.188974166666664,-64.95872566666667,0.028923459574344147,0.7303162810193973,-0.24986543037048023,0.48121672335885457,-0.12627791607235608,-26.544597134542474,3.829543722300237,20.20559631005796,1,44.46,0.5006503462791443,15.11,44.46,0,0,1,0,1,0
1767988295.5606313,20260109155135.560597,18.18897666666667,-64.95872633333333,0.028923459574344147,0.7303162810193973,-0.15122685204107622,0.6011711047462165,-0.12627791607235608,-26.544597134542474,3.829543722300237,20.20559631005796,1,44.46,1.456743836402893,15.11,44.46,0,0,1,0,1,0
1767988295.637138,20260109155135.637104,18.18897666666667,-64.95872633333333,0.05406233407630036,0.7303162810193973,-0.15122685204107622,0.6011711047462165,-0.11699029635845605,-24.20894310327174,2.2105953572854418,20.908535725119414,1,47.8,1.456743836402893,15.11,47.8,0,0,1,0,1,0
1767988295.759421,20260109155135.759387,18.18897666666667,-64.95872633333333,0.05406233407630036,0.7303162810193973,-0.15122685204107622,0.6011711047462165,-0.11699029635845605,-21.136736576467772,-2.701345905286071,23.044217113914783,1,47.8,0.5853409171104431,15.11,47.8,0,0,1,0,1,0
1767988295.8496802,20260109155135.849646,18.18897666666667,-64.95872633333333,0.10480254229328657,0.7303162810193973,-0.15122685204107622,0.6011711047462165,0.016038178365697695,-21.136736576467772,-2.701345905286071,23.044217113914783,1,47.8,0.7406980991363525,15.11,47.8,0,0,1,0,1,0
1767988295.969324,20260109155135.969290,18.188979333333336,-64.95872733333334,0.10480254229328657,0.7303162810193973,-0.20041782185022708,0.6142680638249886,0.016038178365697695,-20.674598981791743,-5.3165029032781685,24.250712405588914,1,47.8,0.6462598443031311,15.11,47.8,0,0,1,0,1,0
1767988296.03698,20260109155136.036946,18.188979333333336,-64.95872733333334,0.10080254229328701,0.7303162810193973,-0.20041782185022708,0.6142680638249886,0.05319275740745212,-20.791256946980962,-7.563957389599079,25.4234699657944,1,47.8,0.6462598443031311,14.89,47.8,0,0,1,0,1,0
1767988296.1466854,20260109155136.146651,18.188979333333336,-64.95872733333334,0.10080254229328701,0.7303162810193973,-0.20041782185022708,0.6142680638249886,0.05319275740745212,-19.24205849871041,-9.098754378855226,26.38616839806109,1,47.8,1.2756133079528809,14.89,47.8,0,0,1,0,1,0
1767988296.2578912,20260109155136.257857,18.188979333333336,-64.95872733333334,0.09445546502687882,0.7303162810193973,-0.20041782185022708,0.6142680638249886,0.035612567164873724,-19.24205849871041,-9.098754378855226,26.38616839806109,1,47.8,0.930346667766571,14.89,47.8,0,0,1,0,1,0
1767988296.3620083,20260109155136.361974,18.188979333333336,-64.95872733333334,0.09445546502687882,0.7303162810193973,-0.20041782185022708,0.6142680638249886,0.035612567164873724,-17.76859663013221,-8.329562105154986,26.320844445481587,1,46.91,0.7418272495269775,14.89,46.91,0,0,1,0,1,0
1767988296.4739368,20260109155136.473903,18.188981166666668,-64.95872683333333,0.11822226603270705,0.7303162810193973,-0.03394279328142321,0.4008575862011108,0.0787036627499537,-16.727677135974183,-7.14193735224455,26.73190245218544,1,46.91,0.768669605255127,14.89,46.91,0,0,1,0,1,0
1767988296.588973,20260109155136.588939,18.188981166666668,-64.95872683333333,0.12221420971149591,0.7303162810193973,-0.03394279328142321,0.4008575862011108,0.07040898298467697,-16.132186880260715,-6.112236874696607,27.968279832163176,1,46.91,0.768669605255127,14.89,46.91,0,0,1,0,1,0
1767988296.650931,20260109155136.650897,18.188981166666668,-64.95872683333333,0.12221420971149591,0.7303162810193973,-0.03394279328142321,0.4008575862011108,0.07040898298467697,-15.8656352374971,-5.749452100986238,31.61036681123048,1,46.91,0.756438672542572,15.03,46.91,0,0,1,0,1,0
1767988296.7509048,20260109155136.750871,18.188981166666668,-64.95872683333333,0.12221420971149591,0.7303162810193973,-0.03394279328142321,0.4008575862011108,0.07040898298467697,-15.8656352374971,-5.749452100986238,31.61036681123048,1,46.91,0.4778674840927124,15.03,46.91,0,0,1,0,1,0
1767988296.8475192,20260109155136.847485,18.188981166666668,-64.95872683333333,0.1007834023577403,0.7303162810193973,-0.03394279328142321,0.4008575862011108,0.009399546204515396,-16.77484814679624,-5.8894437082707825,33.47592095195323,1,46.91,0.4778674840927124,15.03,46.91,0,0,1,0,1,0
1767988296.947285,20260109155136.947251,18.1889845,-64.9587255,0.1007834023577403,0.7303162810193973,0.20477904652538842,0.7653142863934481,0.009399546204515396,-17.771478970992575,-5.456722041320796,34.522050174763486,1,44.86,0.4778674840927124,15.03,44.86,0,0,1,0,1,0
1767988297.0421586,20260109155137.042124,18.1889845,-64.9587255,0.11461547298359331,0.7303162810193973,0.20477904652538842,0.7653142863934481,0.022268300133836856,-19.41140285444857,-4.0504615742415115,34.47093643583327,1,44.86,0.4778674840927124,15.03,44.86,0,0,1,0,1,0
1767988297.153797,20260109155137.153763,18.1889845,-64.9587255,0.11461547298359331,0.7303162810193973,0.20477904652538842,0.7653142863934481,0.022268300133836856,-19.41140285444857,-4.0504615742415115,34.47093643583327,1,44.86,1.0716924667358398,15.03,44.86,0,0,1,0,1,0
1767988297.2479959,20260109155137.247962,18.1889845,-64.9587255,0.0924780221773652,0.7303162810193973,0.20477904652538842,0.7653142863934481,-0.016843265790003316,-19.713196578383457,-4.199928791727123,33.85722664399414,1,44.86,1.0716924667358398,15.0,44.86,0,0,1,0,1,0
1767988297.3420153,20260109155137.341981,18.1889845,-64.9587255,0.09747802217736598,0.7303162810193973,0.20477904652538842,0.7653142863934481,-0.0032814306312686182,-19.20887572031022,-4.894689906106884,32.97146007495195,1,44.86,1.0716924667358398,15.0,44.86,0,0,1,0,1,0
1767988297.4446588,20260109155137.444625,18.1889845,-64.9587255,0.09747802217736598,0.7303162810193973,0.20477904652538842,0.7653142863934481,-0.0032814306312686182,-15.33213238576056,-6.040489980679744,30.70472779969246,1,44.86,1.0716924667358398,15.0,44.86,0,0,1,0,1,0
1767988297.540891,20260109155137.540857,18.188987333333333,-64.95872433333334,0.09747802217736598,0.7303162810193973,0.23627808409073914,0.6289409345249037,-0.0032814306312686182,-15.33213238576056,-6.040489980679744,30.70472779969246,1,43.65,0.5898147821426392,15.0,43.65,0,0,1,0,1,0
1767988297.6384096,20260109155137.638375,18.188987333333333,-64.95872433333334,0.12886412565295657,0.7303162810193973,0.23627808409073914,0.6289409345249037,0.032037059298440355,-12.435956972283137,-6.334012769459181,29.412592150488205,1,43.65,0.5898147821426392,15.0,43.65,0,0,1,0,1,0
1767988297.7385714,20260109155137.738537,18.188987333333333,-64.95872433333334,0.12886412565295657,0.7303162810193973,0.23627808409073914,0.6289409345249037,0.032037059298440355,-6.732698310944451,-6.311616998049612,27.262024359073937,1,43.65,0.9381932020187378,15.0,43.65,0,0,1,0,1,0
1767988297.8962977,20260109155137.896263,18.188987333333333,-64.95872433333334,0.14924700716959519,0.7303162810193973,0.23627808409073914,0.6289409345249037,0.04632732773667207,-6.732698310944451,-6.311616998049612,27.262024359073937,1,43.65,0.47220319509506226,15.0,43.65,0,0,1,0,1,0
1767988297.9766634,20260109155137.976629,18.188990333333333,-64.95872316666667,0.14924700716959519,0.7303162810193973,0.23325500146895853,0.6601561206637273,0.04632732773667207,-4.632408413761867,-5.7978465698808375,25.80202638887814,1,43.65,0.47220319509506226,15.36,43.65,0,0,1,0,1,0
1767988298.0726044,20260109155138.072570,18.188990333333333,-64.95872316666667,0.12758685201356454,0.7303162810193973,0.23325500146895853,0.6601561206637273,0.03836120605069401,-3.267702832451476,-5.321938028253611,23.739960805279527,1,43.65,0.47220319509506226,15.36,43.65,0,0,1,0,1,0
1767988298.147091,20260109155138.147057,18.188990333333333,-64.95872316666667,0.11592283188197935,0.7303162810193973,0.23325500146895853,0.6601561206637273,0.01936322798975627,-2.156219561529917,-5.074599287608263,21.34616647545745,1,43.65,4.1273322105407715,15.36,43.65,0,0,1,0,1,0
1767988298.2393506,20260109155138.239316,18.188990333333333,-64.95872316666667,0.11592283188197935,0.7303162810193973,0.23325500146895853,0.6601561206637273,0.01936322798975627,-0.7523625748459373,-5.056437381224332,19.10015017135787,1,43.65,4.1273322105407715,15.36,43.65,0,0,1,0,1,0
1767988298.3446684,20260109155138.344634,18.188990333333333,-64.95872316666667,0.11592283188197935,0.7303162810193973,0.23325500146895853,0.6601561206637273,0.01936322798975627,2.954124893550561,-5.65895419655889,15.519620294195937,1,43.65,2.6319401264190674,15.36,43.65,0,0,1,0,1,0
1767988298.4464498,20260109155138.446416,18.188990333333333,-64.95872316666667,0.11013545018758533,0.7303162810193973,0.23325500146895853,0.6601561206637273,-0.02261527695694547,2.954124893550561,-5.65895419655889,15.519620294195937,1,43.65,0.8661494851112366,14.67,43.65,0,0,1,0,1,0
1767988298.55156,20260109155138.551526,18.188993333333332,-64.95872183333333,0.14025686070195442,0.7303162810193973,0.2490170215466591,0.645007488671411,0.04183220063373343,4.354541704818594,-6.716786952696739,14.133233123386391,1,43.65,0.8661494851112366,14.67,43.65,0,0,1,0,1,0
1767988298.6414804,20260109155138.641446,18.188993333333332,-64.95872183333333,0.14025686070195442,0.7303162810193973,0.2490170215466591,0.645007488671411,0.04183220063373343,5.062233652581264,-7.5731311907082794,12.838737642980108,1,43.65,0.8610773086547852,14.67,43.65,0,0,1,0,1,0
1767988298.7373364,20260109155138.737302,18.188993333333332,-64.95872183333333,0.14025686070195442,0.7303162810193973,0.2490170215466591,0.645007488671411,0.04183220063373343,5.062233652581264,-7.5731311907082794,12.838737642980108,1,43.65,0.6204813122749329,14.67,43.65,0,0,1,0,1,0
1767988298.8368027,20260109155138.836768,18.188993333333332,-64.95872183333333,0.1623389275035082,0.7303162810193973,0.2490170215466591,0.645007488671411,0.07227406907669535,4.317074261842655,-6.919697431339319,12.570037904954468,1,43.65,0.5420253276824951,14.67,43.65,0,0,1,0,1,0
1767988298.9389968,20260109155138.938963,18.1889965,-64.95872033333333,0.1623389275035082,0.7303162810193973,0.31758503927554604,0.738133342184343,0.07227406907669535,3.6576491437688365,-6.332188254524765,12.152115555680284,1,43.65,0.5420253276824951,14.67,43.65,0,0,1,0,1,0
1767988299.0634406,20260109155139.063406,18.1889965,-64.95872033333333,0.15387330000254595,0.7303162810193973,0.31758503927554604,0.738133342184343,0.07956481088029219,3.8043266548678143,-3.903110862381753,11.039981068677221,1,43.65,1.4340275526046753,14.86,43.65,0,0,1,0,1,0
1767988299.1588507,20260109155139.158816,18.1889965,-64.95872033333333,0.15387330000254595,0.7303162810193973,0.31758503927554604,0.738133342184343,0.07956481088029219,3.8043266548678143,-3.903110862381753,11.039981068677221,1,43.65,2.0115835666656494,14.86,43.65,0,0,1,0,1,0
1767988299.268341,20260109155139.268307,18.1889965,-64.95872033333333,0.1500922389127842,0.7303162810193973,0.31758503927554604,0.738133342184343,0.07818083416515563,5.3210872425109015,-2.3202607003681335,10.732362898844992,1,43.65,2.0115835666656494,14.86,43.65,0,0,1,0,1,0
1767988299.3789387,20260109155139.378904,18.1889965,-64.95872033333333,0.14804027202063183,0.7303162810193973,0.31758503927554604,0.738133342184343,0.0009382870347920723,7.448609967425453,-1.7613813389137347,10.918019459701108,1,43.65,2.927238702774048,14.86,43.65,0,0,1,0,1,0
1767988299.5034587,20260109155139.503424,18.18900066666667,-64.95871866666667,0.14804027202063183,0.7303162810193973,0.3827662696066937,0.9356053867825558,0.0009382870347920723,9.32801915183364,-1.9954456021606883,11.421450685316822,1,43.65,2.927238702774048,14.86,43.65,0,0,1,0,1,0
1767988299.5515056,20260109155139.551471,18.18900066666667,-64.95871866666667,0.1570276113187151,0.7303162810193973,0.3827662696066937,0.9356053867825558,0.002770579409994322,10.541312191709862,-2.285600039257851,11.68660726144365,1,43.65,2.927238702774048,14.86,43.65,0,0,1,0,1,0
1767988299.6365063,20260109155139.636472,18.18900066666667,-64.95871866666667,0.1570276113187151,0.7303162810193973,0.3827662696066937,0.9356053867825558,0.002770579409994322,10.883573947173348,-2.15034986561313,11.077244886565706,1,43.65,2.927238702774048,14.97,43.65,0,0,1,0,1,0
1767988299.7371337,20260109155139.737099,18.18900066666667,-64.95871866666667,0.1570276113187151,0.7303162810193973,0.3827662696066937,0.9356053867825558,0.002770579409994322,10.883573947173348,-2.15034986561313,11.077244886565706,1,43.65,2.927238702774048,14.97,43.65,0,0,1,0,1,0
1767988299.8411705,20260109155139.841136,18.18900066666667,-64.95871866666667,0.14644838581434938,0.7303162810193973,0.3827662696066937,0.9356053867825558,-0.00616265919922097,10.702957213953125,-2.2179734583310746,10.95349205983927,1,43.65,1.3886603116989136,14.97,43.65,0,0,1,0,1,0
1767988299.9545045,20260109155139.954470,18.189004833333335,-64.95871866666667,0.14644838581434938,0.7303162810193973,0.2332920245717912,0.8700502506276911,-0.00616265919922097,10.702957213953125,-2.2179734583310746,10.95349205983927,1,43.65,1.0870239734649658,14.97,43.65,0,0,1,0,1,0
1767988300.0563054,20260109155140.056271,18.189004833333335,-64.95871866666667,0.137936515778209,0.7303162810193973,0.2332920245717912,0.8700502506276911,-0.008636074859239378,11.246573871919496,-2.9157959926575385,11.54634073894671,1,43.65,0.8470144271850586,14.97,43.65,0,0,1,0,1,0
1767988300.1588805,20260109155140.158846,18.189004833333335,-64.95871866666667,0.1119365157782092,0.7303162810193973,0.2332920245717912,0.8700502506276911,-0.05321786006220388,11.947392512485367,-3.8480586642131187,12.491326776814985,1,43.65,0.8470144271850586,14.97,43.65,0,0,1,0,1,0
1767988300.247665,20260109155140.247631,18.189004833333335,-64.95871866666667,0.1119365157782092,0.7303162810193973,0.2332920245717912,0.8700502506276911,-0.05321786006220388,11.426114849960792,-5.334208040598032,14.51457467393329,1,-1.0,0.7914543151855469,14.97,0.7303162810193973,0,0,1,0,1,0
1767988300.3496304,20260109155140.349596,18.189004833333335,-64.95871866666667,0.1119365157782092,0.7303162810193973,0.2332920245717912,0.8700502506276911,-0.05321786006220388,11.426114849960792,-5.334208040598032,14.51457467393329,1,-1.0,0.5563448667526245,14.97,0.7303162810193973,0,0,1,0,1,0
1767988300.4592996,20260109155140.459265,18.189008166666667,-64.95871983333333,0.11546409727996614,0.7303162810193973,0.11784168722637428,0.7125957627829251,-0.04896882145569145,9.737235568124046,-5.562372298952935,15.068387100428842,1,-1.0,0.5824386477470398,14.97,0.7303162810193973,0,0,1,0,1,0
1767988300.566647,20260109155140.566613,18.189008166666667,-64.95871983333333,0.10020028695001734,0.7303162810193973,0.11784168722637428,0.7125957627829251,-0.08886708382635129,7.128212509086714,-5.332710094200071,15.199533609575544,1,-1.0,0.6445603966712952,14.97,0.7303162810193973,0,0,1,0,1,0
1767988300.6693153,20260109155140.669281,18.189008166666667,-64.95871983333333,0.10020028695001734,0.7303162810193973,0.11784168722637428,0.7125957627829251,-0.08886708382635129,4.256943389323341,-4.501766058133541,14.988651443547521,1,-1.0,0.591680109500885,14.97,0.7303162810193973,0,0,1,0,1,0
1767988300.7365048,20260109155140.736471,18.189008166666667,-64.95871983333333,0.08422085729109238,0.7303162810193973,0.11784168722637428,0.7125957627829251,-0.1017612058689451,1.7140702024418732,-3.2391748296350213,14.54029888309289,1,-1.0,0.591680109500885,14.97,0.7303162810193973,0,0,1,0,1,0
1767988300.845747,20260109155140.845713,18.189008166666667,-64.95871983333333,0.08422085729109238,0.7303162810193973,0.11784168722637428,0.7125957627829251,-0.1017612058689451,-0.3245094738132457,-3.3699998928889596,13.824081575537239,1,-1.0,0.8456934690475464,14.97,0.7303162810193973,0,0,1,0,1,0
1767988300.9476476,20260109155140.947613,18.189013166666665,-64.9587205,0.10746110819962465,0.7303162810193973,-0.024477414635272702,1.095483773282203,-0.07697768395647342,-0.3245094738132457,-3.3699998928889596,13.824082966201072,1,-1.0,1.8203520774841309,14.97,0.7303162810193973,0,0,1,0,1,0
1767988301.0388582,20260109155141.038824,18.189013166666665,-64.9587205,0.10746110819962465,0.7303162810193973,-0.024477414635272702,1.095483773282203,-0.07697768395647342,0.40956046051241973,-5.009836264514921,13.786455440609208,1,-1.0,1.8203520774841309,14.97,0.7303162810193973,0,0,1,0,1,0
1767988301.1496835,20260109155141.149649,18.189013166666665,-64.9587205,0.10746110819962465,0.7303162810193973,-0.024477414635272702,1.095483773282203,-0.07697768395647342,3.2472436338074373,-5.828980717684324,13.889799654798274,1,-1.0,1.6976193189620972,14.97,0.7303162810193973,0,0,1,0,1,0
1767988301.2455544,20260109155141.245520,18.189013166666665,-64.9587205,0.12781532109209648,0.7303162810193973,-0.024477414635272702,1.095483773282203,-0.009325083998862543,3.2472436338074373,-5.828980717684324,13.889799654798274,1,-1.0,1.6976193189620972,14.97,0.7303162810193973,0,0,1,0,1,0
1767988301.3563905,20260109155141.356356,18.189013166666665,-64.9587205,0.12842075213623816,0.7303162810193973,-0.024477414635272702,1.095483773282203,0.008966574439662213,4.372856009852874,-5.0657631540968975,13.71144115367984,1,-1.0,2.480515241622925,14.97,0.7303162810193973,0,0,1,0,1,0
1767988301.4528716,20260109155141.452837,18.189017,-64.95871983333333,0.12842075213623816,0.7303162810193973,0.046815923677953244,0.8021903497961432,0.008966574439662213,4.803942272798705,-4.317034561353918,13.262972479967825,1,-1.0,2.480515241622925,14.97,0.7303162810193973,0,0,1,0,1,0
1767988301.5375872,20260109155141.537553,18.189017,-64.95871983333333,0.12842075213623816,0.7303162810193973,0.046815923677953244,0.8021903497961432,0.008966574439662213,3.3829648772299152,-2.758560499430444,11.913273683403498,1,-1.0,0.9690914154052734,14.86,0.7303162810193973,0,0,1,0,1,0
1767988301.6533945,20260109155141.653360,18.189017,-64.95871983333333,0.11391986362522835,0.7303162810193973,0.046815923677953244,0.8021903497961432,-0.00821568313786167,3.3829648772299152,-2.758560499430444,11.913273683403498,1,-1.0,0.9690914154052734,14.86,0.7303162810193973,0,0,1,0,1,0
1767988301.7443542,20260109155141.744320,18.189017,-64.95871983333333,0.11391986362522835,0.7303162810193973,0.046815923677953244,0.8021903497961432,-0.00821568313786167,2.3836907688796383,-1.4095738570634244,11.190019570939308,1,-1.0,0.9690914154052734,14.86,0.7303162810193973,0,0,1,0,1,0
1767988301.8441293,20260109155141.844095,18.189017,-64.95871983333333,0.09016395840336028,0.7303162810193973,0.046815923677953244,0.8021903497961432,-0.021960602540737412,2.3836907688796383,-1.4095738570634244,11.190019570939308,1,-1.0,2.363967180252075,14.86,0.7303162810193973,0,0,1,0,1,0
1767988301.9637094,20260109155141.963675,18.189019833333337,-64.958718,0.09016395840336028,0.7303162810193973,0.21119953798175178,0.7057544535522118,-0.021960602540737412,0.7121838659651438,-3.4860463424853942,10.074316308818835,1,-1.0,0.6842014193534851,14.86,0.7303162810193973,0,0,1,0,1,0
1767988302.0373878,20260109155142.037354,18.189019833333337,-64.958718,0.07580465675149183,0.7303162810193973,0.21119953798175178,0.7057544535522118,-0.0647106990823014,0.7121838659651438,-3.4860463424853942,10.074316308818835,1,-1.0,0.6842014193534851,15.17,0.7303162810193973,0,0,1,0,1,0
1767988302.139989,20260109155142.139955,18.189019833333337,-64.958718,0.07580465675149183,0.7303162810193973,0.21119953798175178,0.7057544535522118,-0.0647106990823014,0.5716977101191745,-6.258254418531056,10.644563883881336,1,-1.0,0.7171902060508728,15.17,0.7303162810193973,0,0,1,0,1,0
1767988302.2476225,20260109155142.247588,18.189019833333337,-64.958718,0.0862643490924737,0.7303162810193973,0.21119953798175178,0.7057544535522118,-0.04067116439492687,0.5716977101191745,-6.258254418531056,10.644563883881336,1,41.53,0.567452609539032,15.17,0.7303162810193973,0,0,1,0,1,0
1767988302.3777933,20260109155142.377759,18.189019833333337,-64.958718,0.0862643490924737,0.7303162810193973,0.21119953798175178,0.7057544535522118,-0.04067116439492687,1.6313019404847053,-6.568579051789637,11.354613528411129,1,41.53,0.43393421173095703,15.17,0.7303162810193973,0,0,1,0,1,0
1767988302.4726028,20260109155142.472569,18.189019833333337,-64.958718,0.07654792189486524,0.7303162810193973,0.21119953798175178,0.7057544535522118,-0.04392165120562711,2.9274468054435996,-6.050752770464118,11.75832224894026,1,41.53,0.4430609345436096,15.17,0.7303162810193973,0,0,1,0,1,0
1767988302.541837,20260109155142.541803,18.189022833333336,-64.958717,0.10754792189486582,0.7303162810193973,0.22023702373077986,0.6559355385199432,0.020160430133043757,3.6664639329314106,-4.933694995969532,11.835742470864991,1,41.53,0.4430609345436096,15.17,0.7303162810193973,0,0,1,0,1,0
1767988302.6387916,20260109155142.638757,18.189022833333336,-64.958717,0.10754792189486582,0.7303162810193973,0.22023702373077986,0.6559355385199432,0.020160430133043757,4.435759513279781,-4.052144789586957,11.492477531008486,1,41.53,0.4430609345436096,15.17,0.7303162810193973,0,0,1,0,1,0
1767988302.7521515,20260109155142.752117,18.189022833333336,-64.958717,0.10754792189486582,0.7303162810193973,0.22023702373077986,0.6559355385199432,0.020160430133043757,4.435759513279781,-4.052144789586957,11.492477531008486,1,41.53,0.4430609345436096,14.8,0.7303162810193973,0,0,1,0,1,0
1767988302.8755248,20260109155142.875491,18.189022833333336,-64.958717,0.08110108991884984,0.7303162810193973,0.22023702373077986,0.6559355385199432,0.04836146163210022,4.580059690810726,-5.008099688297506,11.669702220319277,1,41.34,3.1122026443481445,14.8,41.34,0,0,1,0,1,0
1767988302.937069,20260109155142.937035,18.189026666666667,-64.95871650000001,0.09010108991885019,0.7303162810193973,0.16625604875171027,0.8208404914005469,0.05489440567129714,3.994833932429538,-5.647447458127138,12.056709414808529,1,41.34,3.1122026443481445,14.8,41.34,0,0,1,0,1,0
1767988303.050325,20260109155143.050291,18.189026666666667,-64.95871650000001,0.09010108991885019,0.7303162810193973,0.16625604875171027,0.8208404914005469,0.05489440567129714,1.829290732461946,-4.188118963542578,12.159840185509662,1,41.34,1.9132417440414429,14.8,41.34,0,0,1,0,1,0
1767988303.1543038,20260109155143.154270,18.189026666666667,-64.95871650000001,0.09010108991885019,0.7303162810193973,0.16625604875171027,0.8208404914005469,0.05489440567129714,1.829290732461946,-4.188118963542578,12.159840185509662,1,41.34,0.752288818359375,14.8,41.34,0,0,1,0,1,0
1767988303.2378657,20260109155143.237831,18.189026666666667,-64.95871650000001,0.10811718659885859,0.7303162810193973,0.16625604875171027,0.8208404914005469,0.08185731587534356,1.1876871851306274,-2.9726046172879608,11.735961909149639,1,41.34,0.752288818359375,15.17,41.34,0,0,1,0,1,0
1767988303.3470595,20260109155143.347025,18.189026666666667,-64.95871650000001,0.10811718659885859,0.7303162810193973,0.16625604875171027,0.8208404914005469,0.08185731587534356,2.1760279709793493,-2.427254584756491,11.215649864964238,1,41.34,0.7128714323043823,15.17,41.34,0,0,1,0,1,0
1767988303.458596,20260109155143.458562,18.189029666666666,-64.95871633333333,0.07369657582687376,0.7303162810193973,0.09268800112760876,0.6254157816824468,0.030551975944049174,2.1760279709793493,-2.427254584756491,11.215649864964238,1,41.34,1.626686453819275,15.17,41.34,0,0,1,0,1,0
1767988303.5608478,20260109155143.560814,18.189029666666666,-64.95871633333333,0.0738918296028,0.7303162810193973,0.09268800112760876,0.6254157816824468,-0.007643365633753491,3.2834741717710947,-3.952255798579749,11.218364866130118,1,41.34,0.6461254954338074,15.17,41.34,0,0,1,0,1,0
1767988303.6424131,20260109155143.642379,18.189029666666666,-64.95871633333333,0.0738918296028,0.7303162810193973,0.09268800112760876,0.6254157816824468,-0.007643365633753491,3.5796658579230183,-6.2722588726580115,10.833884842537396,1,41.34,0.6461254954338074,15.17,41.34,0,0,1,0,1,0
1767988303.7446501,20260109155143.744616,18.189029666666666,-64.95871633333333,0.0738918296028,0.7303162810193973,0.09268800112760876,0.6254157816824468,-0.007643365633753491,3.5120892227724068,-9.085275849482414,9.919600515966168,1,41.34,0.865319550037384,15.17,41.34,0,0,1,0,1,0
1767988303.8529205,20260109155143.852886,18.189029666666666,-64.95871633333333,0.09646344182896706,0.7303162810193973,0.09268800112760876,0.6254157816824468,0.018477635398348218,3.5120892227724068,-9.085275849482414,9.919600515966168,1,41.34,0.6028634309768677,15.0,41.34,0,0,1,0,1,0
1767988303.968338,20260109155143.968304,18.1890335,-64.95871666666667,0.12472969881305279,0.7303162810193973,-0.007009301107282634,0.8544560910238823,0.020530512680859345,3.8750041970103846,-8.52793562901914,9.956050874331957,1,41.34,0.550986647605896,15.0,41.34,0,0,1,0,1,0
1767988304.0654154,20260109155144.065381,18.1890335,-64.95871666666667,0.12472969881305279,0.7303162810193973,-0.007009301107282634,0.8544560910238823,0.020530512680859345,3.961176455712305,-7.043191137671467,10.278027814481039,1,41.07,0.550986647605896,15.0,41.07,0,0,1,0,1,0
1767988304.1543586,20260109155144.154324,18.1890335,-64.95871666666667,0.12472969881305279,0.7303162810193973,-0.007009301107282634,0.8544560910238823,0.020530512680859345,3.1951040854744472,-3.9858035653442103,10.615610034916156,1,41.07,0.550986647605896,15.0,41.07,0,0,1,0,1,0
1767988304.252352,20260109155144.252318,18.1890335,-64.95871666666667,0.10174948318480846,0.7303162810193973,-0.007009301107282634,0.8544560910238823,-0.00798951857451718,3.1951040854744472,-3.9858035653442103,10.615610034916156,1,41.07,1.5204663276672363,15.0,41.07,0,0,1,0,1,0
1767988304.336842,20260109155144.336808,18.1890335,-64.95871666666667,0.06268462823085702,0.7303162810193973,-0.007009301107282634,0.8544560910238823,-0.045530836998253735,2.451893860667185,-4.010283825856444,10.421468668529743,1,41.07,1.5204663276672363,15.0,41.07,0,0,1,0,1,0
1767988304.4412363,20260109155144.441202,18.189037499999998,-64.95871733333334,0.06268462823085702,0.7303162810193973,-0.08614113214794221,0.8801168909572412,-0.045530836998253735,1.6081276339530814,-5.835089897194502,9.45718050916528,1,41.07,0.8550331592559814,14.94,41.07,0,0,1,0,1,0
1767988304.5382776,20260109155144.538243,18.189037499999998,-64.95871733333334,0.06268462823085702,0.7303162810193973,-0.08614113214794221,0.8801168909572412,-0.045530836998253735,1.6081276339530814,-5.835089897194502,9.45718050916528,1,41.07,0.8964311480522156,14.94,41.07,0,0,1,0,1,0
1767988304.6778176,20260109155144.677783,18.189037499999998,-64.95871733333334,0.1064990210150885,0.7303162810193973,-0.08614113214794221,0.8801168909572412,-0.015012164445876375,1.6001387643668659,-5.744369157765801,8.214483494398362,1,41.07,1.4853804111480713,14.94,41.07,0,0,1,0,1,0
1767988304.7537768,20260109155144.753743,18.189037499999998,-64.95871733333334,0.1064990210150885,0.7303162810193973,-0.08614113214794221,0.8801168909572412,-0.015012164445876375,1.9613734047464888,-4.945435241577026,6.886298093864685,1,42.04,0.6665717363357544,14.94,42.04,0,0,1,0,1,0
1767988304.839436,20260109155144.839402,18.189037499999998,-64.95871733333334,0.09687380835272245,0.7303162810193973,-0.08614113214794221,0.8801168909572412,-0.09388598581656396,2.8733869060501323,-4.359662214092907,6.019417004630346,1,42.04,0.6665717363357544,14.94,42.04,0,0,1,0,1,0
1767988304.9475884,20260109155144.947554,18.189041166666666,-64.958717,0.09687380835272245,0.7303162810193973,0.015361421480154002,0.7457798110529066,-0.09388598581656396,4.301061304494724,-4.448934099125859,6.3981904031310135,1,42.04,0.8452968597412109,14.94,42.04,0,0,1,0,1,0
1767988305.0516257,20260109155145.051591,18.189041166666666,-64.958717,0.1312823991445326,0.7303162810193973,0.015361421480154002,0.7457798110529066,-0.03926104539881252,4.301061304494724,-4.448934099125859,6.3981904031310135,1,42.04,0.8983498811721802,15.22,42.04,0,0,1,0,1,0
