timestamp_ros,timestamp_sys (%Y%m%d%H%M%S.%f),latitude,longitude,depth,distance_to_ocean_floor,velX,velY,velZ,roll,pitch,yaw,navMode,acousticAltimeter,forwardStereo,battery_volts,altitudeUsed,cotsNumFound,cotsNumMaybe,missionState,errorState,storeData,storeImageData
1767978783.225217,20260109131303.225169,18.188982,-64.95866433333335,-0.05535743563189352,0.27958842333098594,0.7127344801948723,0.2019522679800974,0.024108471480688967,7.46257344040274,2.913445766412474,77.24433436137484,1,-1.0,0.722900390625,16.42,0.27958842333098594,0,0,1,0,1,0
1767978783.3459225,20260109131303.345875,18.188982,-64.95866433333335,-0.05535743563189352,0.27958842333098594,0.7127344801948723,0.2019522679800974,0.024108471480688967,6.688304626786702,5.844882257531591,77.05333488313003,1,-1.0,0.8683048486709595,16.42,0.27958842333098594,0,0,1,0,1,0
1767978783.4288745,20260109131303.428827,18.188982833333334,-64.95865950000001,-0.08509329288372007,0.27958842333098594,0.9024712249664328,0.21416689276143597,-0.010069864603109383,6.688304626786702,5.844882257531591,77.05333488313003,1,-1.0,0.800963819026947,16.42,0.27958842333098594,0,0,1,0,1,0
1767978783.5262198,20260109131303.526172,18.188982833333334,-64.95865950000001,-0.08509329288372007,0.27958842333098594,0.9024712249664328,0.21416689276143597,-0.010069864603109383,6.8508119607210105,10.236517452335365,75.39590009592818,1,-1.0,0.6967678070068359,16.42,0.27958842333098594,0,0,1,0,1,0
1767978783.6243682,20260109131303.624321,18.188982833333334,-64.95865950000001,-0.09777307768714469,0.27958842333098594,0.9024712249664328,0.21416689276143597,-0.033494798881162614,6.8508119607210105,10.236517452335365,75.39590009592818,1,-1.0,0.6967678070068359,16.42,0.27958842333098594,0,0,1,0,1,0
1767978783.729399,20260109131303.729351,18.188982833333334,-64.95865950000001,-0.09777307768714469,0.27958842333098594,0.9024712249664328,0.21416689276143597,-0.033494798881162614,2.760271889316283,11.73091641952694,72.23356236060906,1,-1.0,0.7444234490394592,16.31,0.27958842333098594,0,0,1,0,1,0
1767978783.8261855,20260109131303.826138,18.188982833333334,-64.95865950000001,-0.10177307768714602,0.27958842333098594,0.9024712249664328,0.21416689276143597,-0.06330755940940755,2.760271889316283,11.73091641952694,72.23356236060906,1,-1.0,0.7444234490394592,16.31,0.27958842333098594,0,0,1,0,1,0
1767978783.9262302,20260109131303.926183,18.188982833333334,-64.95865950000001,-0.10177307768714602,0.27958842333098594,0.9024712249664328,0.21416689276143597,-0.06330755940940755,3.3750467641599395,12.662017531621464,68.80162330197143,1,-1.0,0.8948153257369995,16.31,0.27958842333098594,0,0,1,0,1,0
1767978784.0254333,20260109131304.025386,18.1889825,-64.9586555,-0.13898691257804852,0.27958842333098594,0.9019616427487722,0.1285287658620973,-0.07354276544029462,3.3750467641599395,12.662017531621464,68.80162330197143,1,-1.0,0.8948153257369995,16.31,0.27958842333098594,0,0,1,0,1,0
1767978784.127793,20260109131304.127745,18.1889825,-64.9586555,-0.13898691257804852,0.27958842333098594,0.9019616427487722,0.1285287658620973,-0.07354276544029462,2.0465708670392564,10.46653610771299,65.68451509550857,1,-1.0,0.8027190566062927,16.31,0.27958842333098594,0,0,1,0,1,0
1767978784.2241485,20260109131304.224101,18.1889825,-64.9586555,-0.1054601164369007,0.27958842333098594,0.9019616427487722,0.1285287658620973,-0.04142653702734089,2.0465708670392564,10.46653610771299,65.68451509550857,1,-1.0,0.7390879988670349,16.31,0.27958842333098594,0,0,1,0,1,0
1767978784.326082,20260109131304.326034,18.1889825,-64.9586555,-0.1054601164369007,0.27958842333098594,0.9019616427487722,0.1285287658620973,-0.04142653702734089,-2.279227683927127,5.49751365317703,64.72531713644311,1,-1.0,0.7390879988670349,16.23,0.27958842333098594,0,0,1,0,1,0
1767978784.425222,20260109131304.425174,18.1889825,-64.9586555,-0.09018244413047344,0.27958842333098594,0.9019616427487722,0.1285287658620973,-0.017883167053748317,-4.213800910891601,-0.4777741444330595,63.49541819320962,1,-1.0,0.7410871982574463,16.23,0.27958842333098594,0,0,1,0,1,0
1767978784.524517,20260109131304.524469,18.188982666666668,-64.958652,-0.09018244413047344,0.27958842333098594,0.8705910955911684,0.15523266625726298,-0.017883167053748317,-4.213800910891601,-0.4777741444330595,63.49541819320962,1,-1.0,0.7410871982574463,16.23,0.27958842333098594,0,0,1,0,1,0
1767978784.6296456,20260109131304.629598,18.188982666666668,-64.958652,0.11325331699953875,0.27958842333098594,0.8705910955911684,0.15523266625726298,0.21133912107963884,-3.2066947071969607,-1.015026557921239,62.4996855392103,1,-1.0,0.7410871982574463,16.23,0.27958842333098594,0,0,1,0,1,0
1767978784.7408223,20260109131304.740775,18.188982666666668,-64.958652,0.11325331699953875,0.27958842333098594,0.8705910955911684,0.15523266625726298,0.21133912107963884,-2.0201318356387405,-1.0129539149321551,60.63293953005123,1,-1.0,0.7410871982574463,16.23,0.27958842333098594,0,0,1,0,1,0
1767978784.824636,20260109131304.824588,18.188982666666668,-64.958652,0.1080341759519962,0.27958842333098594,0.8705910955911684,0.15523266625726298,0.3091830294579359,-2.1750745189190006,-0.8293164761105485,55.048800264204026,1,-1.0,0.38760852813720703,16.23,0.27958842333098594,0,0,1,0,1,0
1767978784.9439764,20260109131304.943929,18.188982666666668,-64.958652,0.1080341759519962,0.27958842333098594,0.8705910955911684,0.15523266625726298,0.3091830294579359,-2.1750745189190006,-0.8293164761105485,55.048800264204026,1,-1.0,0.7706046104431152,16.31,0.27958842333098594,0,0,1,0,1,0
1767978785.0243018,20260109131305.024254,18.1889825,-64.95865033333332,0.11576476239677269,0.27958842333098594,0.48312516622930896,0.08631871384282908,0.27684162687799385,-2.9022931307271214,-1.682143112080911,52.59833241947935,1,-1.0,0.544183075428009,16.31,0.27958842333098594,0,0,1,0,1,0
1767978785.1258762,20260109131305.125829,18.1889825,-64.95865033333332,0.11576476239677269,0.27958842333098594,0.48312516622930896,0.08631871384282908,0.27684162687799385,-3.338530211922537,-3.0610233686998423,50.56525075398729,1,-1.0,0.544183075428009,16.31,0.27958842333098594,0,0,1,0,1,0
1767978785.2360606,20260109131305.236013,18.1889825,-64.95865033333332,0.13469049142400086,0.27958842333098594,0.48312516622930896,0.08631871384282908,0.24069262569475874,-3.224750745610904,-4.8206600205436265,48.668356279051785,1,-1.0,0.4852812588214874,16.31,0.27958842333098594,0,0,1,0,1,0
1767978785.3305628,20260109131305.330515,18.1889825,-64.95865033333332,0.13469049142400086,0.27958842333098594,0.48312516622930896,0.08631871384282908,0.24069262569475874,-2.537039883079391,-6.696025731517367,46.75231677702711,1,-1.0,0.4852812588214874,16.31,0.27958842333098594,0,0,1,0,1,0
1767978785.4308834,20260109131305.430836,18.18898268727944,-64.95865015493547,0.20440687935869284,0.27958842333098594,0.18359508393762172,0.2028725286113957,0.08474459381348462,-0.21295094035390005,-9.4368027598679,42.14440313793469,3,-1.0,0.8181349635124207,16.31,0.27958842333098594,0,0,1,0,1,0
1767978785.5383873,20260109131305.538340,18.188982946362717,-64.95864990813901,0.20440687935869284,0.27958842333098594,0.23576125526584246,0.26051613680804625,0.08474459381348462,-0.21295094035390005,-9.4368027598679,42.14440313793469,3,-1.0,1.0524486303329468,16.28,0.27958842333098594,0,0,1,0,1,0
1767978785.6484895,20260109131305.648442,18.18898322854943,-64.9586496947013,0.22317763721748352,0.27958842333098594,0.20315627662255234,0.2827205374172971,0.13340924744779473,3.150316171194601,-9.556398561224336,35.70014125745343,3,-1.0,2.9587481021881104,16.28,0.27958842333098594,0,0,1,0,1,0
1767978785.7563324,20260109131305.756285,18.18898355682489,-64.9586494464034,0.22317763721748352,0.27958842333098594,0.26104385635006255,0.3632792477974593,0.13340924744779473,3.150316171194601,-9.556398561224336,35.70014125745343,3,-1.0,3.710278034210205,16.28,0.27958842333098594,0,0,1,0,1,0
1767978785.8247035,20260109131305.824656,18.18898381245414,-64.95864927987172,0.22394629627343282,0.27958842333098594,0.23363232966431574,0.3774925171121629,0.12477356409318045,4.664857373450684,-9.438879991891973,31.753618977845182,3,-1.0,3.710278034210205,16.28,0.27958842333098594,0,0,1,0,1,0
1767978785.9443457,20260109131305.944298,18.188984267545543,-64.95864906994971,0.22394629627343282,0.27958842333098594,0.20139032372974808,0.4595587119906608,0.12477356409318045,7.5996639237999775,-10.95187586329579,23.664264466405378,3,-1.0,2.22420334815979,16.28,0.27958842333098594,0,0,1,0,1,0
1767978786.0438716,20260109131306.043824,18.18898481633927,-64.95864881680515,0.21909393800291727,0.27958842333098594,0.24588303194848113,0.5610878157208351,0.09420140890887962,7.5996639237999775,-10.95187586329579,23.664270545802143,3,-1.0,2.254305124282837,16.28,0.27958842333098594,0,0,1,0,1,0
1767978786.126494,20260109131306.126446,18.1889852332612,-64.95864865574114,0.21909393800291727,0.27958842333098594,0.20970993951400307,0.5713957234097197,0.09420140890887962,8.780149845814694,-11.981437602576612,20.15382526477337,3,-1.0,2.254305124282837,16.23,0.27958842333098594,0,0,1,0,1,0
1767978786.241027,20260109131306.240979,18.188985218177148,-64.95864870353888,0.2050404310097776,0.27958842333098594,-0.046073498263864546,-0.015304664574229349,0.01807502594455074,8.282709552016843,-10.204070627081391,14.005261162213111,5,42.13,2.1624910831451416,16.23,42.13,0,0,1,0,1,0
1767978786.3460386,20260109131306.345991,18.188985203528514,-64.95864874995685,0.2050404310097776,0.27958842333098594,-0.046073498263864546,-0.015304664574229349,0.01807502594455074,8.282709552016843,-10.204070627081391,14.005261162213111,5,42.13,1.9958795309066772,16.23,42.13,0,0,1,0,1,0
1767978786.4241474,20260109131306.424100,18.188985189977938,-64.95864878581656,0.2370793600432598,0.27958842333098594,-0.04511144384619974,-0.01794317792675443,0.04418495078326771,7.036170981354999,-7.323279366436599,10.690381342521942,5,42.13,1.9958795309066772,16.23,42.13,0,0,1,0,1,0
1767978786.5392451,20260109131306.539197,18.188985166268484,-64.9586488276269,0.2370793600432598,0.27958842333098594,-0.041687328533867286,-0.02488305929160268,0.04418495078326771,4.424536227799938,-1.2880967648047934,1.5478095769262676,5,42.13,2.031014919281006,16.23,42.13,0,0,1,0,1,0
1767978786.630753,20260109131306.630705,18.188985145220652,-64.9586488647436,0.16289488704801836,0.27958842333098594,-0.041687328533867286,-0.02488305929160268,-0.06759491734344397,4.424536227799938,-1.2880967648047934,1.5478095769262676,5,42.13,2.031014919281006,16.23,42.13,0,0,1,0,1,0
1767978786.750631,20260109131306.750583,18.188985114632402,-64.95864890079895,0.16289488704801836,0.27958842333098594,-0.03621209156969143,-0.03233704414674111,-0.06759491734344397,2.8521620856150847,0.8049447516119115,-9.383868129111207,5,42.13,2.2448556423187256,16.14,42.13,0,0,1,0,1,0
1767978786.8390155,20260109131306.838968,18.188985083134053,-64.95864893792705,0.15389488704801801,0.27958842333098594,-0.03621209156969143,-0.03233704414674111,-0.0773629846003403,2.8521620856150847,0.8049447516119115,-9.383868129111207,5,42.13,1.9470118284225464,16.14,42.13,0,0,1,0,1,0
1767978786.975066,20260109131306.975018,18.1889850492667,-64.95864897119823,0.15389488704801801,0.27958842333098594,-0.033125362381044916,-0.035492398723169644,-0.0773629846003403,3.443617192190127,-0.01903120834920533,-14.595017674648888,5,42.13,1.9178221225738525,16.14,42.13,0,0,1,0,1,0
1767978787.0254974,20260109131307.025450,18.188985021743235,-64.95864899414178,0.12234049305411449,0.27958842333098594,-0.030141010738748066,-0.03805942027470563,-0.10852309532496437,5.635547556790695,-1.5414160852588714,-19.24200193075476,5,42.13,1.9178221225738525,16.14,42.13,0,0,1,0,1,0
1767978787.1333857,20260109131307.133338,18.188984981097708,-64.95864901954673,0.12234049305411449,0.27958842333098594,-0.024787814455592257,-0.04174403256173427,-0.10852309532496437,13.495008063849795,-4.052606681294741,-26.917280344572045,5,42.13,1.4060711860656738,16.14,42.13,0,0,1,0,1,0
1767978787.2377448,20260109131307.237697,18.188984941572414,-64.95864904425149,0.1686040092692563,0.27958842333098594,-0.024787814455592257,-0.04174403256173427,-0.08435618502847111,13.495008063849795,-4.052606681294741,-26.917280344572045,5,42.13,1.1086251735687256,16.14,42.13,0,0,1,0,1,0
1767978787.3539171,20260109131307.353869,18.18898490011003,-64.95864906719865,0.1686040092692563,0.27958842333098594,-0.022593829280392504,-0.04297114006456517,-0.08435618502847111,17.726498744130126,-4.813914779439569,-29.884353146984555,5,42.13,0.8202583193778992,15.67,42.13,0,0,1,0,1,0
1767978787.427111,20260109131307.427063,18.188984868873817,-64.95864908274909,0.17736770373344152,0.27958842333098594,-0.020757103526127765,-0.043887841746953274,0.023507771415469517,19.751802528923736,-4.51467768160254,-32.30715359303591,5,42.13,0.8202583193778992,15.67,42.13,0,0,1,0,1,0
1767978787.5455742,20260109131307.545527,18.18898482550317,-64.95864910041661,0.17736770373344152,0.27958842333098594,-0.017522317151533302,-0.04527657674384275,0.023507771415469517,18.902049852704987,-0.33923923559244906,-36.46258752839204,5,42.13,1.3791074752807617,15.67,42.13,0,0,1,0,1,0
1767978787.6394536,20260109131307.639406,18.188984784512467,-64.95864911711463,0.14463313513355494,0.27958842333098594,-0.017522317151533302,-0.04527657674384275,-0.009308562672208219,18.902049852704987,-0.33923923559244906,-36.46258752839204,5,42.13,0.710429847240448,15.67,42.13,0,0,1,0,1,0
1767978787.7368474,20260109131307.736800,18.188984743101955,-64.9586491321885,0.14463313513355494,0.27958842333098594,-0.015867264038937436,-0.04588278470100353,-0.009308562672208219,17.349810261619076,2.251881304259596,-38.54283849715824,5,42.13,0.9821045994758606,15.67,42.13,0,0,1,0,1,0
1767978787.8261154,20260109131307.826068,18.188984704453166,-64.95864914447412,0.09789590037918994,0.27958842333098594,-0.014035467699621908,-0.046475860900610226,-0.030515572224216386,15.729183377015579,4.060146785947677,-40.815294472988825,5,42.13,0.9821045994758606,15.67,42.13,0,0,1,0,1,0
1767978787.9255257,20260109131307.925478,18.188984661854732,-64.9586491545036,0.09789590037918994,0.27958842333098594,-0.010597462017552253,-0.04737819961529287,-0.030515572224216386,12.98277869766353,5.068484558567403,-45.01106922755478,5,42.13,0.6739678382873535,16.39,42.13,0,0,1,0,1,0
1767978788.030736,20260109131308.030688,18.18898461924398,-64.958649164536,0.07148269735077005,0.27958842333098594,-0.010597462017552253,-0.04737819961529287,-0.05192310036866481,12.98277869766353,5.068484558567403,-45.01106922755478,5,42.13,0.6739678382873535,16.39,42.13,0,0,1,0,1,0
1767978788.1297443,20260109131308.129697,18.188984576171325,-64.95864917343522,0.07148269735077005,0.27958842333098594,-0.009351025571523869,-0.04763988161992751,-0.05192310036866481,9.792108473762855,4.524029067693648,-46.5141826654696,5,42.13,0.5978315472602844,16.39,42.13,0,0,1,0,1,0
1767978788.2316737,20260109131308.231626,18.188984533551793,-64.95864918224082,0.06978027005083398,0.27958842333098594,-0.009351025571523869,-0.04763988161992751,-0.10267786193077721,9.792108473762855,4.524029067693648,-46.5141826654696,5,42.13,0.5978315472602844,16.39,42.13,0,0,1,0,1,0
1767978788.3284469,20260109131308.328399,18.188984489363047,-64.95864919097653,0.06978027005083398,0.27958842333098594,-0.008961431315454425,-0.04771470160001415,-0.10267786193077721,8.218481845191105,4.0100127526268325,-46.98237180991406,5,42.13,0.6283624768257141,16.39,42.13,0,0,1,0,1,0
1767978788.4254482,20260109131308.425401,18.188984447635203,-64.95864919866625,0.051919970650793,0.27958842333098594,-0.008372331805710793,-0.04782158571330612,-0.12856108223265944,7.171128310534347,2.403542934244122,-47.688961962392305,5,42.13,0.6283624768257141,16.39,42.13,0,0,1,0,1,0
1767978788.5415301,20260109131308.541483,18.188984404420605,-64.95864920606823,0.051919970650793,0.27958842333098594,-0.007797596966392827,-0.04791865483869201,-0.12856108223265944,8.205693165171134,-3.883753245578711,-48.37685446533198,5,42.13,0.6335710883140564,16.09,42.13,0,0,1,0,1,0
1767978788.6271918,20260109131308.627144,18.188984361453976,-64.95864921342775,0.06196417763104345,0.27958842333098594,-0.007797596966392827,-0.04791865483869201,-0.08308697395898654,8.205693165171134,-3.883753245578711,-48.37685446533198,5,42.13,0.6335710883140564,16.09,42.13,0,0,1,0,1,0
1767978788.7289097,20260109131308.728862,18.188984318383596,-64.95864922097235,0.06196417763104345,0.27958842333098594,-0.00796972787555036,-0.04789032718190256,-0.08308697395898654,10.760655257597554,-8.974213518771533,-48.17097882975576,5,42.13,0.6576700210571289,16.09,42.13,0,0,1,0,1,0
1767978788.8422012,20260109131308.842154,18.188984275308428,-64.95864922851779,0.14950763879617096,0.27958842333098594,-0.00796972787555036,-0.04789032718190256,0.050922838903773734,10.760655257597554,-8.974213518771533,-48.17097882975576,5,42.13,0.5207423567771912,16.09,42.13,0,0,1,0,1,0
1767978788.9266636,20260109131308.926616,18.188984866857513,-64.9586497893899,0.14950763879617096,0.27958842333098594,-0.5926060122346912,0.6578921752561714,0.050922838903773734,11.297331587111941,-10.463269568574434,-48.36590908327339,5,42.99,0.5207423567771912,16.09,42.99,0,0,1,0,1,0
1767978789.0372262,20260109131309.037179,18.18898549169324,-64.9586503960368,0.1325076387961715,0.27958842333098594,-0.6003302851608266,0.6508514029474937,0.07889945567465433,6.531643936872468,-11.01657741466463,-49.042226836204705,5,42.99,0.9065373539924622,16.09,42.99,0,0,1,0,1,0
1767978789.1505077,20260109131309.150460,18.188986037546083,-64.95865092600002,0.1325076387961715,0.27958842333098594,-0.6003302851608266,0.6508514029474937,0.07889945567465433,6.531643936872468,-11.01657741466463,-49.042226836204705,5,42.99,0.9065373539924622,16.28,42.99,0,0,1,0,1,0
1767978789.2372527,20260109131309.237205,18.188986671355266,-64.9586515682808,0.16369319630199605,0.27958842333098594,-0.6141011098808155,0.6378744600963034,0.12611149011278727,3.42909812581389,-10.141849289041762,-50.2666616261484,5,42.99,1.8481074571609497,16.28,42.99,0,0,1,0,1,0
1767978789.346786,20260109131309.346738,18.188987305946295,-64.9586522113539,0.16369319630199605,0.27958842333098594,-0.6141011098808155,0.6378744600963034,0.12611149011278727,3.42909812581389,-10.141849289041762,-50.2666616261484,5,42.99,3.8097808361053467,16.28,42.99,0,0,1,0,1,0
1767978789.4602458,20260109131309.460198,18.188987843445815,-64.95865311105985,0.2069126542153374,0.27958842333098594,-0.8656668002372153,0.5443647591156698,0.21037933047273694,3.9522899495378008,-9.01150465742648,-51.32330934404152,5,42.44,3.8097808361053467,16.28,42.44,0,0,1,0,1,0
1767978789.5698223,20260109131309.569775,18.188988402168093,-64.95865404629,0.22021233330129464,0.27958842333098594,-0.8656668002372153,0.5443647591156698,0.11578322369472435,3.9522899495378008,-9.01150465742648,-51.32330934404152,5,42.44,3.8097808361053467,16.28,42.44,0,0,1,0,1,0
1767978789.686426,20260109131309.686378,18.188988945088497,-64.95865495443645,0.22021233330129464,0.27958842333098594,-0.8654956986661019,0.5446367556367053,0.11578322369472435,4.202995547761011,-7.766215584942701,-51.305304958951645,5,42.44,3.8097808361053467,16.28,42.44,0,0,1,0,1,0
1767978789.7940109,20260109131309.793963,18.188989496426082,-64.9586558633281,0.24221233330129488,0.27958842333098594,-0.8618900992123306,0.5503248648568942,0.13214103005061623,4.150190909519779,-6.196920578514042,-50.92796760823744,5,42.44,3.8097808361053467,16.0,42.44,0,0,1,0,1,0
1767978789.8326066,20260109131309.832559,18.188989660844122,-64.95865612863682,0.24221233330129488,0.27958842333098594,-0.8564844114383187,0.5587006828017635,0.13214103005061623,3.7556700773700937,-4.447613737709824,-50.36942185895458,5,42.44,3.8097808361053467,16.0,42.44,0,0,1,0,1,0
1767978789.9240856,20260109131309.924038,18.18899018226613,-64.9586569260382,0.24221233330129488,0.27958842333098594,-0.8423533069707273,0.5797869490040971,0.13214103005061623,3.4438859175413716,-1.001701814581458,-48.947164229345496,5,42.44,4.252939224243164,16.0,42.44,0,0,1,0,1,0
1767978790.0320532,20260109131310.032006,18.18899070363795,-64.95865772336282,0.24686444355504716,0.27958842333098594,-0.8423533069707273,0.5797869490040971,0.15296538617021763,3.4438859175413716,-1.001701814581458,-48.947164229345496,5,42.44,4.252939224243164,16.0,42.44,0,0,1,0,1,0
1767978790.1284215,20260109131310.128374,18.188991209912245,-64.95865866310258,0.24686444355504716,0.27958842333098594,-0.9488846432631712,0.5380882211861955,0.15296538617021763,3.0374707335859408,0.8710016691287941,-47.94892831012028,5,42.59,4.252939224243164,16.0,42.59,0,0,1,0,1,0
1767978790.2275078,20260109131310.227460,18.188991671553776,-64.95865951999559,0.20093408605579388,0.27958842333098594,-0.9488846432631712,0.5380882211861955,0.0879570746228458,3.0374707335859408,0.8710016691287941,-47.94892831012028,5,42.59,2.5459916591644287,16.0,42.59,0,0,1,0,1,0
1767978790.324667,20260109131310.324619,18.188992157981367,-64.9586604164932,0.20093408605579388,0.27958842333098594,-0.9472340171509792,0.5409886475260071,0.0879570746228458,3.1935839409537476,1.2192103336907882,-47.77364168767944,5,42.59,2.5459916591644287,15.95,42.59,0,0,1,0,1,0
1767978790.424622,20260109131310.424574,18.188992644205477,-64.95866131332417,0.18287388896146087,0.27958842333098594,-0.9474180192749795,0.5406663451270799,-0.008126466541186622,3.9790856450065837,1.294441479203846,-47.793135054540784,5,42.59,2.5459916591644287,15.95,42.59,0,0,1,0,1,0
1767978790.5545583,20260109131310.554511,18.188993125481154,-64.95866221325672,0.18287388896146087,0.27958842333098594,-0.9505749352526023,0.5350965263104506,-0.008126466541186622,6.928000809904919,0.00048024784773196356,-48.129412708377984,5,42.59,0.9946584105491638,15.95,42.59,0,0,1,0,1,0
1767978790.6582456,20260109131310.658198,18.18899366467505,-64.95866322148996,0.19777760274653702,0.27958842333098594,-0.9505749352526023,0.5350965263104506,-0.005152857131041045,6.928000809904919,0.00048024784773196356,-48.129412708377984,5,42.59,1.166236162185669,15.95,42.59,0,0,1,0,1,0
1767978790.7663784,20260109131310.766331,18.188994301423612,-64.9586641914652,0.19777760274653702,0.27958842333098594,-0.899109615531673,0.621272001025708,-0.005152857131041045,8.249958783236133,-1.2054583832100079,-48.049000862527066,5,42.2,1.4453476667404175,15.95,42.2,0,0,1,0,1,0
1767978790.8246047,20260109131310.824557,18.188994717439762,-64.95866481934128,0.17177760274653722,0.27958842333098594,-0.8964012257471611,0.6251734499152912,-0.08937472316277414,9.095497231230127,-2.222831218671803,-47.800006227302724,5,42.2,1.4453476667404175,15.95,42.2,0,0,1,0,1,0
1767978790.9330726,20260109131310.933025,18.188995326554423,-64.95866573856051,0.17177760274653722,0.27958842333098594,-0.8963717122611685,0.6252157655225762,-0.08937472316277414,8.2014063661605,-3.687981597831849,-47.79730147142425,5,42.2,1.467591643333435,16.23,42.2,0,0,1,0,1,0
1767978791.0443566,20260109131311.044309,18.188995927902738,-64.95866664605951,0.20011488868026361,0.27958842333098594,-0.8963717122611685,0.6252157655225762,0.005608243003027334,8.2014063661605,-3.687981597831849,-47.79730147142425,5,42.2,1.1646093130111694,16.23,42.2,0,0,1,0,1,0
1767978791.1576302,20260109131311.157583,18.18899640186557,-64.95866736667878,0.20011488868026361,0.27958842333098594,-0.8985530171441314,0.6220767439642624,0.005608243003027334,6.63570788250266,-4.2526634205043345,-47.99770270842331,5,42.2,1.1646093130111694,16.23,42.2,0,0,1,0,1,0
1767978791.2247274,20260109131311.224680,18.1889969561192,-64.95866822481096,0.21437891245938462,0.27958842333098594,-0.9037887599247448,0.6144451785421482,0.04094826589157734,3.2913188602812458,-4.391431142829362,-48.482909275269684,5,42.2,1.5012876987457275,16.23,42.2,0,0,1,0,1,0
1767978791.3337138,20260109131311.333666,18.188997552785974,-64.95866897868423,0.21437891245938462,0.27958842333098594,-0.7425225338757998,0.6185929895227247,0.04094826589157734,3.2913188602812458,-4.391431142829362,-48.482909275269684,5,42.11,1.5012876987457275,16.23,42.11,0,0,1,0,1,0
1767978791.425571,20260109131311.425523,18.188998065594276,-64.95866962968012,0.18449054200384907,0.27958842333098594,-0.7439605550119518,0.6168627826237442,-0.0468635677034968,1.5917267430659254,-4.23667436882705,-48.616289257073575,5,42.11,1.5012876987457275,16.23,42.11,0,0,1,0,1,0
1767978791.5277064,20260109131311.527659,18.18899863803685,-64.95867035072662,0.18449054200384907,0.27958842333098594,-0.7415861937485265,0.6197151904234499,-0.0468635677034968,-0.30740864836844983,-4.694436372001472,-48.39626146447676,5,42.11,1.5012876987457275,16.2,42.11,0,0,1,0,1,0
1767978791.6344984,20260109131311.634451,18.188999230556732,-64.95867109706244,0.20545708770174648,0.27958842333098594,-0.7415861937485265,0.6197151904234499,0.008791139701107235,-0.30740864836844983,-4.694436372001472,-48.39626146447676,5,42.11,3.1054141521453857,16.2,42.11,0,0,1,0,1,0
1767978791.726491,20260109131311.726443,18.18899974015579,-64.95867173350105,0.20545708770174648,0.27958842333098594,-0.7389774250727043,0.6228237031720258,0.008791139701107235,-0.5959887529794253,-5.097742964999383,-48.15567138003126,5,42.11,3.1054141521453857,16.2,42.11,0,0,1,0,1,0
1767978791.838064,20260109131311.838016,18.189000362211978,-64.95867249206694,0.195635610661921,0.27958842333098594,-0.7315878253844661,0.6314873345913028,-0.002932829802266243,0.1304855813864488,-4.5448790813639794,-47.48057865617292,5,42.11,2.544553279876709,16.2,42.11,0,0,1,0,1,0
1767978791.9614904,20260109131311.961443,18.18900109480303,-64.95867313723885,0.195635610661921,0.27958842333098594,-0.6045987206325878,0.7226288030582771,-0.002932829802266243,0.1304855813864488,-4.5448790813639794,-47.48057865617292,5,41.89,4.142444610595703,16.2,41.89,0,0,1,0,1,0
1767978792.027782,20260109131312.027734,18.189001603057807,-64.95867357825874,0.21660155623995386,0.27958842333098594,-0.5993184218845145,0.7270140502011329,-0.031211433272609022,0.7865756449621043,-3.593097002841537,-47.06318260259494,5,41.89,4.142444610595703,16.2,41.89,0,0,1,0,1,0
1767978792.1388378,20260109131312.138790,18.189002349741028,-64.95867420783833,0.21660155623995386,0.27958842333098594,-0.5890494360763648,0.7353589340302575,-0.031211433272609022,2.541251549982267,-1.3132437160514332,-46.258517728756516,5,41.89,2.5792951583862305,16.34,41.89,0,0,1,0,1,0
1767978792.2337818,20260109131312.233734,18.189002940822327,-64.95867470621934,0.2031299893552388,0.27958842333098594,-0.5890494360763648,0.7353589340302575,-0.039063664778260385,2.541251549982267,-1.3132437160514332,-46.258517728756516,5,41.89,2.5792951583862305,16.34,41.89,0,0,1,0,1,0
1767978792.3349595,20260109131312.334912,18.189003590710158,-64.95867524591611,0.2031299893552388,0.27958842333098594,-0.583587310141545,0.739701190645085,-0.039063664778260385,3.3869295900173357,-0.19829620396066863,-45.83418865975005,5,41.89,2.5792951583862305,16.34,41.89,0,0,1,0,1,0
1767978792.4328794,20260109131312.432832,18.18900429417877,-64.95867581459521,0.19412998935523845,0.27958842333098594,-0.5738881613759713,0.747251214942142,0.006636812751977771,4.366375011786806,1.996511112052199,-45.08673688595161,5,41.89,2.5792951583862305,16.34,41.89,0,0,1,0,1,0
1767978792.548662,20260109131312.548614,18.189004934810892,-64.95867633247772,0.19412998935523845,0.27958842333098594,-0.5738881613759713,0.747251214942142,0.006636812751977771,4.366375011786806,1.996511112052199,-45.08673688595161,5,41.89,2.5792951583862305,16.34,41.89,0,0,1,0,1,0
1767978792.6432674,20260109131312.643220,18.18900535912947,-64.95867725358838,0.1579593180927083,0.27958842333098594,-0.8986698968206237,0.43575499601084255,-0.05103046036199307,4.6764614421129105,3.4795738821588427,-44.89859584289655,5,42.27,0.9965941905975342,16.34,42.27,0,0,1,0,1,0
1767978792.7423975,20260109131312.742350,18.189005787186126,-64.95867818281367,0.1579593180927083,0.27958842333098594,-0.8986698968206237,0.43575499601084255,-0.05103046036199307,4.6764614421129105,3.4795738821588427,-44.89859584289655,5,42.27,0.9535267353057861,16.28,42.27,0,0,1,0,1,0
1767978792.880564,20260109131312.880516,18.18900622076037,-64.95867911639371,0.11656793777494587,0.27958842333098594,-0.8972706491128137,0.43862898016509333,-0.12247690158835067,5.3375983769595505,3.554006749027219,-44.715218858491035,5,42.27,0.7771351933479309,16.28,42.27,0,0,1,0,1,0
1767978792.9867892,20260109131312.986742,18.189006662789527,-64.95868006817908,0.11656793777494587,0.27958842333098594,-0.8972706491128137,0.43862898016509333,-0.12247690158835067,5.3375983769595505,3.554006749027219,-44.715218858491035,5,42.27,0.9266578555107117,16.28,42.27,0,0,1,0,1,0
1767978793.0248141,20260109131313.024766,18.18900690377565,-64.9586805810144,0.13301673966296768,0.27958842333098594,-0.8952204087937834,0.44279839620203176,-0.08634954024639321,5.957837405093,2.841780407807972,-44.448674045919006,5,42.27,0.9266578555107117,16.28,42.27,0,0,1,0,1,0
1767978793.1387095,20260109131313.138662,18.18900735050283,-64.95868151446835,0.13301673966296768,0.27958842333098594,-0.8919635315341075,0.449322888815163,-0.08634954024639321,7.814815813359608,-0.10254961744454019,-44.030335054956524,5,42.27,0.8297387361526489,16.28,42.27,0,0,1,0,1,0
1767978793.2414737,20260109131313.241426,18.189007824291416,-64.95868213278835,0.10797003365012518,0.27958842333098594,-0.6376828307848332,0.5143253905090062,-0.09839870774124135,7.814815813359608,-0.10254961744454019,-44.030335054956524,5,42.0,0.5670273303985596,16.28,42.0,0,0,1,0,1,0
1767978793.3257005,20260109131313.325653,18.189008226913447,-64.95868265808274,0.10797003365012518,0.27958842333098594,-0.6376113650694758,0.5144139841938975,-0.09839870774124135,9.040529556682692,-2.2815341542571814,-44.022374466632456,5,42.0,0.5670273303985596,16.28,42.0,0,0,1,0,1,0
1767978793.425548,20260109131313.425500,18.189008689808002,-64.95868326140433,0.14543726474438873,0.27958842333098594,-0.6373574718772848,0.5147285236337658,-0.016301124411261816,9.707059781581147,-4.7686139604583415,-43.99410430354935,5,42.0,0.919858455657959,16.28,42.0,0,0,1,0,1,0
1767978793.529821,20260109131313.529773,18.18900915422465,-64.95868386343808,0.14543726474438873,0.27958842333098594,-0.6359908855353328,0.5164161050122111,-0.016301124411261816,9.198474322620022,-7.322571587830783,-43.84223499305114,5,42.0,0.919858455657959,16.28,42.0,0,0,1,0,1,0
1767978793.63332,20260109131313.633272,18.189009670768282,-64.95868451038955,0.21335481520992333,0.27958842333098594,-0.6271731723880068,0.5270899466284321,0.1158798646439255,5.782658358170078,-10.469841066679361,-42.87394946404561,5,42.0,1.0200272798538208,16.28,42.0,0,0,1,0,1,0
1767978793.7398221,20260109131313.739775,18.189010177120426,-64.95868514457658,0.21335481520992333,0.27958842333098594,-0.6271731723880068,0.5270899466284321,0.1158798646439255,5.782658358170078,-10.469841066679361,-42.87394946404561,5,42.0,1.256246566772461,16.28,42.0,0,0,1,0,1,0
1767978793.8403618,20260109131313.840314,18.189010459134106,-64.9586855564817,0.20903755153318854,0.27958842333098594,-0.4378854677775229,0.3155698292125848,0.0886899538004827,4.5539815923482045,-10.470629100036625,-42.24481539199812,5,41.4,2.504199981689453,16.28,41.4,0,0,1,0,1,0
1767978793.9282634,20260109131313.928216,18.189010702860703,-64.9586859058479,0.20903755153318854,0.27958842333098594,-0.4350512361359879,0.31946583844998033,0.0886899538004827,3.6065554685264707,-10.178212375411395,-41.73338430445656,5,41.4,2.504199981689453,16.25,41.4,0,0,1,0,1,0
1767978794.0256364,20260109131314.025589,18.189010996883876,-64.95868631526001,0.21309987342010717,0.27958842333098594,-0.43056935469908236,0.32548122955712183,0.07829452548088144,1.9201566134624035,-10.156835583212974,-40.93707446250779,5,41.4,2.504199981689453,16.25,41.4,0,0,1,0,1,0
1767978794.140233,20260109131314.140185,18.18901129424323,-64.9586867293176,0.21309987342010717,0.27958842333098594,-0.43056935469908236,0.32548122955712183,0.07829452548088144,1.9201566134624035,-10.156835583212974,-40.93707446250779,5,41.4,2.504199981689453,16.25,41.4,0,0,1,0,1,0
1767978794.2291827,20260109131314.229135,18.189011583301866,-64.95868712682116,0.22405055034819024,0.27958842333098594,-0.42860279994549233,0.32806651746084103,0.11844989635878078,1.5036182317636775,-9.995993108484154,-40.59226419179904,5,41.4,2.504199981689453,16.25,41.4,0,0,1,0,1,0
1767978794.3250399,20260109131314.324992,18.189011880063575,-64.95868753111831,0.22405055034819024,0.27958842333098594,-0.42711555656616296,0.3300004565741946,0.11844989635878078,1.4465388540688773,-9.33403825819195,-40.333285523985474,5,41.4,2.504199981689453,16.25,41.4,0,0,1,0,1,0
1767978794.4261985,20260109131314.426151,18.189012179367783,-64.95868793332193,0.2269661219924789,0.27958842333098594,-0.4249114468646199,0.3328336856801236,0.017723480039518288,1.5796888505145779,-6.15263020100445,-39.95223767167791,5,41.4,2.504199981689453,16.25,41.4,0,0,1,0,1,0
1767978794.5277996,20260109131314.527752,18.189012600531964,-64.95868838130076,0.2269661219924789,0.27958842333098594,-0.4576120712439793,0.4528489728947116,0.017723480039518288,1.5796888505145779,-6.15263020100445,-39.95223767167791,5,42.26,2.504199981689453,16.25,42.26,0,0,1,0,1,0
1767978794.6459856,20260109131314.645938,18.18901299491281,-64.9586887986465,0.20568680472389866,0.27958842333098594,-0.45645012066579654,0.45402013980018524,-0.003379714451562609,1.443767823987441,-4.057050574712458,-39.80541416523322,5,42.26,2.504199981689453,16.25,42.26,0,0,1,0,1,0
1767978794.7401452,20260109131314.740098,18.189013436337014,-64.9586892657854,0.20568680472389866,0.27958842333098594,-0.45645518117705464,0.4540150521476377,-0.003379714451562609,0.7164926496550309,-0.9974356128674028,-39.80605278814897,5,42.26,1.5938373804092407,16.25,42.26,0,0,1,0,1,0
1767978794.839439,20260109131314.839391,18.189013862843467,-64.9586897171375,0.16521520633255846,0.27958842333098594,-0.45645518117705464,0.4540150521476377,-0.04228992662910994,0.7164926496550309,-0.9974356128674028,-39.80605278814897,5,42.26,0.943650484085083,16.25,42.26,0,0,1,0,1,0
1767978794.9249191,20260109131314.924871,18.189014220397727,-64.95869009430099,0.16521520633255846,0.27958842333098594,-0.455721655601249,0.4547513305269777,-0.04228992662910994,0.4705122633665667,-0.11497720444388994,-39.71355833333596,5,42.26,0.943650484085083,16.25,42.26,0,0,1,0,1,0
1767978795.0314708,20260109131315.031423,18.189014641994955,-64.95869052832609,0.1198016195399019,0.27958842333098594,-0.4501542169163459,0.46026316493114183,-0.11067129609374815,-1.0249887125529484,1.4955970254890592,-39.01633021605858,5,42.26,1.288189172744751,16.25,42.26,0,0,1,0,1,0
1767978795.1331675,20260109131315.133120,18.189015306818902,-64.95869130861308,0.1198016195399019,0.27958842333098594,-0.7863654091085908,0.7052428258107122,-0.11067129609374815,-1.0249887125529484,1.4955970254890592,-39.01633021605858,5,42.48,0.7190048694610596,16.09,42.48,0,0,1,0,1,0
1767978795.2879567,20260109131315.287909,18.189015962910553,-64.9586920409161,0.1265449337758809,0.27958842333098594,-0.7684669893753965,0.72470441301286,-0.0984213761649114,-1.4029672475047545,1.4239220619276138,-37.58208047752627,5,42.48,0.7019172310829163,16.09,42.48,0,0,1,0,1,0
1767978795.325209,20260109131315.325161,18.189016566767314,-64.95869271491665,0.1265449337758809,0.27958842333098594,-0.7684669893753965,0.72470441301286,-0.0984213761649114,-1.4029672475047545,1.4239220619276138,-37.58208047752627,5,42.48,0.7019172310829163,16.09,42.48,0,0,1,0,1,0
1767978795.4412029,20260109131315.441155,18.18901730115745,-64.95869347367876,0.13104192104166748,0.27958842333098594,-0.7399236343954597,0.7538242601979682,-0.07407541937011461,2.2865498627789185,0.5604670074781377,-35.37013658428439,5,42.48,0.6785171031951904,16.09,42.48,0,0,1,0,1,0
1767978795.5461888,20260109131315.546141,18.18901806116935,-64.95869425891296,0.13104192104166748,0.27958842333098594,-0.7399236343954597,0.7538242601979682,-0.07407541937011461,2.2865498627789185,0.5604670074781377,-35.37013658428439,5,42.48,0.7716109752655029,16.09,42.48,0,0,1,0,1,0
1767978795.6268582,20260109131315.626811,18.189018607448155,-64.95869480884829,0.10206194546363245,0.27958842333098594,-0.7300757915538245,0.763365796055244,-0.04984807240275867,4.693340553134668,0.4303069274106977,-34.62635091583382,5,42.48,0.7716109752655029,16.09,42.48,0,0,1,0,1,0
1767978795.7335591,20260109131315.733511,18.189019473049978,-64.95869566920697,0.10206194546363245,0.27958842333098594,-0.8492678280979186,0.8993843206092956,-0.04984807240275867,8.283252552250016,0.7870896702418092,-34.42907790659315,5,41.91,0.5543853044509888,16.2,41.91,0,0,1,0,1,0
1767978795.8246455,20260109131315.824598,18.189020225059416,-64.95869641666135,0.09389448420643567,0.27958842333098594,-0.8492678280979186,0.8993843206092956,-0.048617044070568764,8.283252552250016,0.7870896702418092,-34.42907790659315,5,41.91,0.6018989086151123,16.2,41.91,0,0,1,0,1,0
1767978795.940775,20260109131315.940727,18.189021029413787,-64.95869722633454,0.09389448420643567,0.27958842333098594,-0.8549393341761631,0.8939948181496463,-0.048617044070568764,9.306351222717746,0.9143652216531313,-34.79146909051185,5,41.91,0.6018989086151123,16.2,41.91,0,0,1,0,1,0
1767978796.0705774,20260109131316.070530,18.189022152082178,-64.95869838197278,0.06821816411290828,0.27958842333098594,-0.8648720040572349,0.8843892901873147,-0.04419649364500734,9.432433144783959,0.31832625609319376,-35.43148195024977,5,41.91,0.9806968569755554,16.2,41.91,0,0,1,0,1,0
1767978796.1552536,20260109131316.155206,18.189022840721375,-64.95869910974127,0.10337160577455977,0.27958842333098594,-0.8764349939146496,0.8729316705457697,-0.03843804175161523,9.127886853629334,-1.3009781860202576,-36.18547192496903,5,41.91,1.0793170928955078,16.2,41.91,0,0,1,0,1,0
1767978796.2433438,20260109131316.243296,18.189023392665273,-64.95869970590357,0.10337160577455977,0.27958842333098594,-0.8858968910583584,0.8633276888952045,-0.03843804175161523,8.43292766369282,-3.2296089328385915,-36.80994268369324,5,41.91,1.0793170928955078,16.2,41.91,0,0,1,0,1,0
1767978796.3340511,20260109131316.334004,18.18902404655563,-64.95870048512043,0.10337160577455977,0.27958842333098594,-0.8232695944934458,0.7271947296169007,-0.03843804175161523,7.345759234580384,-4.581815903829042,-37.205204164745886,5,42.1,1.0793170928955078,16.34,42.1,0,0,1,0,1,0
1767978796.4309006,20260109131316.430853,18.18902472937717,-64.95870130650937,0.15416349340494573,0.27958842333098594,-0.8266551125410642,0.7233438497075374,0.028507268821020598,4.080512282900499,-5.712131080242996,-37.47265739280232,5,42.1,0.8763782382011414,16.34,42.1,0,0,1,0,1,0
1767978796.5424097,20260109131316.542362,18.189025457686967,-64.95870218261766,0.15416349340494573,0.27958842333098594,-0.8266551125410642,0.7233438497075374,0.028507268821020598,4.080512282900499,-5.712131080242996,-37.47265739280232,5,42.1,1.4939601421356201,16.34,42.1,0,0,1,0,1,0
1767978796.6268778,20260109131316.626830,18.18902600132442,-64.95870282994939,0.1715875216327568,0.27958842333098594,-0.822990440669464,0.7275106422360303,0.07085642201358713,2.76390469748004,-6.607470589716736,-37.18321436285027,5,42.1,1.4939601421356201,16.34,42.1,0,0,1,0,1,0
1767978796.7342257,20260109131316.734178,18.189026745615337,-64.95870365698623,0.1715875216327568,0.27958842333098594,-0.7974541157808959,0.7554150734689569,0.07085642201358713,1.1221993079524355,-8.19846596867144,-35.210115440096914,5,42.1,2.053382158279419,16.34,42.1,0,0,1,0,1,0
1767978796.842043,20260109131316.841995,18.189027446054123,-64.95870443529573,0.14472865961601816,0.27958842333098594,-0.7974541157808959,0.7554150734689569,0.09789890900855858,1.1221993079524355,-8.19846596867144,-35.210115440096914,5,42.1,3.003495931625366,16.34,42.1,0,0,1,0,1,0
1767978796.925631,20260109131316.925583,18.189028053415015,-64.958705080193,0.14472865961601816,0.27958842333098594,-0.7800932868029324,0.7733301131373312,0.09789890900855858,-0.10708227667279088,-8.01306041735709,-33.90883928696761,5,42.1,3.003495931625366,16.17,42.1,0,0,1,0,1,0
1767978797.037802,20260109131317.037754,18.189028852339984,-64.95870586733693,0.17172865961601919,0.27958842333098594,-0.7506417578838689,0.8019488458256019,0.10671337342834278,-2.9093854309424887,-6.782491688458625,-31.766676046332215,5,42.1,2.017086982727051,16.17,42.1,0,0,1,0,1,0
1767978797.1471264,20260109131317.147079,18.18902964816406,-64.95870665142569,0.17172865961601919,0.27958842333098594,-0.7506417578838689,0.8019488458256019,0.10671337342834278,-2.9093854309424887,-6.782491688458625,-31.766676046332215,5,42.1,2.017086982727051,16.17,42.1,0,0,1,0,1,0
1767978797.2254426,20260109131317.225395,18.189030225694545,-64.95870720200236,0.16199184884339848,0.27958842333098594,-0.7373790012697489,0.8141604316634576,0.0670640114958915,-3.772942778183533,-6.316452346824113,-30.82629014251479,5,42.1,2.017086982727051,16.17,42.1,0,0,1,0,1,0
1767978797.3255095,20260109131317.325462,18.189030978429862,-64.9587078755202,0.16199184884339848,0.27958842333098594,-0.7114317395057533,0.8369288380882917,0.0670640114958915,-3.444851108993604,-4.360405851204694,-29.02560403908139,5,42.1,2.017086982727051,16.17,42.1,0,0,1,0,1,0
1767978797.442176,20260109131317.442128,18.189031730975437,-64.9587085488683,0.17176112900937598,0.27958842333098594,-0.7114317395057533,0.8369288380882917,0.003314239660437932,-3.444851108993604,-4.360405851204694,-29.02560403908139,5,42.1,2.017086982727051,16.17,42.1,0,0,1,0,1,0
1767978797.5267236,20260109131317.526676,18.189032488724642,-64.9587092161427,0.17176112900937598,0.27958842333098594,-0.7048303362635575,0.8424958142819468,0.003314239660437932,-2.5931396618865565,-2.843953689401598,-28.575175100376676,5,42.1,3.016296863555908,16.28,42.1,0,0,1,0,1,0
1767978797.6326032,20260109131317.632556,18.189033247828558,-64.95870988143403,0.14027110429863712,0.27958842333098594,-0.7028545623892384,0.8441448122974117,-0.028901146448651698,-1.6735508377544726,-1.5311780549190959,-28.44093963707336,5,42.1,3.016296863555908,16.28,42.1,0,0,1,0,1,0
1767978797.737533,20260109131317.737485,18.18903407766157,-64.95871060096717,0.14027110429863712,0.27958842333098594,-0.6984043374408975,0.8478303966264367,-0.028901146448651698,-0.2110389669503223,0.2634101281480847,-28.13954206425197,5,42.1,1.0452702045440674,16.28,42.1,0,0,1,0,1,0
1767978797.836899,20260109131317.836851,18.1890347729118,-64.958711203806,0.10816053699014162,0.27958842333098594,-0.6984043374408975,0.8478303966264367,-0.03173752169716507,-0.2110389669503223,0.2634101281480847,-28.13954206425197,5,42.1,1.0452702045440674,16.28,42.1,0,0,1,0,1,0
1767978797.9303908,20260109131317.930343,18.189035581017606,-64.9587119024169,0.10816053699014162,0.27958842333098594,-0.6971652291503155,0.8488495999078918,-0.03173752169716507,0.18434760532643202,0.7021662693874893,-28.05585428774903,5,42.1,0.7195928692817688,16.28,42.1,0,0,1,0,1,0
1767978798.0354064,20260109131318.035359,18.1890475,-64.95870483333333,0.0830956710801338,0.27958842333098594,-0.6157091763118465,0.6404873744456497,-0.09600757442442143,0.18434760532643202,0.7021662693874893,-28.05586362479079,1,42.1,0.6848771572113037,16.28,42.1,0,0,1,0,1,0
1767978798.1554809,20260109131318.155433,18.1890475,-64.95870483333333,0.0830956710801338,0.27958842333098594,-0.6157091763118465,0.6404873744456497,-0.09600757442442143,0.04623012524702098,2.8778843737833184,-28.038187942672227,1,42.1,0.6732785105705261,16.17,42.1,0,0,1,0,1,0
1767978798.231025,20260109131318.230977,18.1890475,-64.95870483333333,0.0960956710801337,0.27958842333098594,-0.6157091763118465,0.6404873744456497,-0.06431959402771688,0.04623012524702098,2.8778843737833184,-28.038187942672227,1,42.1,0.4347280263900757,16.17,42.1,0,0,1,0,1,0
1767978798.3310575,20260109131318.331010,18.1890475,-64.95870483333333,0.0960956710801337,0.27958842333098594,-0.6157091763118465,0.6404873744456497,-0.06431959402771688,0.5983234512107309,4.006220288734138,-28.04970279195653,1,42.1,0.4347280263900757,16.17,42.1,0,0,1,0,1,0
1767978798.4330697,20260109131318.433022,18.1890475,-64.95870483333333,0.06787918572821686,0.27958842333098594,-0.6157091763118465,0.6404873744456497,-0.10562270874402024,2.1102831078417457,2.3181973421707736,-27.28272520788655,1,42.1,0.6006190180778503,16.17,42.1,0,0,1,0,1,0
1767978798.5253553,20260109131318.525308,18.189050666666667,-64.95870716666667,0.06787918572821686,0.27958842333098594,-0.479394662966283,0.5888443404534661,-0.10562270874402024,2.1102831078417457,2.3181973421707736,-27.28272520788655,1,42.1,0.6006190180778503,16.17,42.1,0,0,1,0,1,0
1767978798.6302147,20260109131318.630167,18.189050666666667,-64.95870716666667,0.06777546918912,0.27958842333098594,-0.479394662966283,0.5888443404534661,-0.054311998995273565,3.191443316213771,-0.5125256791083155,-25.928800230262123,1,42.1,0.5886074900627136,16.17,42.1,0,0,1,0,1,0
1767978798.7282393,20260109131318.728192,18.189050666666667,-64.95870716666667,0.06777546918912,0.27958842333098594,-0.479394662966283,0.5888443404534661,-0.054311998995273565,3.191443316213771,-0.5125256791083155,-25.928800230262123,1,42.1,0.6543844938278198,16.06,42.1,0,0,1,0,1,0
1767978798.8416088,20260109131318.841561,18.189050666666667,-64.95870716666667,0.08253032956792683,0.27958842333098594,-0.479394662966283,0.5888443404534661,-0.01566316946964626,3.888090844139444,-3.2942652341879928,-25.183914047188058,1,42.1,0.7746768593788147,16.06,42.1,0,0,1,0,1,0
1767978798.937084,20260109131318.937036,18.189050666666667,-64.95870716666667,0.08253032956792683,0.27958842333098594,-0.479394662966283,0.5888443404534661,-0.01566316946964626,3.888090844139444,-3.2942652341879928,-25.183914047188058,1,41.09,0.8095628023147583,16.06,41.09,0,0,1,0,1,0
1767978799.0250463,20260109131319.024999,18.189053833333332,-64.95870916666667,0.08486712584256842,0.27958842333098594,-0.40195083852435903,0.6075118216910071,-0.0005614871624129015,3.394187735822783,-5.797394069686534,-24.785819744164215,1,41.09,0.8095628023147583,16.06,41.09,0,0,1,0,1,0
1767978799.1371217,20260109131319.137074,18.189053833333332,-64.95870916666667,0.08486712584256842,0.27958842333098594,-0.40195083852435903,0.6075118216910071,-0.0005614871624129015,1.299282164065526,-9.825654106092456,-24.164317557469474,1,41.09,1.1083232164382935,16.06,41.09,0,0,1,0,1,0
1767978799.2279336,20260109131319.227886,18.189053833333332,-64.95870916666667,0.12481260260140467,0.27958842333098594,-0.40195083852435903,0.6075118216910071,0.04097549349476212,1.299282164065526,-9.825654106092456,-24.164317557469474,1,41.09,1.1083232164382935,16.06,41.09,0,0,1,0,1,0
1767978799.3286116,20260109131319.328564,18.189053833333332,-64.95870916666667,0.12481260260140467,0.27958842333098594,-0.40195083852435903,0.6075118216910071,0.04097549349476212,0.2760839755715669,-9.265747441130877,-22.566402767524576,1,41.09,1.1370552778244019,15.98,41.09,0,0,1,0,1,0
1767978799.4290953,20260109131319.429048,18.189053833333332,-64.95870916666667,0.14281260260140535,0.27958842333098594,-0.40195083852435903,0.6075118216910071,0.11236837027754269,0.2760839755715669,-9.265747441130877,-22.566402767524576,1,41.09,1.1370552778244019,15.98,41.09,0,0,1,0,1,0
1767978799.525412,20260109131319.525364,18.189057333333334,-64.958711,0.14281260260140535,0.27958842333098594,-0.40240459268400053,0.6414878866191365,0.11236837027754269,-4.5946681900084165,-5.483784968036415,-21.702568797523234,1,41.09,0.8425875902175903,15.98,41.09,0,0,1,0,1,0
1767978799.6345677,20260109131319.634520,18.189057333333334,-64.958711,0.12101373031626314,0.27958842333098594,-0.40240459268400053,0.6414878866191365,0.06807813899927603,-4.5946681900084165,-5.483784968036415,-21.702568797523234,1,41.34,0.8982446193695068,15.98,41.34,0,0,1,0,1,0
1767978799.7343776,20260109131319.734330,18.189057333333334,-64.958711,0.12101373031626314,0.27958842333098594,-0.40240459268400053,0.6414878866191365,0.06807813899927603,-8.543421380952013,-4.644592621824147,-22.45772246613848,1,41.34,0.4581669270992279,15.98,41.34,0,0,1,0,1,0
1767978799.8247104,20260109131319.824663,18.189057333333334,-64.958711,0.1159595459865672,0.27958842333098594,-0.40240459268400053,0.6414878866191365,0.041550225830263826,-11.012457955348506,-5.1750402434751415,-23.2839161039387,1,41.34,0.4581669270992279,15.98,41.34,0,0,1,0,1,0
1767978799.9238622,20260109131319.923815,18.189057333333334,-64.958711,0.1159595459865672,0.27958842333098594,-0.40240459268400053,0.6414878866191365,0.041550225830263826,-8.719172456422461,-8.34509225333333,-22.843722207364905,1,41.34,0.4581669270992279,16.09,41.34,0,0,1,0,1,0
1767978800.0308633,20260109131320.030816,18.189060833333333,-64.9587135,0.14140701701541825,0.27958842333098594,-0.49231716713790324,0.707824222585935,0.05997212144770919,-8.719172456422461,-8.34509225333333,-22.843722207364905,1,41.34,0.8932676911354065,16.09,41.34,0,0,1,0,1,0
1767978800.1285672,20260109131320.128520,18.189060833333333,-64.9587135,0.14140701701541825,0.27958842333098594,-0.49231716713790324,0.707824222585935,0.05997212144770919,-5.16246500694306,-9.764576825147866,-21.509958247831914,1,41.34,0.8932676911354065,16.09,41.34,0,0,1,0,1,0
1767978800.229773,20260109131320.229725,18.189060833333333,-64.9587135,0.18039327196252777,0.27958842333098594,-0.49231716713790324,0.707824222585935,0.05751368244506848,-1.2063828069560374,-9.292605462098122,-18.430412680140602,1,42.02,0.5745155215263367,16.09,42.02,0,0,1,0,1,0
1767978800.3324423,20260109131320.332395,18.189060833333333,-64.9587135,0.18039327196252777,0.27958842333098594,-0.49231716713790324,0.707824222585935,0.05751368244506848,-1.2063828069560374,-9.292605462098122,-18.430412680140602,1,42.02,0.5442010760307312,16.09,42.02,0,0,1,0,1,0
1767978800.4244196,20260109131320.424372,18.18906283333333,-64.958717,0.17019029477159758,0.27958842333098594,-0.5480282633519884,0.6346728750712793,0.06369547310590781,-2.457350329991444,-6.830708145484331,-17.327939926059997,1,42.02,0.5442010760307312,16.09,42.02,0,0,1,0,1,0
1767978800.5247629,20260109131320.524715,18.18906283333333,-64.958717,0.17019029477159758,0.27958842333098594,-0.5480282633519884,0.6346728750712793,0.06369547310590781,-6.059681111562266,0.5269577672632411,-16.12848805604252,1,42.02,0.5442010760307312,16.23,42.02,0,0,1,0,1,0
1767978800.6418107,20260109131320.641763,18.18906283333333,-64.958717,0.12633410439080392,0.27958842333098594,-0.5480282633519884,0.6346728750712793,0.0132814813041508,-6.059681111562266,0.5269577672632411,-16.12848805604252,1,42.02,0.5442010760307312,16.23,42.02,0,0,1,0,1,0
1767978800.7326345,20260109131320.732587,18.18906283333333,-64.958717,0.12633410439080392,0.27958842333098594,-0.5480282633519884,0.6346728750712793,0.0132814813041508,-9.030586505243196,5.641666554701329,-15.98601474132434,1,42.02,1.3852957487106323,16.23,42.02,0,0,1,0,1,0
1767978800.8249035,20260109131320.824856,18.18906283333333,-64.958717,0.08015230663282706,0.27958842333098594,-0.5480282633519884,0.6346728750712793,-0.03369576972798617,-9.030586505243196,5.641666554701329,-15.98601474132434,1,42.79,1.3852957487106323,16.23,42.79,0,0,1,0,1,0
1767978800.9324877,20260109131320.932440,18.18906283333333,-64.958717,0.08015230663282706,0.27958842333098594,-0.5480282633519884,0.6346728750712793,-0.03369576972798617,-11.701166666185868,6.570117125563322,-17.010496312150078,1,42.79,0.8822762370109558,16.23,42.79,0,0,1,0,1,0
1767978801.0501468,20260109131321.050099,18.189066,-64.95871933333333,0.0064160342756281186,0.27958842333098594,-0.43385797104217316,0.6554878916808694,-0.21636735476650948,-11.701166666185868,6.570117125563322,-17.010501682591787,1,42.79,0.554763913154602,16.23,42.79,0,0,1,0,1,0
1767978801.1751878,20260109131321.175140,18.189066,-64.95871933333333,0.0064160342756281186,0.27958842333098594,-0.43385797104217316,0.6554878916808694,-0.21636735476650948,-12.222145507827413,5.637205585804582,-17.34998696516488,1,42.79,3.739790201187134,16.25,42.79,0,0,1,0,1,0
1767978801.2270622,20260109131321.227015,18.189066,-64.95871933333333,0.010416034275627668,0.27958842333098594,-0.43385797104217316,0.6554878916808694,-0.1992659378456974,-12.388638258567465,3.6149984391331658,-17.163590182292786,1,42.79,3.739790201187134,16.25,42.79,0,0,1,0,1,0
1767978801.3370824,20260109131321.337035,18.189066,-64.95871933333333,0.010416034275627668,0.27958842333098594,-0.43385797104217316,0.6554878916808694,-0.1992659378456974,-12.150262009978304,-1.8260007145397386,-16.11170417517086,1,42.79,1.2356972694396973,16.25,42.79,0,0,1,0,1,0
1767978801.4433281,20260109131321.443281,18.189068333333335,-64.95872116666666,0.06505880453915738,0.27958842333098594,-0.33988024990491805,0.48485877448012016,-0.07080898452649799,-12.150262009978304,-1.8260007145397386,-16.11170417517086,1,41.42,1.6127740144729614,16.25,41.42,0,0,1,0,1,0
1767978801.5297945,20260109131321.529747,18.189068333333335,-64.95872116666666,0.06505880453915738,0.27958842333098594,-0.33988024990491805,0.48485877448012016,-0.07080898452649799,-13.111037743306172,-4.303816006149352,-15.571259500877884,1,41.42,1.6127740144729614,16.25,41.42,0,0,1,0,1,0
1767978801.6383495,20260109131321.638302,18.189068333333335,-64.95872116666666,0.09515362425133528,0.27958842333098594,-0.33988024990491805,0.48485877448012016,0.009688684815408757,-16.615212908434884,-6.527660227614645,-13.319957588966167,1,41.42,0.5499312281608582,16.25,41.42,0,0,1,0,1,0
1767978801.7478318,20260109131321.747784,18.189068333333335,-64.95872116666666,0.09515362425133528,0.27958842333098594,-0.33988024990491805,0.48485877448012016,0.009688684815408757,-16.615212908434884,-6.527660227614645,-13.319957588966167,1,41.42,0.6502148509025574,16.34,41.42,0,0,1,0,1,0
1767978801.8490825,20260109131321.849035,18.189068333333335,-64.95872116666666,0.08403416232409536,0.27958842333098594,-0.33988024990491805,0.48485877448012016,0.07652317178851845,-16.296063667613282,-7.055786864778402,-11.393816340268739,1,41.42,0.6551060080528259,16.34,41.42,0,0,1,0,1,0
1767978801.924469,20260109131321.924421,18.189068333333335,-64.95872116666666,0.08403416232409536,0.27958842333098594,-0.33988024990491805,0.48485877448012016,0.07652317178851845,-14.502829303228868,-8.031569382852318,-8.792134456553645,1,41.42,0.6551060080528259,16.34,41.42,0,0,1,0,1,0
1767978802.0380416,20260109131322.037994,18.189069500000002,-64.95872299999999,0.11664663586915663,0.27958842333098594,-0.2933562824268345,0.2981049394867279,0.09754202253357803,-11.793885663548124,-9.399281102246045,-5.782650859985837,1,41.91,0.6551060080528259,16.34,41.91,0,0,1,0,1,0
1767978802.1460407,20260109131322.145993,18.189069500000002,-64.95872299999999,0.11664663586915663,0.27958842333098594,-0.2933562824268345,0.2981049394867279,0.09754202253357803,-7.06892089636178,-11.309314304521676,-0.09587686610329958,1,41.91,0.5882260203361511,16.34,41.91,0,0,1,0,1,0
1767978802.238123,20260109131322.238075,18.189069500000002,-64.95872299999999,0.1352978163867127,0.27958842333098594,-0.2933562824268345,0.2981049394867279,0.11244576676828669,-7.06892089636178,-11.309314304521676,-0.09587686610329958,1,41.91,0.9479513764381409,16.34,41.91,0,0,1,0,1,0
1767978802.3321872,20260109131322.332140,18.189069500000002,-64.95872299999999,0.1352978163867127,0.27958842333098594,-0.2933562824268345,0.2981049394867279,0.11244576676828669,-5.349746726515903,-11.340001501661536,2.283390499933473,1,41.91,0.9479513764381409,16.28,41.91,0,0,1,0,1,0
1767978802.434609,20260109131322.434561,18.189069500000002,-64.95872299999999,0.17093846421657627,0.27958842333098594,-0.2933562824268345,0.2981049394867279,0.07362381723753815,-3.627224482119096,-12.038751447942849,7.098854879095082,1,41.91,0.9922859072685242,16.28,41.91,0,0,1,0,1,0
1767978802.536407,20260109131322.536359,18.189071333333334,-64.9587245,0.17093846421657627,0.27958842333098594,-0.25316404723279257,0.35400726086967477,0.07362381723753815,-3.627224482119096,-12.038751447942849,7.098854879095082,1,41.91,0.9922859072685242,16.28,41.91,0,0,1,0,1,0
1767978802.6290665,20260109131322.629019,18.189071568966572,-64.95872460861628,0.21071068055473507,0.27958842333098594,-0.12961451127859167,0.29597648296108225,0.12721330646852963,-3.5389480975136287,-13.200880376225705,9.991237828679804,5,41.91,0.9922859072685242,16.28,41.91,0,0,1,0,1,0
1767978802.7336743,20260109131322.733627,18.18907189571071,-64.95872464334825,0.21071068055473507,0.27958842333098594,-0.03409185318669346,0.3375910922200065,0.12721330646852963,-4.365592954847229,-16.261478992384667,16.94429434274029,5,43.43,2.4858627319335938,16.28,43.43,0,0,1,0,1,0
1767978802.8397486,20260109131322.839701,18.189072224264706,-64.9587246782726,0.22749786593019453,0.27958842333098594,-0.03409185318669346,0.3375910922200065,0.1645758785564668,-4.365592954847229,-16.261478992384667,16.94429434274029,5,43.43,2.522047281265259,16.28,43.43,0,0,1,0,1,0
1767978802.928458,20260109131322.928410,18.189072486854986,-64.95872468782194,0.22749786593019453,0.27958842333098594,-0.011715704195029902,0.3391057980560264,0.1645758785564668,-4.811337235879913,-17.604231484079353,20.73208296928,5,43.43,2.522047281265259,16.17,43.43,0,0,1,0,1,0
1767978803.0270042,20260109131323.026957,18.189072785925276,-64.95872467747846,0.2827247568938304,0.27958842333098594,0.011142729763540471,0.33912510902824156,0.2080479224450818,-5.02499288658948,-18.771154353100062,24.592705344076855,5,43.43,2.522047281265259,16.17,43.43,0,0,1,0,1,0
1767978803.1468358,20260109131323.146788,18.18907308947614,-64.95872464515125,0.2827247568938304,0.27958842333098594,0.03415525653808314,0.3375846833771013,0.2080479224450818,-5.216348388572049,-19.820326426273574,28.488062658317794,5,43.43,2.522047281265259,16.17,43.43,0,0,1,0,1,0
1767978803.250504,20260109131323.250456,18.189073413586488,-64.9587245632432,0.33401075369571376,0.27958842333098594,0.0792130165204753,0.3299322627657485,0.24261270291317885,-5.419021518056106,-21.298359400588264,36.21134280501198,5,43.43,2.601651906967163,16.17,43.43,0,0,1,0,1,0
1767978803.3264692,20260109131323.326422,18.189073700429855,-64.95872466646487,0.33401075369571376,0.27958842333098594,-0.11756019816638555,0.3438714873424084,0.24261270291317885,-5.419021518056106,-21.298359400588264,36.21134280501198,5,42.35,2.601651906967163,16.17,42.35,0,0,1,0,1,0
1767978803.443188,20260109131323.443140,18.18907400927456,-64.95872475612532,0.38911589926532886,0.27958842333098594,-0.0966224168179737,0.35033142674937645,0.24865946004288159,-5.447589221361292,-21.40438104988932,39.66648060946057,5,42.35,2.601651906967163,16.17,42.35,0,0,1,0,1,0
1767978803.5368643,20260109131323.536817,18.18907436347367,-64.95872482361496,0.38911589926532886,0.27958842333098594,-0.06473289896417778,0.35759984870200034,0.24865946004288159,-5.204067704053234,-20.197110531467196,44.82489403211664,5,42.35,2.934798002243042,16.28,42.35,0,0,1,0,1,0
1767978803.6441286,20260109131323.644081,18.189074710328974,-64.95872488970531,0.4181395577071586,0.27958842333098594,-0.06473289896417778,0.35759984870200034,0.20820288280082008,-5.204067704053234,-20.197110531467196,44.82489403211664,5,42.35,2.126563310623169,16.28,42.35,0,0,1,0,1,0
1767978803.725408,20260109131323.725360,18.18907497529773,-64.95872493200484,0.4181395577071586,0.27958842333098594,-0.054492851474418263,0.359302837642826,0.20820288280082008,-5.001681015729915,-19.221916263645877,46.46157869720053,5,42.35,2.126563310623169,16.28,42.35,0,0,1,0,1,0
1767978803.8387756,20260109131323.838728,18.189075339379848,-64.95872497895846,0.43791074672867775,0.27958842333098594,-0.04419479630015122,0.36071431906702583,0.18417782936721952,-4.876749980950363,-17.790355913060893,48.10041487264224,5,42.35,3.4847075939178467,16.28,42.35,0,0,1,0,1,0
1767978803.9581335,20260109131323.958086,18.18907582405877,-64.95872517346533,0.43791074672867775,0.27958842333098594,-0.19159635749243775,0.5025373974100136,0.18417782936721952,-4.876749980950363,-17.790355913060893,48.1004113345002,5,44.86,3.0896265506744385,16.28,44.86,0,0,1,0,1,0
