timestamp_ros,timestamp_sys (%Y%m%d%H%M%S.%f),latitude,longitude,depth,distance_to_ocean_floor,velX,velY,velZ,roll,pitch,yaw,navMode,acousticAltimeter,forwardStereo,battery_volts,altitudeUsed,cotsNumFound,cotsNumMaybe,missionState,errorState,storeData,storeImageData
1767898928.8860323,20260108150208.885994,18.189033166666665,-64.95890349999999,0.01684605840756384,0.7350250133034729,-0.36167542004050873,-0.1615580213173013,0.17259457123542563,2.8072909283749636,0.06951208733786292,25.06761150178924,1,-1.0,0.309539794921875,16.9,0.7350250133034729,0,0,1,0,1,0
1767898928.979493,20260108150208.979455,18.189033166666665,-64.95890349999999,0.01684605840756384,0.7350250133034729,-0.36167542004050873,-0.1615580213173013,0.17259457123542563,2.8072909283749636,0.06951208733786292,25.06761150178924,1,-1.0,0.309539794921875,16.9,0.7350250133034729,0,0,1,0,1,0
1767898929.077634,20260108150209.077596,18.189033166666665,-64.95890349999999,0.00447868974149207,0.7350250133034729,-0.36167542004050873,-0.1615580213173013,0.08882562435145627,3.1413235836066185,0.26414042504188145,23.425817853379396,1,-1.0,0.45543646812438965,16.9,0.7350250133034729,0,0,1,0,1,0
1767898929.1776824,20260108150209.177644,18.1890325,-64.95890416666666,0.00447868974149207,0.7350250133034729,-0.2452343040966646,-0.11067601081860075,0.08882562435145627,3.612506699855612,-0.41647205413486443,21.932106174218827,1,-1.0,0.45543646812438965,16.9,0.7350250133034729,0,0,1,0,1,0
1767898929.284742,20260108150209.284704,18.1890325,-64.95890416666666,0.037847095835943576,0.7350250133034729,-0.2452343040966646,-0.11067601081860075,0.11702697357948603,5.6013214666217435,-3.840288467480238,19.952368305218386,1,-1.0,0.4602072834968567,16.73,0.7350250133034729,0,0,1,0,1,0
1767898929.3999765,20260108150209.399938,18.1890325,-64.95890416666666,0.037847095835943576,0.7350250133034729,-0.2452343040966646,-0.11067601081860075,0.11702697357948603,5.6013214666217435,-3.840288467480238,19.952368305218386,1,-1.0,0.42138755321502686,16.73,0.7350250133034729,0,0,1,0,1,0
1767898929.493533,20260108150209.493495,18.1890325,-64.95890416666666,0.07057990707199438,0.7350250133034729,-0.2452343040966646,-0.11067601081860075,0.12765451134452074,6.445095163857924,-6.9038872453048805,19.08878619853274,1,-1.0,0.8220362663269043,16.73,0.7350250133034729,0,0,1,0,1,0
1767898929.592944,20260108150209.592906,18.1890325,-64.95890416666666,0.13567590695308862,0.7350250133034729,-0.2452343040966646,-0.11067601081860075,0.14492509012268218,6.445095163857924,-6.9038872453048805,19.08878619853274,1,-1.0,1.1212114095687866,16.73,0.7350250133034729,0,0,1,0,1,0
1767898929.6908488,20260108150209.690811,18.189033666666667,-64.95890516666667,0.13567590695308862,0.7350250133034729,-0.3729332828095966,0.22134355223087904,0.14492509012268218,5.389461302532242,-7.801011996111271,19.312212011456644,1,-1.0,1.1212114095687866,16.73,0.7350250133034729,0,0,1,0,1,0
1767898929.7862866,20260108150209.786248,18.189033666666667,-64.95890516666667,0.13567590695308862,0.7350250133034729,-0.3729332828095966,0.22134355223087904,0.14492509012268218,2.9851425012096624,-9.231832124680277,22.05120081026572,1,-1.0,0.8312077522277832,16.73,0.7350250133034729,0,0,1,0,1,0
1767898929.8970068,20260108150209.896969,18.189033666666667,-64.95890516666667,0.12074305225136257,0.7350250133034729,-0.3729332828095966,0.22134355223087904,0.14117974105193143,2.9851425012096624,-9.231832124680277,22.05120081026572,1,-1.0,0.5843873023986816,16.87,0.7350250133034729,0,0,1,0,1,0
1767898930.0090292,20260108150210.008991,18.189033666666667,-64.95890516666667,0.1297430522513629,0.7350250133034729,-0.3729332828095966,0.22134355223087904,0.10966852512385257,1.082785260367007,-10.401493046763536,27.126842555868787,1,41.1,0.7446088790893555,16.87,41.1,0,0,1,0,1,0
1767898930.1317868,20260108150210.131749,18.189033666666667,-64.95890516666667,0.1297430522513629,0.7350250133034729,-0.3729332828095966,0.22134355223087904,0.10966852512385257,1.082785260367007,-10.401493046763536,27.126842555868787,1,41.1,0.8700844645500183,16.87,41.1,0,0,1,0,1,0
1767898930.1813247,20260108150210.181287,18.1890355,-64.9589065,0.16471961915629713,0.7350250133034729,-0.2711620082116282,0.27230023453544666,0.1503795340412233,0.5888505624141421,-10.17455993044674,29.358348848203697,1,41.1,0.8700844645500183,16.87,41.1,0,0,1,0,1,0
1767898930.2919827,20260108150210.291944,18.1890355,-64.9589065,0.16471961915629713,0.7350250133034729,-0.2711620082116282,0.27230023453544666,0.1503795340412233,-1.0116085806280486,-7.006216322265559,35.46522999890236,1,41.1,0.8700844645500183,16.87,41.1,0,0,1,0,1,0
1767898930.4046345,20260108150210.404596,18.1890355,-64.9589065,0.12356214129343782,0.7350250133034729,-0.2711620082116282,0.27230023453544666,0.03283203652216105,-1.0116085806280486,-7.006216322265559,35.46522999890236,1,41.1,3.2971763610839844,16.87,41.1,0,0,1,0,1,0
1767898930.514664,20260108150210.514626,18.1890355,-64.9589065,0.12356214129343782,0.7350250133034729,-0.2711620082116282,0.27230023453544666,0.03283203652216105,-4.330661647394311,-3.3883970139965354,40.08437588810113,1,41.1,2.938127040863037,16.62,41.1,0,0,1,0,1,0
1767898930.6307912,20260108150210.630753,18.1890355,-64.9589065,0.10250372930777721,0.7350250133034729,-0.2711620082116282,0.27230023453544666,-0.011509057588897625,-4.330661647394311,-3.3883970139965354,40.08437588810113,1,41.1,2.938127040863037,16.62,41.1,0,0,1,0,1,0
1767898930.736942,20260108150210.736904,18.189036666666667,-64.95890683333333,0.10250372930777721,0.7350250133034729,-0.20085591539016595,0.2510681717736808,-0.011509057588897625,-6.355749854265163,-2.5171320089645612,42.01373767886548,1,41.1,2.3840887546539307,16.62,41.1,0,0,1,0,1,0
1767898930.778429,20260108150210.778391,18.189036666666667,-64.95890683333333,0.1335037293077778,0.7350250133034729,-0.20085591539016595,0.2510681717736808,0.031414284444120796,-7.957236407536278,-2.5771448472350778,43.999919833652044,1,41.1,2.3840887546539307,16.62,41.1,0,0,1,0,1,0
1767898930.9049788,20260108150210.904941,18.189036666666667,-64.95890683333333,0.1335037293077778,0.7350250133034729,-0.20085591539016595,0.2510681717736808,0.031414284444120796,-8.687168739849337,-4.278414096656436,48.26170668260243,1,41.1,2.3840887546539307,16.62,41.1,0,0,1,0,1,0
1767898930.9998603,20260108150210.999822,18.189036666666667,-64.95890683333333,0.1335037293077778,0.7350250133034729,-0.20085591539016595,0.2510681717736808,0.031414284444120796,-8.687168739849337,-4.278414096656436,48.26170668260243,1,41.1,1.5817943811416626,16.62,41.1,0,0,1,0,1,0
1767898931.086724,20260108150211.086686,18.189036666666667,-64.95890683333333,0.14441439492396124,0.7350250133034729,-0.20085591539016595,0.2510681717736808,0.03144853551033133,-7.994308980059634,-5.13133342046141,50.1792078456321,1,41.1,0.7109910845756531,16.59,41.1,0,0,1,0,1,0
1767898931.1781445,20260108150211.178106,18.1890385,-64.958906,0.1354143949239609,0.7350250133034729,-0.08804865270224863,0.5261580011544414,-0.051872148726092804,-6.9814312644526435,-5.762239073458306,51.66374999255327,1,41.1,0.7109910845756531,16.59,41.1,0,0,1,0,1,0
1767898931.2776263,20260108150211.277588,18.1890385,-64.958906,0.1354143949239609,0.7350250133034729,-0.08804865270224863,0.5261580011544414,-0.051872148726092804,-5.599322354914258,-6.138453284539276,52.66557517747071,1,41.1,0.7109910845756531,16.59,41.1,0,0,1,0,1,0
1767898931.3807685,20260108150211.380730,18.1890385,-64.958906,0.1354143949239609,0.7350250133034729,-0.08804865270224863,0.5261580011544414,-0.051872148726092804,-4.397432746821651,-5.900093257655197,53.081417733398936,1,41.1,0.7077088952064514,16.59,41.1,0,0,1,0,1,0
1767898931.4782207,20260108150211.478183,18.1890385,-64.958906,0.15745820791797127,0.7350250133034729,-0.08804865270224863,0.5261580011544414,-0.007487338094056184,-3.601887459446502,-4.703272932399804,53.11198284086373,1,41.1,0.7077088952064514,16.59,41.1,0,0,1,0,1,0
1767898931.5785334,20260108150211.578495,18.1890385,-64.958906,0.15745820791797127,0.7350250133034729,-0.08804865270224863,0.5261580011544414,-0.007487338094056184,-3.3650919733286,-2.9862752457998623,52.90646237525133,1,41.1,0.7077088952064514,16.59,41.1,0,0,1,0,1,0
1767898931.7152145,20260108150211.715176,18.189040166666665,-64.95890483333332,0.10363808482336363,0.7350250133034729,0.2193211612266038,0.41475057749680405,-0.06391623952440238,-4.103705052293849,-2.215730167273427,51.65688564998294,1,41.1,1.0650577545166016,16.51,41.1,0,0,1,0,1,0
1767898931.8041685,20260108150211.804130,18.189040166666665,-64.95890483333332,0.10363808482336363,0.7350250133034729,0.2193211612266038,0.41475057749680405,-0.06391623952440238,-4.103705052293849,-2.215730167273427,51.65688564998294,1,41.1,1.0650577545166016,16.51,41.1,0,0,1,0,1,0
1767898931.9020667,20260108150211.902029,18.189040166666665,-64.95890483333332,0.09936556635756491,0.7350250133034729,0.2193211612266038,0.41475057749680405,-0.07916888745851373,-4.122992659632871,-4.139944341440491,50.956367537848045,1,41.1,0.9710016250610352,16.51,41.1,0,0,1,0,1,0
1767898931.9777777,20260108150211.977740,18.189040166666665,-64.95890483333332,0.12172139477309132,0.7350250133034729,0.2193211612266038,0.41475057749680405,-0.022481482595126667,-3.4362075015083073,-6.468086015711719,50.52211078533318,1,41.1,0.9710016250610352,16.51,41.1,0,0,1,0,1,0
1767898932.0905254,20260108150212.090487,18.189040166666665,-64.95890483333332,0.12172139477309132,0.7350250133034729,0.2193211612266038,0.41475057749680405,-0.022481482595126667,-2.4923966834843263,-8.628775724208346,49.97792209881928,1,41.1,0.6481490731239319,16.51,41.1,0,0,1,0,1,0
1767898932.1991825,20260108150212.199144,18.189041999999997,-64.95890216666666,0.12172139477309132,0.7350250133034729,0.44485994016028896,0.6790409877023085,-0.022481482595126667,-2.4923966834843263,-8.628775724208346,49.97792209881928,1,41.1,0.7399020791053772,16.51,41.1,0,0,1,0,1,0
1767898932.2777417,20260108150212.277703,18.189041999999997,-64.95890216666666,0.14764511840231992,0.7350250133034729,0.44485994016028896,0.6790409877023085,0.0006741047031053986,-2.7860084781982115,-8.209272185575955,49.691846353332096,1,41.1,0.7399020791053772,16.45,41.1,0,0,1,0,1,0
1767898932.38889,20260108150212.388852,18.189041999999997,-64.95890216666666,0.14764511840231992,0.7350250133034729,0.44485994016028896,0.6790409877023085,0.0006741047031053986,-1.479541592887054,-7.566137928271287,49.187197646061435,1,41.1,0.8223758339881897,16.45,41.1,0,0,1,0,1,0
1767898932.4969335,20260108150212.496895,18.189041999999997,-64.95890216666666,0.12739709441679203,0.7350250133034729,0.44485994016028896,0.6790409877023085,0.04117712365790039,-1.479541592887054,-7.566137928271287,49.187197646061435,1,41.1,2.1644043922424316,16.45,41.1,0,0,1,0,1,0
1767898932.6088636,20260108150212.608825,18.189041999999997,-64.95890216666666,0.15339709441679183,0.7350250133034729,0.44485994016028896,0.6790409877023085,0.0756216487297538,0.4909883240461228,-7.9005483784764925,48.067264787785106,1,41.93,3.251617670059204,16.45,41.93,0,0,1,0,1,0
1767898932.7129953,20260108150212.712957,18.18904416666667,-64.95889866666667,0.15339709441679183,0.7350250133034729,0.652049420882971,0.5688189642727012,0.0756216487297538,0.4909883240461228,-7.9005483784764925,48.067264787785106,1,41.93,2.241093635559082,16.45,41.93,0,0,1,0,1,0
1767898932.7773902,20260108150212.777352,18.18904416666667,-64.95889866666667,0.1826957445357612,0.7350250133034729,0.652049420882971,0.5688189642727012,0.11656514289449689,1.362012351380278,-7.511412725526088,47.45464441150812,1,41.93,2.241093635559082,16.45,41.93,0,0,1,0,1,0
1767898932.8828707,20260108150212.882832,18.18904416666667,-64.95889866666667,0.1826957445357612,0.7350250133034729,0.652049420882971,0.5688189642727012,0.11656514289449689,2.4580824411548563,-7.130473302510372,46.441686014262714,1,41.93,2.241093635559082,16.53,41.93,0,0,1,0,1,0
1767898932.9804955,20260108150212.980457,18.18904416666667,-64.95889866666667,0.1826957445357612,0.7350250133034729,0.652049420882971,0.5688189642727012,0.11656514289449689,2.4580824411548563,-7.130473302510372,46.441686014262714,1,41.93,2.241093635559082,16.53,41.93,0,0,1,0,1,0
1767898933.0891685,20260108150213.089130,18.18904416666667,-64.95889866666667,0.1993922699087349,0.7350250133034729,0.652049420882971,0.5688189642727012,0.088490632681366,2.411600425911684,-6.555521006087952,46.10833851262718,1,41.93,2.6845247745513916,16.53,41.93,0,0,1,0,1,0
1767898933.2049878,20260108150213.204950,18.189045833333335,-64.95889533333334,0.19044382065792126,0.7350250133034729,0.5640754713604963,0.48810077079782815,0.10520838633902202,2.411600425911684,-6.555521006087952,46.10834067234452,1,41.96,2.524303913116455,16.53,41.96,0,0,1,0,1,0
1767898933.313833,20260108150213.313795,18.189045833333335,-64.95889533333334,0.19044382065792126,0.7350250133034729,0.5640754713604963,0.48810077079782815,0.10520838633902202,1.9798661485366411,-3.2052659164890582,46.184121648282364,1,41.96,2.5860631465911865,16.53,41.96,0,0,1,0,1,0
1767898933.424128,20260108150213.424090,18.189045833333335,-64.95889533333334,0.17230048744556115,0.7350250133034729,0.5640754713604963,0.48810077079782815,0.055372871929508835,1.9798661485366411,-3.2052659164890582,46.184121648282364,1,41.96,1.6841315031051636,16.53,41.96,0,0,1,0,1,0
1767898933.4827085,20260108150213.482670,18.189045833333335,-64.95889533333334,0.17230048744556115,0.7350250133034729,0.5640754713604963,0.48810077079782815,0.055372871929508835,1.742957323926676,-0.7884656336864397,45.86030226394589,1,41.96,1.6841315031051636,16.78,41.96,0,0,1,0,1,0
1767898933.5895789,20260108150213.589541,18.189045833333335,-64.95889533333334,0.17230048744556115,0.7350250133034729,0.5640754713604963,0.48810077079782815,0.055372871929508835,1.103441574072082,2.2653135163955445,44.76087364088948,1,41.96,2.2896854877471924,16.78,41.96,0,0,1,0,1,0
1767898933.6842792,20260108150213.684241,18.189046833333336,-64.95889033333333,0.16348763370852554,0.7350250133034729,0.7822171482319557,0.6427490783727297,0.03354104588058824,1.103441574072082,2.2653135163955445,44.76087364088948,1,41.96,4.053375244140625,16.78,41.96,0,0,1,0,1,0
1767898933.790185,20260108150213.790147,18.189046833333336,-64.95889033333333,0.16348763370852554,0.7350250133034729,0.7822171482319557,0.6427490783727297,0.03354104588058824,1.3075491505164551,1.8824336786314908,44.4022544302886,1,41.96,4.053375244140625,16.78,41.96,0,0,1,0,1,0
1767898933.8913915,20260108150213.891353,18.189046833333336,-64.95889033333333,0.1588365051932472,0.7350250133034729,0.7822171482319557,0.6427490783727297,-0.049951400140083604,1.661290963975702,0.56026754453872,44.33309874021464,1,41.59,1.212435007095337,16.78,41.59,0,0,1,0,1,0
1767898933.9793208,20260108150213.979283,18.189046833333336,-64.95889033333333,0.11883650519324805,0.7350250133034729,0.7822171482319557,0.6427490783727297,-0.11308742981569812,1.661290963975702,0.56026754453872,44.33309874021464,1,41.59,1.212435007095337,16.78,41.59,0,0,1,0,1,0
1767898934.0918486,20260108150214.091810,18.189046833333336,-64.95889033333333,0.11883650519324805,0.7350250133034729,0.7822171482319557,0.6427490783727297,-0.11308742981569812,0.41784518945327825,1.26135475037322,44.494277601880384,1,41.59,0.7263675332069397,16.87,41.59,0,0,1,0,1,0
1767898934.2034988,20260108150214.203461,18.18904716666667,-64.95888583333334,0.11883650519324805,0.7350250133034729,0.767403234277055,0.2069176024342911,-0.11308742981569812,0.41784518945327825,1.26135475037322,44.494277601880384,1,41.59,0.62726229429245,16.87,41.59,0,0,1,0,1,0
1767898934.332197,20260108150214.332159,18.18904716666667,-64.95888583333334,0.10618673001935466,0.7350250133034729,0.767403234277055,0.2069176024342911,-0.11315247270791359,-1.0596628206029641,0.8797312943397152,44.61900373091156,1,41.59,0.4504048526287079,16.87,41.59,0,0,1,0,1,0
1767898934.4528227,20260108150214.452785,18.18904716666667,-64.95888583333334,0.11418673001935378,0.7350250133034729,0.767403234277055,0.2069176024342911,-0.08128465633685836,-1.0596628206029641,0.8797312943397152,44.61900373091156,1,41.59,0.5784924626350403,16.87,41.59,0,0,1,0,1,0
1767898934.505755,20260108150214.505717,18.18904716666667,-64.95888583333334,0.11418673001935378,0.7350250133034729,0.767403234277055,0.2069176024342911,-0.08128465633685836,-1.716568024858843,-0.9892954118482706,44.430319687623324,1,40.83,0.5784924626350403,16.87,40.83,0,0,1,0,1,0
1767898934.587707,20260108150214.587669,18.18904716666667,-64.95888583333334,0.11418673001935378,0.7350250133034729,0.767403234277055,0.2069176024342911,-0.08128465633685836,-0.10454822222377218,-5.228862153379614,44.52306685952597,1,40.83,0.9313165545463562,16.87,40.83,0,0,1,0,1,0
1767898934.6950169,20260108150214.694979,18.189050666666667,-64.9588825,0.1608883066083053,0.7350250133034729,0.5937310770507375,0.7693076477208821,-0.0374141882658364,-0.10454822222377218,-5.228862153379614,44.52306685952597,1,40.83,0.6074753999710083,16.42,40.83,0,0,1,0,1,0
1767898934.8102002,20260108150214.810162,18.189050666666667,-64.9588825,0.15532878990319607,0.7350250133034729,0.5937310770507375,0.7693076477208821,-0.04251571921033609,1.1618476097658177,-6.143730888220663,45.129867912549294,1,40.83,1.8810486793518066,16.42,40.83,0,0,1,0,1,0
1767898934.8816175,20260108150214.881579,18.189050666666667,-64.9588825,0.15532878990319607,0.7350250133034729,0.5937310770507375,0.7693076477208821,-0.04251571921033609,1.7013362706765427,-6.274865444532031,45.850275542659105,1,40.83,1.8810486793518066,16.42,40.83,0,0,1,0,1,0
1767898934.9896073,20260108150214.989569,18.189050666666667,-64.9588825,0.15532878990319607,0.7350250133034729,0.5937310770507375,0.7693076477208821,-0.04251571921033609,1.2064632751509439,-5.563527028222375,47.114598651618294,1,40.83,0.6959425210952759,16.42,40.83,0,0,1,0,1,0
1767898935.1014097,20260108150215.101371,18.189050666666667,-64.9588825,0.15352641638578274,0.7350250133034729,0.5937310770507375,0.7693076477208821,0.046868676728851894,1.2064632751509439,-5.563527028222375,47.114598651618294,1,41.28,2.9841787815093994,16.42,41.28,0,0,1,0,1,0
1767898935.1789448,20260108150215.178907,18.189053333333334,-64.95887850000001,0.14863178444114883,0.7350250133034729,0.569569739354352,0.6231029336823068,0.028877255507963995,0.4564288351490983,-5.2674740803375775,47.650413523215605,1,41.28,2.9841787815093994,16.42,41.28,0,0,1,0,1,0
1767898935.2776878,20260108150215.277650,18.189053333333334,-64.95887850000001,0.14863178444114883,0.7350250133034729,0.569569739354352,0.6231029336823068,0.028877255507963995,-0.9596263401456281,-5.45176673730611,48.0779083860343,1,41.28,2.9841787815093994,16.56,41.28,0,0,1,0,1,0
1767898935.3837862,20260108150215.383748,18.189053333333334,-64.95887850000001,0.14863178444114883,0.7350250133034729,0.569569739354352,0.6231029336823068,0.028877255507963995,-0.9596263401456281,-5.45176673730611,48.0779083860343,1,41.28,2.9841787815093994,16.56,41.28,0,0,1,0,1,0
1767898935.478388,20260108150215.478350,18.189053333333334,-64.95887850000001,0.18786319988420003,0.7350250133034729,0.569569739354352,0.6231029336823068,0.010191923329997351,-0.8354289106339321,-4.652305615702264,47.73676763576919,1,41.28,2.9841787815093994,16.56,41.28,0,0,1,0,1,0
1767898935.5785615,20260108150215.578523,18.189053333333334,-64.95887850000001,0.18786319988420003,0.7350250133034729,0.569569739354352,0.6231029336823068,0.010191923329997351,-0.3512467924880901,-2.8883452391244413,47.2733049839204,1,41.28,2.9841787815093994,16.56,41.28,0,0,1,0,1,0
1767898935.6869628,20260108150215.686925,18.189056333333333,-64.95887533333332,0.15534150962377627,0.7350250133034729,0.5607373879646887,0.5784340515189088,-0.024267861506636047,1.5773991354983194,0.13182413885985178,46.28379463447981,1,41.64,2.9841787815093994,16.56,41.64,0,0,1,0,1,0
1767898935.8030891,20260108150215.803051,18.189056333333333,-64.95887533333332,0.15534150962377627,0.7350250133034729,0.5607373879646887,0.5784340515189088,-0.024267861506636047,1.5773991354983194,0.13182413885985178,46.28379463447981,1,41.64,4.337553977966309,16.56,41.64,0,0,1,0,1,0
1767898935.901151,20260108150215.901113,18.189056333333333,-64.95887533333332,0.15306824721063264,0.7350250133034729,0.5607373879646887,0.5784340515189088,-0.018952475722053382,3.9273183421164624,0.1501422858769134,45.736190852159815,1,41.64,4.337553977966309,16.64,41.64,0,0,1,0,1,0
1767898936.0034852,20260108150216.003447,18.189056333333333,-64.95887533333332,0.1490682472106313,0.7350250133034729,0.5607373879646887,0.5784340515189088,-0.023131642703919146,3.9273183421164624,0.1501422858769134,45.736190852159815,1,41.64,4.009982109069824,16.64,41.64,0,0,1,0,1,0
1767898936.0791516,20260108150216.079113,18.189056333333333,-64.95887533333332,0.1490682472106313,0.7350250133034729,0.5607373879646887,0.5784340515189088,-0.023131642703919146,4.404524193263042,-0.22055729252937595,45.88769816250259,1,41.64,4.009982109069824,16.64,41.64,0,0,1,0,1,0
1767898936.1888146,20260108150216.188776,18.189057833333333,-64.95887233333333,0.1490682472106313,0.7350250133034729,0.47899366342486754,0.48640755833350197,-0.023131642703919146,3.2988337786026194,-1.170277133432769,46.29288673870994,1,41.64,0.7832320928573608,16.64,41.64,0,0,1,0,1,0
1767898936.2937047,20260108150216.293667,18.189057833333333,-64.95887233333333,0.1661135471139558,0.7350250133034729,0.47899366342486754,0.48640755833350197,-0.038504538715402305,3.2988337786026194,-1.170277133432769,46.29288673870994,1,41.64,0.7832320928573608,16.64,41.64,0,0,1,0,1,0
1767898936.3842916,20260108150216.384253,18.189057833333333,-64.95887233333333,0.140113547113956,0.7350250133034729,0.47899366342486754,0.48640755833350197,-0.08272665508906836,2.147260057682533,-1.6449323348991507,46.179580690054465,1,41.2,0.7832320928573608,16.64,41.2,0,0,1,0,1,0
1767898936.4889479,20260108150216.488910,18.189057833333333,-64.95887233333333,0.140113547113956,0.7350250133034729,0.47899366342486754,0.48640755833350197,-0.08272665508906836,-0.32504372286341304,-2.534696060138934,46.16477283463912,1,41.2,0.8752478361129761,16.64,41.2,0,0,1,0,1,0
1767898936.597081,20260108150216.597043,18.189057833333333,-64.95887233333333,0.140113547113956,0.7350250133034729,0.47899366342486754,0.48640755833350197,-0.08272665508906836,-0.32504372286341304,-2.534696060138934,46.16477283463912,1,41.2,0.9424763321876526,16.64,41.2,0,0,1,0,1,0
1767898936.704617,20260108150216.704579,18.189056833333332,-64.95886516666665,0.11865990552589055,0.7350250133034729,1.3396751599351844,-0.034378704965111404,-0.07775445465550533,-1.453994328378896,-2.7501559486515754,47.02589607234434,1,41.2,0.9424763321876526,16.64,41.2,0,0,1,0,1,0
1767898936.8131125,20260108150216.813074,18.189056833333332,-64.95886516666665,0.11214813150327645,0.7350250133034729,1.3396751599351844,-0.034378704965111404,-0.07527125894637382,-1.453994328378896,-2.7501559486515754,47.02589607234434,1,41.2,2.12471866607666,16.64,41.2,0,0,1,0,1,0
1767898936.8797677,20260108150216.879729,18.189056833333332,-64.95886516666665,0.11214813150327645,0.7350250133034729,1.3396751599351844,-0.034378704965111404,-0.07527125894637382,-1.0043433911875,-2.671450156599278,47.57936698925929,1,41.2,2.12471866607666,16.64,41.2,0,0,1,0,1,0
1767898936.9827118,20260108150216.982674,18.189056833333332,-64.95886516666665,0.11214813150327645,0.7350250133034729,1.3396751599351844,-0.034378704965111404,-0.07527125894637382,0.1938068871006735,-3.053691158004099,48.128275338177254,1,40.89,0.9215463399887085,16.64,40.89,0,0,1,0,1,0
1767898937.0926013,20260108150217.092563,18.189056833333332,-64.95886516666665,0.09626591717075957,0.7350250133034729,1.3396751599351844,-0.034378704965111404,-0.11321501410508505,0.1938068871006735,-3.053691158004099,48.128275338177254,1,40.89,0.7102823853492737,16.56,40.89,0,0,1,0,1,0
1767898937.178601,20260108150217.178563,18.189058,-64.958862,0.10926591717075947,0.7350250133034729,0.8514142105432626,0.10258014132561599,-0.06670432989088301,0.8321722966175426,-2.846280009976023,48.12876711197333,1,40.89,0.7102823853492737,16.56,40.89,0,0,1,0,1,0
1767898937.2782385,20260108150217.278200,18.189058,-64.958862,0.10926591717075947,0.7350250133034729,0.8514142105432626,0.10258014132561599,-0.06670432989088301,1.8777411235503756,-2.583204721299553,47.98736848521665,1,40.89,4.220684051513672,16.56,40.89,0,0,1,0,1,0
1767898937.386003,20260108150217.385965,18.189058,-64.958862,0.10926591717075947,0.7350250133034729,0.8514142105432626,0.10258014132561599,-0.06670432989088301,1.8777411235503756,-2.583204721299553,47.98736848521665,1,40.89,1.4909234046936035,16.56,40.89,0,0,1,0,1,0
1767898937.479066,20260108150217.479028,18.189058,-64.958862,0.10198147733196126,0.7350250133034729,0.8514142105432626,0.10258014132561599,-0.0071464704741874465,1.6405108530476584,-2.8572241113737156,47.8082603705688,1,40.89,2.8890609741210938,16.56,40.89,0,0,1,0,1,0
1767898937.5770416,20260108150217.577003,18.189058,-64.958862,0.10198147733196126,0.7350250133034729,0.8514142105432626,0.10258014132561599,-0.0071464704741874465,1.3519561748921767,-2.7449622282609276,47.545017955641306,1,41.33,2.8890609741210938,16.56,41.33,0,0,1,0,1,0
1767898937.6882837,20260108150217.688246,18.1890605,-64.95885799999999,0.07688933823202732,0.7350250133034729,0.8317485378761021,0.3404467874496525,-0.03198340486057887,0.9381298061504852,-2.489301539466524,47.01188051915604,1,41.33,2.8890609741210938,16.56,41.33,0,0,1,0,1,0
1767898937.781529,20260108150217.781491,18.1890605,-64.95885799999999,0.07688933823202732,0.7350250133034729,0.8317485378761021,0.3404467874496525,-0.03198340486057887,0.9381298061504852,-2.489301539466524,47.01188051915604,1,41.33,2.8890609741210938,16.56,41.33,0,0,1,0,1,0
1767898937.878127,20260108150217.878089,18.1890605,-64.95885799999999,0.07434080320296997,0.7350250133034729,0.8317485378761021,0.3404467874496525,-0.02854586503006536,-0.5515132132440915,-4.131871054954821,46.75945712774235,1,41.33,1.9676464796066284,16.56,41.33,0,0,1,0,1,0
1767898938.0110195,20260108150218.010981,18.1890605,-64.95885799999999,0.07434080320296997,0.7350250133034729,0.8317485378761021,0.3404467874496525,-0.02854586503006536,-0.5515132132440915,-4.131871054954821,46.75945712774235,1,41.33,1.9676464796066284,16.56,41.33,0,0,1,0,1,0
1767898938.1043146,20260108150218.104276,18.1890605,-64.95885799999999,0.08574153511354671,0.7350250133034729,0.8317485378761021,0.3404467874496525,-0.02873796148894294,-2.1269244428180265,-4.259318588456505,46.57681780403095,1,41.33,2.705612897872925,16.56,41.33,0,0,1,0,1,0
1767898938.2085547,20260108150218.208517,18.189062,-64.95885249999999,0.10460479484929391,0.7350250133034729,0.8608838449257457,0.3910578713233927,0.01936251851238497,-3.269202486397338,-4.326065782213204,46.216996479706346,1,40.91,3.609107494354248,16.56,40.91,0,0,1,0,1,0
1767898938.2802765,20260108150218.280238,18.189062,-64.95885249999999,0.10460479484929391,0.7350250133034729,0.8608838449257457,0.3910578713233927,0.01936251851238497,-3.8463451398924096,-4.831651933282609,45.66293816631273,1,40.91,3.609107494354248,16.64,40.91,0,0,1,0,1,0
1767898938.3845744,20260108150218.384536,18.189062,-64.95885249999999,0.10460479484929391,0.7350250133034729,0.8608838449257457,0.3910578713233927,0.01936251851238497,-2.1905310290940214,-6.471109229274091,45.05169748874142,1,40.91,3.609107494354248,16.64,40.91,0,0,1,0,1,0
1767898938.4903793,20260108150218.490341,18.189062,-64.95885249999999,0.10451737811226257,0.7350250133034729,0.8608838449257457,0.3910578713233927,0.015427701895187801,-2.1905310290940214,-6.471109229274091,45.05169748874142,1,40.91,3.609107494354248,16.64,40.91,0,0,1,0,1,0
1767898938.5834327,20260108150218.583394,18.189062,-64.95885249999999,0.10451737811226257,0.7350250133034729,0.8608838449257457,0.3910578713233927,0.015427701895187801,-0.4958176964029773,-6.210419598461683,44.88073779268697,1,40.91,2.1780214309692383,16.64,40.91,0,0,1,0,1,0
1767898938.68769,20260108150218.687652,18.189063666666666,-64.95884649999999,0.10686794616581818,0.7350250133034729,0.7478136519544618,0.4720177733375099,0.04410908830257691,0.5968887908069309,-4.222126914466911,44.34827654517131,1,40.91,2.1780214309692383,16.64,40.91,0,0,1,0,1,0
1767898938.7955914,20260108150218.795553,18.189063666666666,-64.95884649999999,0.10036628645803927,0.7350250133034729,0.7478136519544618,0.4720177733375099,0.037247318399642786,0.5968887908069309,-4.222126914466911,44.34827654517131,1,41.5,2.1780214309692383,16.64,41.5,0,0,1,0,1,0
1767898938.8785684,20260108150218.878530,18.189063666666666,-64.95884649999999,0.10036628645803927,0.7350250133034729,0.7478136519544618,0.4720177733375099,0.037247318399642786,0.20064370880125904,-4.265607914270456,43.94418191881611,1,41.5,2.1780214309692383,16.64,41.5,0,0,1,0,1,0
1767898938.9798775,20260108150218.979839,18.189063666666666,-64.95884649999999,0.10036628645803927,0.7350250133034729,0.7478136519544618,0.4720177733375099,0.037247318399642786,-0.4264090491154342,-5.064706181944901,43.4323888311191,1,41.5,2.1780214309692383,16.64,41.5,0,0,1,0,1,0
1767898939.0781844,20260108150219.078146,18.189063666666666,-64.95884649999999,0.12319431913038235,0.7350250133034729,0.7478136519544618,0.4720177733375099,0.05417366505818137,-0.9225699893273522,-5.215051079052681,42.93561191968158,1,41.5,2.1780214309692383,16.64,41.5,0,0,1,0,1,0
1767898939.181711,20260108150219.181673,18.189065666666668,-64.95884183333332,0.12319431913038235,0.7350250133034729,0.6592540967827507,0.4996760652104423,0.05417366505818137,-1.6596893907643961,-2.1837238893784527,42.475451302640415,1,41.5,2.1780214309692383,16.64,41.5,0,0,1,0,1,0
1767898939.2878864,20260108150219.287848,18.189065666666668,-64.95884183333332,0.12022960565539656,0.7350250133034729,0.6592540967827507,0.4996760652104423,0.022176753237869835,-1.6596893907643961,-2.1837238893784527,42.475451302640415,1,41.5,2.1780214309692383,16.64,41.5,0,0,1,0,1,0
1767898939.3978367,20260108150219.397799,18.189065666666668,-64.95884183333332,0.12022960565539656,0.7350250133034729,0.6592540967827507,0.4996760652104423,0.022176753237869835,-2.7987111404925686,-2.7877760037213504,42.0538713857579,1,41.5,2.6001663208007812,16.64,41.5,0,0,1,0,1,0
1767898939.5196066,20260108150219.519568,18.189065666666668,-64.95884183333332,0.08120720976468718,0.7350250133034729,0.6592540967827507,0.4996760652104423,-0.025561365266551034,-2.7987111404925686,-2.7877760037213504,42.0538713857579,1,41.53,2.860401153564453,16.78,41.53,0,0,1,0,1,0
1767898939.6473887,20260108150219.647351,18.189065666666668,-64.95884183333332,0.1123834183911452,0.7350250133034729,0.6592540967827507,0.4996760652104423,0.034582819456221284,-2.3195187708042675,-4.34277371155768,41.95225179495094,1,41.53,2.231308937072754,16.78,41.53,0,0,1,0,1,0
1767898939.6789658,20260108150219.678928,18.189067833333336,-64.95883766666667,0.1123834183911452,0.7350250133034729,0.6072803189776328,0.5510345587018969,0.034582819456221284,-0.7557688127473106,-5.313401996286208,42.106689257495376,1,41.53,2.231308937072754,16.78,41.53,0,0,1,0,1,0
1767898939.793091,20260108150219.793053,18.189067833333336,-64.95883766666667,0.1123834183911452,0.7350250133034729,0.6072803189776328,0.5510345587018969,0.034582819456221284,3.4165841475628196,-4.925483824990682,43.180316831736555,1,41.53,0.78525310754776,16.78,41.53,0,0,1,0,1,0
1767898939.8952148,20260108150219.895177,18.189067833333336,-64.95883766666667,0.14018010587720875,0.7350250133034729,0.6072803189776328,0.5510345587018969,0.060723938456773444,3.4165841475628196,-4.925483824990682,43.180316831736555,1,41.53,0.5142543911933899,16.78,41.53,0,0,1,0,1,0
1767898940.0019813,20260108150220.001943,18.189067833333336,-64.95883766666667,0.10918010587720817,0.7350250133034729,0.6072803189776328,0.5510345587018969,-0.0221607451250803,4.484039149577905,-3.3402095852851814,43.785178110341995,1,41.53,0.5142543911933899,16.78,41.53,0,0,1,0,1,0
1767898940.0804968,20260108150220.080459,18.189067833333336,-64.95883766666667,0.10918010587720817,0.7350250133034729,0.6072803189776328,0.5510345587018969,-0.0221607451250803,4.18297369482367,-1.3136048624329204,44.21881331542014,1,41.09,0.5142543911933899,16.67,41.09,0,0,1,0,1,0
1767898940.1895764,20260108150220.189538,18.189070333333333,-64.95883416666668,0.10918010587720817,0.7350250133034729,0.4883895606940136,0.5473865524895382,-0.0221607451250803,-1.3343153907839316,0.3900794466929569,44.749526033883086,1,41.09,3.121295213699341,16.67,41.09,0,0,1,0,1,0
1767898940.3007498,20260108150220.300712,18.189070333333333,-64.95883416666668,0.06208210810124742,0.7350250133034729,0.4883895606940136,0.5473865524895382,-0.020120918065891738,-1.3343153907839316,0.3900794466929569,44.749526033883086,1,41.09,1.905923843383789,16.67,41.09,0,0,1,0,1,0
1767898940.3792484,20260108150220.379210,18.189070333333333,-64.95883416666668,0.05426792393148763,0.7350250133034729,0.4883895606940136,0.5473865524895382,-0.030489827525526057,-5.582280173067759,-1.5333756690703264,44.92232305148123,1,41.09,1.905923843383789,16.67,41.09,0,0,1,0,1,0
1767898940.5193143,20260108150220.519276,18.189070333333333,-64.95883416666668,0.05426792393148763,0.7350250133034729,0.4883895606940136,0.5473865524895382,-0.030489827525526057,-9.771796337682016,-5.48227165370732,44.55951693342206,1,41.09,2.8230388164520264,16.67,41.09,0,0,1,0,1,0
1767898940.6007285,20260108150220.600690,18.189070333333333,-64.95883416666668,0.05426792393148763,0.7350250133034729,0.4883895606940136,0.5473865524895382,-0.030489827525526057,-9.771796337682016,-5.48227165370732,44.55951693342206,1,41.09,0.5876501798629761,16.67,41.09,0,0,1,0,1,0
1767898940.7129014,20260108150220.712863,18.189072166666666,-64.95883,0.10864460062230233,0.7350250133034729,0.6188749575409858,0.5379797929569593,-0.08668272153499931,-8.366456238922487,-5.488686911179118,44.694904991559966,1,41.09,0.5606873035430908,16.56,41.09,0,0,1,0,1,0
1767898940.7788007,20260108150220.778763,18.189072166666666,-64.95883,0.0816446006223013,0.7350250133034729,0.6188749575409858,0.5379797929569593,-0.1194371219762422,-5.701944276340316,-4.521930491320783,44.84351630065915,1,41.09,0.5606873035430908,16.56,41.09,0,0,1,0,1,0
1767898940.8897,20260108150220.889662,18.189072166666666,-64.95883,0.0816446006223013,0.7350250133034729,0.6188749575409858,0.5379797929569593,-0.1194371219762422,-4.371136082227538,-4.093303951129312,44.26590748658654,1,41.09,0.5606873035430908,16.56,41.09,0,0,1,0,1,0
1767898941.008851,20260108150221.008813,18.189072166666666,-64.95883,0.0816446006223013,0.7350250133034729,0.6188749575409858,0.5379797929569593,-0.1194371219762422,-4.371136082227538,-4.093303951129312,44.26590748658654,1,41.09,0.5606873035430908,16.56,41.09,0,0,1,0,1,0
1767898941.0794473,20260108150221.079409,18.189072166666666,-64.95883,0.07238877464360322,0.7350250133034729,0.6188749575409858,0.5379797929569593,-0.04310272820379449,-5.8956263123408075,-5.781983449861403,43.891961326007824,1,41.09,0.5606873035430908,16.56,41.09,0,0,1,0,1,0
1767898941.1869826,20260108150221.186944,18.1890735,-64.95882616666667,0.07238877464360322,0.7350250133034729,0.5480659524027289,0.42989308691346434,-0.04310272820379449,-6.633443247096252,-7.955913057911391,44.188630698685614,1,41.09,2.972524881362915,16.56,41.09,0,0,1,0,1,0
1767898941.30729,20260108150221.307252,18.1890735,-64.95882616666667,0.09298686761179911,0.7350250133034729,0.5480659524027289,0.42989308691346434,0.0024165658117252,-6.633443247096252,-7.955913057911391,44.188630698685614,1,41.09,1.1610276699066162,16.56,41.09,0,0,1,0,1,0
1767898941.4031682,20260108150221.403130,18.1890735,-64.95882616666667,0.10787675926276048,0.7350250133034729,0.5480659524027289,0.42989308691346434,-0.02571544285708672,-6.23718413118125,-5.555186510489875,44.962839748125056,1,41.09,2.8340749740600586,16.56,41.09,0,0,1,0,1,0
1767898941.5148823,20260108150221.514844,18.1890735,-64.95882616666667,0.10787675926276048,0.7350250133034729,0.5480659524027289,0.42989308691346434,-0.02571544285708672,-6.23718413118125,-5.555186510489875,44.962839748125056,1,41.09,0.7223909497261047,16.56,41.09,0,0,1,0,1,0
1767898941.635037,20260108150221.634999,18.1890735,-64.95882616666667,0.0734041269232756,0.7350250133034729,0.5480659524027289,0.42989308691346434,-0.08233307188697614,-7.470334245622167,-3.6612251759648267,45.130862461786236,1,41.09,1.6305822134017944,16.56,41.09,0,0,1,0,1,0
1767898941.6945124,20260108150221.694474,18.189075333333335,-64.9588225,0.0734041269232756,0.7350250133034729,0.5519095750978777,0.45950743040257536,-0.08233307188697614,-9.175296067383893,-2.572888357199723,45.186863202815026,1,41.09,1.6305822134017944,16.56,41.09,0,0,1,0,1,0
1767898941.7777944,20260108150221.777756,18.189075333333335,-64.9588225,0.0734041269232756,0.7350250133034729,0.5519095750978777,0.45950743040257536,-0.08233307188697614,-10.194906217485675,-3.0631951561890483,45.19762075460431,1,41.09,0.5658419132232666,16.56,41.09,0,0,1,0,1,0
1767898941.8979743,20260108150221.897936,18.189075333333335,-64.9588225,0.06485909646437701,0.7350250133034729,0.5519095750978777,0.45950743040257536,-0.04062144405955151,-10.033874204939615,-4.9045915495097585,45.091267841010065,1,41.09,1.0934889316558838,16.76,41.09,0,0,1,0,1,0
1767898941.9781218,20260108150221.978084,18.189075333333335,-64.9588225,0.0828590964643777,0.7350250133034729,0.5519095750978777,0.45950743040257536,0.001525062148677775,-9.17331189672054,-6.796361246301228,44.855182267932875,1,41.09,1.0934889316558838,16.76,41.09,0,0,1,0,1,0
1767898942.0892916,20260108150222.089253,18.189075333333335,-64.9588225,0.0828590964643777,0.7350250133034729,0.5519095750978777,0.45950743040257536,0.001525062148677775,-6.648250248737645,-6.553795528931909,43.849320439772576,1,41.09,0.6656780242919922,16.76,41.09,0,0,1,0,1,0
1767898942.207747,20260108150222.207709,18.189076833333335,-64.95881899999999,0.0828590964643777,0.7350250133034729,0.5346325241922543,0.4416581672882696,0.001525062148677775,-6.648250248737645,-6.553795528931909,43.84932862276389,1,41.09,0.5137575268745422,16.76,41.09,0,0,1,0,1,0
1767898942.2981153,20260108150222.298077,18.189076833333335,-64.95881899999999,0.07225793983651144,0.7350250133034729,0.5346325241922543,0.4416581672882696,-0.05132146668978897,-6.396145741894851,-4.92376347047835,44.163216908496175,1,41.09,0.8176500201225281,16.76,41.09,0,0,1,0,1,0
1767898942.3786848,20260108150222.378647,18.189076833333335,-64.95881899999999,0.06103529335731833,0.7350250133034729,0.5346325241922543,0.4416581672882696,-0.06252334937227866,-6.396145741894851,-4.92376347047835,44.163216908496175,1,41.09,0.8176500201225281,16.76,41.09,0,0,1,0,1,0
1767898942.498514,20260108150222.498476,18.189076833333335,-64.95881899999999,0.06103529335731833,0.7350250133034729,0.5346325241922543,0.4416581672882696,-0.06252334937227866,-8.75383397130669,-3.0174232674300603,46.49956591176345,1,41.09,0.5094156861305237,16.7,41.09,0,0,1,0,1,0
1767898942.6036499,20260108150222.603612,18.189076833333335,-64.95881899999999,0.06103529335731833,0.7350250133034729,0.5346325241922543,0.4416581672882696,-0.06252334937227866,-8.75383397130669,-3.0174232674300603,46.49956591176345,1,41.09,0.5094156861305237,16.7,41.09,0,0,1,0,1,0
1767898942.7068536,20260108150222.706815,18.189078666666667,-64.95881533333333,0.06466527651077836,0.7350250133034729,0.6150337077532703,0.4886943342164704,0.010165418455656246,-13.445653953033696,-0.6179118537850621,49.14354674524619,1,41.09,0.5094156861305237,16.7,41.09,0,0,1,0,1,0
1767898942.8144767,20260108150222.814439,18.189078666666667,-64.95881533333333,0.0736652765107787,0.7350250133034729,0.6150337077532703,0.4886943342164704,0.02451571190609924,-13.445653953033696,-0.6179118537850621,49.14354674524619,1,43.02,3.2951700687408447,16.7,43.02,0,0,1,0,1,0
1767898942.8797421,20260108150222.879704,18.189078666666667,-64.95881533333333,0.0736652765107787,0.7350250133034729,0.6150337077532703,0.4886943342164704,0.02451571190609924,-15.92093417633773,-1.7674634111009473,50.74321860198333,1,43.02,3.2951700687408447,16.7,43.02,0,0,1,0,1,0
1767898943.0124643,20260108150223.012426,18.189078666666667,-64.95881533333333,0.0736652765107787,0.7350250133034729,0.6150337077532703,0.4886943342164704,0.02451571190609924,-18.567966397923236,-5.2188956231564205,53.3262877866681,1,43.02,3.5244131088256836,16.7,43.02,0,0,1,0,1,0
1767898943.0786774,20260108150223.078639,18.189078666666667,-64.95881533333333,0.09670489675397592,0.7350250133034729,0.6150337077532703,0.4886943342164704,0.017261054484387438,-18.567966397923236,-5.2188956231564205,53.3262877866681,1,43.02,3.5244131088256836,16.78,43.02,0,0,1,0,1,0
1767898943.200567,20260108150223.200529,18.189080666666666,-64.95881283333333,0.09670489675397592,0.7350250133034729,0.4852276024481316,0.5308335778719468,0.017261054484387438,-15.796474424779424,-3.9635371406882944,53.02099188198403,1,43.02,1.0778779983520508,16.78,43.02,0,0,1,0,1,0
1767898943.307172,20260108150223.307134,18.189080666666666,-64.95881283333333,0.10970489675397582,0.7350250133034729,0.4852276024481316,0.5308335778719468,0.02687353832275192,-15.796474424779424,-3.9635371406882944,53.02099188198403,1,43.02,1.749921202659607,16.78,43.02,0,0,1,0,1,0
1767898943.4075778,20260108150223.407540,18.189080666666666,-64.95881283333333,0.07044663552935469,0.7350250133034729,0.4852276024481316,0.5308335778719468,0.012035927767324192,-12.644526264676458,-2.4709306719079542,51.21940590080573,1,42.47,1.749921202659607,16.78,42.47,0,0,1,0,1,0
1767898943.5182056,20260108150223.518167,18.189080666666666,-64.95881283333333,0.07044663552935469,0.7350250133034729,0.4852276024481316,0.5308335778719468,0.012035927767324192,-12.644526264676458,-2.4709306719079542,51.21940590080573,1,42.47,3.915891170501709,16.78,42.47,0,0,1,0,1,0
1767898943.6162453,20260108150223.616207,18.189080666666666,-64.95881283333333,0.08749018949780543,0.7350250133034729,0.4852276024481316,0.5308335778719468,0.04015443087540727,-12.261683779522784,-3.7693522318303514,50.539330552166255,1,42.47,2.0953965187072754,16.78,42.47,0,0,1,0,1,0
1767898943.6800668,20260108150223.680029,18.189081166666664,-64.95881,0.08749018949780543,0.7350250133034729,0.33452860855584593,0.34847777851334394,0.04015443087540727,-12.763521862944971,-5.674270901249342,50.1034482140477,1,42.47,2.0953965187072754,16.51,42.47,0,0,1,0,1,0
1767898943.7938948,20260108150223.793857,18.189081166666664,-64.95881,0.08749018949780543,0.7350250133034729,0.33452860855584593,0.34847777851334394,0.04015443087540727,-14.28734358805419,-6.90973260866403,50.32910408453301,1,42.47,0.936574399471283,16.51,42.47,0,0,1,0,1,0
1767898943.879127,20260108150223.879089,18.189081166666664,-64.95881,0.06966448820971728,0.7350250133034729,0.33452860855584593,0.34847777851334394,-0.007186366747503201,-14.28734358805419,-6.90973260866403,50.32910408453301,1,42.47,0.936574399471283,16.51,42.47,0,0,1,0,1,0
1767898944.002958,20260108150224.002920,18.189081166666664,-64.95881,0.06966448820971728,0.7350250133034729,0.33452860855584593,0.34847777851334394,-0.007186366747503201,-13.009989327272782,-5.757761029082531,52.38381696686104,1,44.18,0.8000286221504211,16.51,44.18,0,0,1,0,1,0
1767898944.0966554,20260108150224.096617,18.189081166666664,-64.95881,0.0959831278689669,0.7350250133034729,0.33452860855584593,0.34847777851334394,0.009305633352790332,-13.009989327272782,-5.757761029082531,52.38381696686104,1,44.18,0.8000286221504211,16.51,44.18,0,0,1,0,1,0
1767898944.20105,20260108150224.201012,18.189082,-64.95880683333333,0.09221157834992544,0.7350250133034729,0.49078237206687675,0.3828897387371067,0.05025613132558629,-12.347832986328015,-4.678151914536945,55.391034220474516,1,44.18,1.437315821647644,16.51,44.18,0,0,1,0,1,0
1767898944.3036397,20260108150224.303601,18.189082,-64.95880683333333,0.09221157834992544,0.7350250133034729,0.49078237206687675,0.3828897387371067,0.05025613132558629,-12.347832986328015,-4.678151914536945,55.391034220474516,1,44.18,1.437315821647644,16.62,44.18,0,0,1,0,1,0
1767898944.396957,20260108150224.396919,18.189082,-64.95880683333333,0.08483176481542193,0.7350250133034729,0.49078237206687675,0.3828897387371067,0.025650931603537576,-12.370518613994127,-3.821822617569557,57.04208960871057,1,44.18,1.437315821647644,16.62,44.18,0,0,1,0,1,0
1767898944.5006597,20260108150224.500622,18.189082,-64.95880683333333,0.08483176481542193,0.7350250133034729,0.49078237206687675,0.3828897387371067,0.025650931603537576,-13.121716747891913,-1.9913176051050365,60.28380783094718,1,44.18,0.5537258386611938,16.62,44.18,0,0,1,0,1,0
1767898944.588614,20260108150224.588576,18.189082,-64.95880683333333,0.08483176481542193,0.7350250133034729,0.49078237206687675,0.3828897387371067,0.025650931603537576,-13.121716747891913,-1.9913176051050365,60.28380783094718,1,43.65,0.5537258386611938,16.62,43.65,0,0,1,0,1,0
1767898944.6782746,20260108150224.678236,18.189083333333333,-64.9588035,0.06609827234985369,0.7350250133034729,0.5651311958466909,0.4860895136535687,-0.0067795730780737425,-14.271202137726553,-0.7384694314978968,61.691756209128634,1,43.65,0.5537258386611938,16.62,43.65,0,0,1,0,1,0
1767898944.7855563,20260108150224.785518,18.189083333333333,-64.9588035,0.06609827234985369,0.7350250133034729,0.5651311958466909,0.4860895136535687,-0.0067795730780737425,-15.983544835299254,0.5790228238189669,62.831872283619184,1,43.65,0.5537258386611938,16.62,43.65,0,0,1,0,1,0
1767898944.8956118,20260108150224.895574,18.189083333333333,-64.9588035,0.08822712307650502,0.7350250133034729,0.5651311958466909,0.4860895136535687,0.01670329299731378,-19.398374263948213,2.1306155210539752,64.5960971166785,1,43.65,0.5537258386611938,16.62,43.65,0,0,1,0,1,0
1767898945.0048113,20260108150225.004773,18.189083333333333,-64.9588035,0.08822712307650502,0.7350250133034729,0.5651311958466909,0.4860895136535687,0.01670329299731378,-19.398374263948213,2.1306155210539752,64.5960971166785,1,43.65,1.884312391281128,16.62,43.65,0,0,1,0,1,0
1767898945.0977838,20260108150225.097746,18.189083333333333,-64.9588035,0.03240633200220366,0.7350250133034729,0.5651311958466909,0.4860895136535687,-0.0708670467468677,-21.09405300153494,1.7640696596436274,65.39396594986275,1,43.65,1.476383090019226,16.62,43.65,0,0,1,0,1,0
1767898945.196866,20260108150225.196828,18.189084166666664,-64.95880033333333,0.04540633200220356,0.7350250133034729,0.47696406759160787,0.36374407594135416,-0.029046624085202255,-22.08597440861464,0.4561095770521129,66.56177127866378,1,42.98,1.476383090019226,16.62,42.98,0,0,1,0,1,0
1767898945.2950199,20260108150225.294982,18.189084166666664,-64.95880033333333,0.04540633200220356,0.7350250133034729,0.47696406759160787,0.36374407594135416,-0.029046624085202255,-21.608421071469788,-4.468274213562898,68.51931102492445,1,42.98,1.0656956434249878,16.62,42.98,0,0,1,0,1,0
1767898945.3777316,20260108150225.377693,18.189084166666664,-64.95880033333333,0.04540633200220356,0.7350250133034729,0.47696406759160787,0.36374407594135416,-0.029046624085202255,-21.608421071469788,-4.468274213562898,68.51931102492445,1,42.98,1.0656956434249878,16.62,42.98,0,0,1,0,1,0
1767898945.4883952,20260108150225.488357,18.189084166666664,-64.95880033333333,0.07296971679337469,0.7350250133034729,0.47696406759160787,0.36374407594135416,0.016442657077194327,-18.526046096903087,-7.993980277088278,67.33710047952762,1,42.98,0.3963833451271057,16.45,42.98,0,0,1,0,1,0
1767898945.5931404,20260108150225.593102,18.189084166666664,-64.95880033333333,0.07296971679337469,0.7350250133034729,0.47696406759160787,0.36374407594135416,0.016442657077194327,-18.526046096903087,-7.993980277088278,67.33710047952762,1,42.98,0.5090092420578003,16.45,42.98,0,0,1,0,1,0
1767898945.7012274,20260108150225.701189,18.189084666666666,-64.95879766666667,0.07296971679337469,0.7350250133034729,0.41972154943266465,0.2689394986241568,0.016442657077194327,-9.147988961318143,-6.093290776938192,65.82413107511633,1,42.98,2.4949803352355957,16.45,42.98,0,0,1,0,1,0
1767898945.817133,20260108150225.817095,18.189084666666666,-64.95879766666667,0.09891013642854275,0.7350250133034729,0.41972154943266465,0.2689394986241568,0.09657739123306107,-9.147988961318143,-6.093290776938192,65.82413107511633,1,42.98,2.4949803352355957,16.45,42.98,0,0,1,0,1,0
1767898945.9340093,20260108150225.933971,18.189084666666666,-64.95879766666667,0.09891013642854275,0.7350250133034729,0.41972154943266465,0.2689394986241568,0.09657739123306107,-5.346283819368489,-4.336388763061158,66.3969177739107,1,45.31,2.4949803352355957,16.45,45.31,0,0,1,0,1,0
1767898945.9776006,20260108150225.977562,18.189084666666666,-64.95879766666667,0.08191013642854329,0.7350250133034729,0.41972154943266465,0.2689394986241568,0.033458859355759804,-4.478239890012155,-3.820299911727004,67.4020146206104,1,45.31,2.4949803352355957,16.45,45.31,0,0,1,0,1,0
1767898946.077513,20260108150226.077475,18.189084666666666,-64.95879766666667,0.08191013642854329,0.7350250133034729,0.41972154943266465,0.2689394986241568,0.033458859355759804,-8.78721055639387,-6.324235777053229,68.20390643665425,1,45.31,2.4949803352355957,16.45,45.31,0,0,1,0,1,0
1767898946.1939073,20260108150226.193869,18.189084666666666,-64.958793,0.08191013642854329,0.7350250133034729,0.9468754132357597,0.09584617679182282,0.033458859355759804,-8.78721055639387,-6.324235777053229,68.20390643665425,1,45.31,2.324838638305664,16.45,45.31,0,0,1,0,1,0
1767898946.2768192,20260108150226.276781,18.189084666666666,-64.958793,0.10952933258329325,0.7350250133034729,0.9468754132357597,0.09584617679182282,0.008841148648956446,-9.36016203356088,-6.920585356248908,68.35240846268765,1,45.31,2.324838638305664,16.45,45.31,0,0,1,0,1,0
1767898946.4068666,20260108150226.406828,18.189084666666666,-64.958793,0.10952933258329325,0.7350250133034729,0.9468754132357597,0.09584617679182282,0.008841148648956446,-5.955381951208421,-5.760047435724728,67.8085271347963,1,45.31,2.324838638305664,16.45,45.31,0,0,1,0,1,0
1767898946.500965,20260108150226.500927,18.189084666666666,-64.958793,0.09683243666459876,0.7350250133034729,0.9468754132357597,0.09584617679182282,-0.009188643953057376,-5.955381951208421,-5.760047435724728,67.8085271347963,1,43.02,0.8842707276344299,16.45,43.02,0,0,1,0,1,0
1767898946.6008372,20260108150226.600799,18.189084666666666,-64.958793,0.10183243666459954,0.7350250133034729,0.9468754132357597,0.09584617679182282,-0.02366026930612034,-6.318486463263636,-5.223457337379445,64.73272109701269,1,43.02,0.6631537079811096,16.45,43.02,0,0,1,0,1,0
1767898946.7116396,20260108150226.711601,18.189085499999997,-64.95878866666666,0.10183243666459954,0.7350250133034729,0.8408039290039602,0.10457864408896307,-0.02366026930612034,-6.318486463263636,-5.223457337379445,64.73272109701269,1,43.02,0.8038848042488098,16.42,43.02,0,0,1,0,1,0
1767898946.7846038,20260108150226.784566,18.189085499999997,-64.95878866666666,0.12911004340179624,0.7350250133034729,0.8408039290039602,0.10457864408896307,0.03304292782232195,-6.42815842309446,-5.684971250183873,62.46997423855893,1,43.02,0.8038848042488098,16.42,43.02,0,0,1,0,1,0
1767898946.889826,20260108150226.889788,18.189085499999997,-64.95878866666666,0.12911004340179624,0.7350250133034729,0.8408039290039602,0.10457864408896307,0.03304292782232195,-3.062041280693571,-4.280515661238128,58.51777265462509,1,43.02,0.5426452159881592,16.42,43.02,0,0,1,0,1,0
1767898946.984968,20260108150226.984930,18.189085499999997,-64.95878866666666,0.12911004340179624,0.7350250133034729,0.8408039290039602,0.10457864408896307,0.03304292782232195,-3.062041280693571,-4.280515661238128,58.51777265462509,1,43.02,0.5426452159881592,16.42,43.02,0,0,1,0,1,0
1767898947.1002972,20260108150227.100259,18.189085499999997,-64.95878866666666,0.10872944002654139,0.7350250133034729,0.8408039290039602,0.10457864408896307,0.036504086220354864,-1.1292870191328324,-2.1841761761292746,56.85309786431425,1,42.09,0.5426452159881592,16.42,42.09,0,0,1,0,1,0
1767898947.18453,20260108150227.184492,18.1890865,-64.958784,0.10872944002654139,0.7350250133034729,0.925876415737056,0.11663705689020035,0.036504086220354864,1.820371142546823,0.15481008151341877,53.46985124168033,1,42.09,0.5426452159881592,16.42,42.09,0,0,1,0,1,0
1767898947.296373,20260108150227.296335,18.1890865,-64.958784,0.051903973883991886,0.7350250133034729,0.925876415737056,0.11663705689020035,-0.02640550037059517,1.820371142546823,0.15481008151341877,53.46985124168033,1,42.09,1.8117551803588867,16.78,42.09,0,0,1,0,1,0
1767898947.3819983,20260108150227.381960,18.1890865,-64.958784,0.09590397388399237,0.7350250133034729,0.925876415737056,0.11663705689020035,0.06745719872026446,2.7573746074117618,-0.5037825002359161,51.539673243018306,1,42.09,1.8117551803588867,16.78,42.09,0,0,1,0,1,0
1767898947.4779904,20260108150227.477952,18.1890865,-64.958784,0.09590397388399237,0.7350250133034729,0.925876415737056,0.11663705689020035,0.06745719872026446,3.5036833913326144,-2.227841591106349,48.32329503166313,1,42.09,0.9451571702957153,16.78,42.09,0,0,1,0,1,0
1767898947.5796707,20260108150227.579632,18.1890865,-64.958784,0.09590397388399237,0.7350250133034729,0.925876415737056,0.11663705689020035,0.06745719872026446,3.5036833913326144,-2.227841591106349,48.32329503166313,1,42.09,0.9451571702957153,16.78,42.09,0,0,1,0,1,0
1767898947.6944387,20260108150227.694401,18.189088,-64.95877983333334,0.12147063689700638,0.7350250133034729,0.8518573866311921,0.16589291257782524,0.08075251933181408,5.182309274898459,-1.8613864431783498,46.47462170951001,1,42.09,0.9119133949279785,16.78,42.09,0,0,1,0,1,0
1767898947.801156,20260108150227.801118,18.189088,-64.95877983333334,0.08785424330336158,0.7350250133034729,0.8518573866311921,0.16589291257782524,0.016496687767500892,5.182309274898459,-1.8613864431783498,46.47462170951001,1,41.47,0.5925830602645874,16.78,41.47,0,0,1,0,1,0
1767898947.9127412,20260108150227.912703,18.189088,-64.95877983333334,0.08785424330336158,0.7350250133034729,0.8518573866311921,0.16589291257782524,0.016496687767500892,9.327628123363846,-0.7101236026983635,46.914964162751346,1,41.47,0.5530084371566772,16.7,41.47,0,0,1,0,1,0
1767898948.0202181,20260108150228.020180,18.189088,-64.95877983333334,0.0698542433033609,0.7350250133034729,0.8518573866311921,0.16589291257782524,-0.019189468447965548,9.327628123363846,-0.7101236026983635,46.914964162751346,1,41.47,1.0810532569885254,16.7,41.47,0,0,1,0,1,0
1767898948.0862272,20260108150228.086189,18.189088,-64.95877983333334,0.0698542433033609,0.7350250133034729,0.8518573866311921,0.16589291257782524,-0.019189468447965548,10.897788429692374,-1.0737361102547431,47.51139698490732,1,41.47,1.0810532569885254,16.7,41.47,0,0,1,0,1,0
1767898948.1815784,20260108150228.181540,18.189090500000002,-64.958777,0.0698542433033609,0.7350250133034729,0.639214702355112,0.30887083642342394,-0.019189468447965548,11.124771064898363,-1.5231436151482098,47.92933087124498,1,41.47,0.5670240521430969,16.7,41.47,0,0,1,0,1,0
1767898948.2897084,20260108150228.289670,18.189090500000002,-64.958777,0.07205817203004874,0.7350250133034729,0.639214702355112,0.30887083642342394,0.03806597721134182,8.454194319051492,-1.428936916675411,47.94984876684817,1,41.47,0.9498057961463928,16.7,41.47,0,0,1,0,1,0
1767898948.3803341,20260108150228.380296,18.189090500000002,-64.958777,0.0760581720300483,0.7350250133034729,0.639214702355112,0.30887083642342394,-0.03594183925534562,8.454194319051492,-1.428936916675411,47.94984876684817,1,40.49,0.9498057961463928,16.7,40.49,0,0,1,0,1,0
1767898948.48514,20260108150228.485102,18.189090500000002,-64.958777,0.0760581720300483,0.7350250133034729,0.639214702355112,0.30887083642342394,-0.03594183925534562,5.08999795459806,-1.9728434308983334,48.57367748756082,1,40.49,0.979112446308136,16.62,40.49,0,0,1,0,1,0
1767898948.5814335,20260108150228.581395,18.189090500000002,-64.958777,0.0760581720300483,0.7350250133034729,0.639214702355112,0.30887083642342394,-0.03594183925534562,5.08999795459806,-1.9728434308983334,48.57367748756082,1,40.49,0.979112446308136,16.62,40.49,0,0,1,0,1,0
1767898948.6911075,20260108150228.691069,18.18909216666667,-64.95877416666667,0.07063430402885643,0.7350250133034729,0.5691633188183681,0.3713160693165841,-0.03412111647324516,1.5995806096460568,-1.601629987294966,48.524185919138525,1,40.49,0.860177218914032,16.62,40.49,0,0,1,0,1,0
1767898948.784565,20260108150228.784527,18.18909216666667,-64.95877416666667,0.04215662028453434,0.7350250133034729,0.5691633188183681,0.3713160693165841,-0.054790716105705316,1.5995806096460568,-1.601629987294966,48.524185919138525,1,40.49,1.3581130504608154,16.62,40.49,0,0,1,0,1,0
1767898948.8957343,20260108150228.895696,18.18909216666667,-64.95877416666667,0.04215662028453434,0.7350250133034729,0.5691633188183681,0.3713160693165841,-0.054790716105705316,-0.3963729079744881,-0.5699027571078326,47.93990400786075,1,40.49,1.297773838043213,16.62,40.49,0,0,1,0,1,0
1767898948.9939556,20260108150228.993917,18.18909216666667,-64.95877416666667,0.02915662028453444,0.7350250133034729,0.5691633188183681,0.3713160693165841,-0.04586200611117168,-0.9256682282757119,-0.6104927715897498,47.32048759092958,1,41.13,1.297773838043213,16.62,0.7350250133034729,0,0,1,0,1,0
1767898949.086144,20260108150229.086106,18.18909216666667,-64.95877416666667,0.02915662028453444,0.7350250133034729,0.5691633188183681,0.3713160693165841,-0.04586200611117168,3.2760621332108877,-5.770455367080861,47.59538231274756,1,41.13,0.9830992221832275,16.67,0.7350250133034729,0,0,1,0,1,0
1767898949.192085,20260108150229.192047,18.189094333333333,-64.9587715,0.07501649718532072,0.7350250133034729,0.5452667110413701,0.45462164832964885,-0.029199220216565028,3.2760621332108877,-5.770455367080861,47.59538231274756,1,41.13,0.587570071220398,16.67,0.7350250133034729,0,0,1,0,1,0
1767898949.3066707,20260108150229.306632,18.189094333333333,-64.9587715,0.07501649718532072,0.7350250133034729,0.5452667110413701,0.45462164832964885,-0.029199220216565028,7.478019064959875,-9.075947515287991,49.81451156756551,1,41.13,0.5965138673782349,16.67,0.7350250133034729,0,0,1,0,1,0
1767898949.3926177,20260108150229.392580,18.189094333333333,-64.9587715,0.09301649718531962,0.7350250133034729,0.5452667110413701,0.45462164832964885,0.017577388820011086,7.478019064959875,-9.075947515287991,49.81451156756551,1,41.13,0.5965138673782349,16.67,0.7350250133034729,0,0,1,0,1,0
1767898949.4883049,20260108150229.488267,18.189094333333333,-64.9587715,0.09301649718531962,0.7350250133034729,0.5452667110413701,0.45462164832964885,0.017577388820011086,4.190997462420156,-6.597030214950435,51.7837924132076,1,41.13,0.48527687788009644,16.67,0.7350250133034729,0,0,1,0,1,0
1767898949.606566,20260108150229.606528,18.189094333333333,-64.9587715,0.058675920355092975,0.7350250133034729,0.5452667110413701,0.45462164832964885,0.023361498362662297,4.190997462420156,-6.597030214950435,51.7837924132076,1,41.13,1.7410320043563843,16.67,0.7350250133034729,0,0,1,0,1,0
1767898949.681234,20260108150229.681196,18.189096666666668,-64.95876883333334,0.058675920355092975,0.7350250133034729,0.5062245543370706,0.5035808838421416,0.023361498362662297,0.32019855568845706,-5.347410800984494,51.93812059268626,1,41.13,1.7410320043563843,16.53,0.7350250133034729,0,0,1,0,1,0
1767898949.7813408,20260108150229.781303,18.189096666666668,-64.95876883333334,0.058675920355092975,0.7350250133034729,0.5062245543370706,0.5035808838421416,0.023361498362662297,-4.876787973891207,-7.076936553105704,52.05437728411826,1,41.13,1.4584572315216064,16.53,0.7350250133034729,0,0,1,0,1,0
1767898949.9129758,20260108150229.912938,18.189096666666668,-64.95876883333334,0.057944461134315575,0.7350250133034729,0.5062245543370706,0.5035808838421416,0.01790241073887585,-4.876787973891207,-7.076936553105704,52.05437728411826,1,41.13,1.4584572315216064,16.53,0.7350250133034729,0,0,1,0,1,0
