timestamp_ros,timestamp_sys (%Y%m%d%H%M%S.%f),latitude,longitude,depth,distance_to_ocean_floor,velX,velY,velZ,roll,pitch,yaw,navMode,acousticAltimeter,forwardStereo,battery_volts,altitudeUsed,cotsNumFound,cotsNumMaybe,missionState,errorState,storeData,storeImageData
1767894995.6323078,20260108135635.632271,18.188914333333333,-64.95631283333334,0.04967976394734698,0.42346586865714525,0.2989093721963321,-0.2213428112200823,0.2522579201613111,10.039804518806928,-6.5121979544654405,85.08632878606451,1,-1.0,1.3678849935531616,15.53,0.42346586865714525,0,0,1,0,1,0
1767894995.7307239,20260108135635.730687,18.188914333333333,-64.95631283333334,0.07631824742395453,0.42346586865714525,0.2989093721963321,-0.2213428112200823,0.2294775915185002,7.386385214290018,-4.106144284473351,84.77813688013684,1,-1.0,1.3678849935531616,15.53,0.42346586865714525,0,0,1,0,1,0
1767894995.8361185,20260108135635.836082,18.188914333333333,-64.95631283333334,0.07631824742395453,0.42346586865714525,0.2989093721963321,-0.2213428112200823,0.2294775915185002,1.7984528442196483,-3.116706505818658,83.88362083563935,1,-1.0,1.488295555114746,15.53,0.42346586865714525,0,0,1,0,1,0
1767894995.9388876,20260108135635.938851,18.18891316666667,-64.956312,0.08131643749142427,0.42346586865714525,0.18441497068269197,-0.1657568093977085,0.2531948591635179,1.7984528442196483,-3.116706505818658,83.88362083563935,1,-1.0,1.528878092765808,15.53,0.42346586865714525,0,0,1,0,1,0
1767894996.0306444,20260108135636.030608,18.18891316666667,-64.956312,0.08131643749142427,0.42346586865714525,0.18441497068269197,-0.1657568093977085,0.2531948591635179,-0.1923228545500956,-2.738569595798844,83.59335818269383,1,-1.0,1.528878092765808,15.53,0.42346586865714525,0,0,1,0,1,0
1767894996.1453836,20260108135636.145347,18.18891316666667,-64.956312,0.08507710617575702,0.42346586865714525,0.18441497068269197,-0.1657568093977085,0.16369858921573255,-2.2368597919128903,-0.44329619094840483,81.87115951862467,1,-1.0,1.341036319732666,15.5,0.42346586865714525,0,0,1,0,1,0
1767894996.2464545,20260108135636.246418,18.18891316666667,-64.956312,0.08507710617575702,0.42346586865714525,0.18441497068269197,-0.1657568093977085,0.16369858921573255,-2.2368597919128903,-0.44329619094840483,81.87115951862467,1,-1.0,0.6958272457122803,15.5,0.42346586865714525,0,0,1,0,1,0
1767894996.3406749,20260108135636.340638,18.18891316666667,-64.956312,0.09107100246219621,0.42346586865714525,0.18441497068269197,-0.1657568093977085,0.05751620148554858,-2.9784297035157734,0.7199370405798847,80.23645560910832,1,-1.0,1.9775248765945435,15.5,0.42346586865714525,0,0,1,0,1,0
1767894996.4299493,20260108135636.429913,18.188911833333336,-64.956311,0.09107100246219621,0.42346586865714525,0.30653294644309564,-0.23768564765827127,0.05751620148554858,-3.8885719457611514,0.9448823043331571,78.30043779661786,1,-1.0,1.9775248765945435,15.5,0.42346586865714525,0,0,1,0,1,0
1767894996.5448766,20260108135636.544840,18.188911833333336,-64.956311,0.07733064329616882,0.42346586865714525,0.30653294644309564,-0.23768564765827127,0.011109962325211218,-5.540706504271932,-1.2143386995233525,74.35288074298036,1,-1.0,0.8360539078712463,15.5,0.42346586865714525,0,0,1,0,1,0
1767894996.6454403,20260108135636.645404,18.188911833333336,-64.956311,0.07733064329616882,0.42346586865714525,0.30653294644309564,-0.23768564765827127,0.011109962325211218,-5.540706504271932,-1.2143386995233525,74.35288074298036,1,-1.0,1.1298054456710815,15.5,0.42346586865714525,0,0,1,0,1,0
1767894996.7538726,20260108135636.753836,18.188911833333336,-64.956311,0.10933017520155633,0.42346586865714525,0.30653294644309564,-0.23768564765827127,0.07861978301897204,-5.768950590491302,-2.2805215783506556,72.27139350953233,1,-1.0,1.1086925268173218,15.53,0.42346586865714525,0,0,1,0,1,0
1767894996.869225,20260108135636.869188,18.188911833333336,-64.956311,0.10933017520155633,0.42346586865714525,0.30653294644309564,-0.23768564765827127,0.07861978301897204,-5.629223653131733,-2.977198988364631,69.81482630369793,1,-1.0,0.7312110662460327,15.53,0.42346586865714525,0,0,1,0,1,0
1767894996.9807472,20260108135636.980711,18.188911333333333,-64.95631,0.10874125459720768,0.42346586865714525,0.16818123877321672,-0.1112745259191728,0.07490072086814406,-5.134190148103245,-3.609753705748909,66.90077286367546,1,-1.0,0.8045095801353455,15.53,0.42346586865714525,0,0,1,0,1,0
1767894997.0440662,20260108135637.044030,18.188911333333333,-64.95631,0.10874125459720768,0.42346586865714525,0.16818123877321672,-0.1112745259191728,0.07490072086814406,-4.2556418109342555,-4.674296271371835,63.675652007056584,1,-1.0,0.8045095801353455,15.53,0.42346586865714525,0,0,1,0,1,0
1767894997.1328647,20260108135637.132828,18.188911333333333,-64.95631,0.10400451273748658,0.42346586865714525,0.16818123877321672,-0.1112745259191728,0.05399234252483803,-3.0449662285499355,-6.423077614308887,60.41069064276349,1,-1.0,1.040618896484375,15.53,0.42346586865714525,0,0,1,0,1,0
1767894997.2327247,20260108135637.232688,18.188911333333333,-64.95631,0.10400451273748658,0.42346586865714525,0.16818123877321672,-0.1112745259191728,0.05399234252483803,-1.6992315044425514,-8.538400336343042,57.16315992746483,1,-1.0,1.040618896484375,15.53,0.42346586865714525,0,0,1,0,1,0
1767894997.340855,20260108135637.340818,18.188911333333333,-64.95631,0.1820433218419819,0.42346586865714525,0.16818123877321672,-0.1112745259191728,0.129516596154686,1.4275528423782353,-11.065666855555767,49.939235089541775,1,-1.0,0.8626880645751953,15.14,0.42346586865714525,0,0,1,0,1,0
1767894997.4424489,20260108135637.442412,18.188910500000002,-64.95631,0.1820433218419819,0.42346586865714525,0.08467131791307539,-0.13331776206173473,0.129516596154686,1.4275528423782353,-11.065666855555767,49.939235089541775,1,-1.0,1.0412081480026245,15.14,0.42346586865714525,0,0,1,0,1,0
1767894997.5457618,20260108135637.545725,18.188910500000002,-64.95631,0.1602066369293676,0.42346586865714525,0.08467131791307539,-0.13331776206173473,0.061660176366565254,3.1491499159768104,-10.875963406169408,45.6374984498514,1,-1.0,1.576216459274292,15.14,0.42346586865714525,0,0,1,0,1,0
1767894997.6331563,20260108135637.633120,18.188910500000002,-64.95631,0.1602066369293676,0.42346586865714525,0.08467131791307539,-0.13331776206173473,0.061660176366565254,4.778816559179116,-9.97720410513281,40.88654352291954,1,-1.0,1.576216459274292,15.14,0.42346586865714525,0,0,1,0,1,0
1767894997.7406278,20260108135637.740591,18.188910500000002,-64.95631,0.1458900144345454,0.42346586865714525,0.08467131791307539,-0.13331776206173473,-0.012388647602866551,6.0212664063870776,-8.772850078529114,35.76962351430786,1,-1.0,3.409059524536133,15.14,0.42346586865714525,0,0,1,0,1,0
1767894997.845672,20260108135637.845635,18.188910500000002,-64.95631,0.1458900144345454,0.42346586865714525,0.08467131791307539,-0.13331776206173473,-0.012388647602866551,6.6201807225331555,-7.462883360347147,30.447213775946015,1,-1.0,3.409059524536133,15.14,0.42346586865714525,0,0,1,0,1,0
1767894997.9571958,20260108135637.957159,18.188911,-64.95630933333334,0.13050107894794782,0.42346586865714525,0.19532689468268766,0.025854013713322188,-0.02604587416836151,6.842661834579693,-6.33455022016167,25.08696819114817,1,-1.0,2.284047842025757,15.31,0.42346586865714525,0,0,1,0,1,0
1767894998.0324826,20260108135638.032446,18.188911,-64.95630933333334,0.13050107894794782,0.42346586865714525,0.19532689468268766,0.025854013713322188,-0.02604587416836151,7.484182459115969,-5.661018195086714,19.90925947718751,1,-1.0,2.284047842025757,15.31,0.42346586865714525,0,0,1,0,1,0
1767894998.1350267,20260108135638.134990,18.188911,-64.95630933333334,0.12273790525595421,0.42346586865714525,0.19532689468268766,0.025854013713322188,-0.0995801242354301,9.101728927302348,-5.378734059718249,15.164660043550859,1,38.33,2.040165901184082,15.31,38.33,0,0,1,0,1,0
1767894998.2443147,20260108135638.244278,18.188911,-64.95630933333334,0.12273790525595421,0.42346586865714525,0.19532689468268766,0.025854013713322188,-0.0995801242354301,11.763569004303205,-5.063930955196915,10.919835975469466,1,38.33,2.8122165203094482,15.31,38.33,0,0,1,0,1,0
1767894998.329568,20260108135638.329531,18.188911,-64.95630933333334,0.13798734333186147,0.42346586865714525,0.19532689468268766,0.025854013713322188,-0.0652560096801896,14.598743976491678,-4.177013071981071,7.101571033955941,1,38.33,2.8122165203094482,15.31,38.33,0,0,1,0,1,0
1767894998.4406834,20260108135638.440647,18.188911,-64.95630933333334,0.13798734333186147,0.42346586865714525,0.19532689468268766,0.025854013713322188,-0.0652560096801896,17.72503025293349,-0.5341791474278972,0.3787782083971464,1,38.33,1.7831041812896729,15.31,38.33,0,0,1,0,1,0
1767894998.5466132,20260108135638.546577,18.188912833333333,-64.95630816666667,0.12908954576523063,0.42346586865714525,0.32032603030951273,0.513825354574026,-0.03245706304898782,17.72503025293349,-0.5341791474278972,0.3787799102343742,1,38.33,1.963630199432373,14.94,38.33,0,0,1,0,1,0
1767894998.6569555,20260108135638.656919,18.188912833333333,-64.95630816666667,0.12908954576523063,0.42346586865714525,0.32032603030951273,0.513825354574026,-0.03245706304898782,18.58077812983988,1.2020055079065286,-2.6813183943889913,1,38.33,1.499884009361267,14.94,38.33,0,0,1,0,1,0
1767894998.7604065,20260108135638.760370,18.188912833333333,-64.95630816666667,0.11730383480732069,0.42346586865714525,0.32032603030951273,0.513825354574026,-0.017453513024018964,19.73991116532682,2.0562136034913356,-5.413124392943817,1,38.33,1.1165332794189453,14.94,38.33,0,0,1,0,1,0
1767894998.8293695,20260108135638.829333,18.188912833333333,-64.95630816666667,0.11730383480732069,0.42346586865714525,0.32032603030951273,0.513825354574026,-0.017453513024018964,21.164275909048303,1.7728744169622672,-7.450892850542801,1,38.33,1.1165332794189453,14.94,38.33,0,0,1,0,1,0
1767894998.9405231,20260108135638.940486,18.188915666666666,-64.95630783333333,0.09158806350144524,0.42346586865714525,0.19691144240088176,0.6056713963277138,-0.02952062681598408,22.55231427868007,0.5944685550978416,-9.388809456301455,1,38.33,1.206944227218628,14.94,38.33,0,0,1,0,1,0
1767894999.0434704,20260108135639.043434,18.188915666666666,-64.95630783333333,0.09158806350144524,0.42346586865714525,0.19691144240088176,0.6056713963277138,-0.02952062681598408,22.55231427868007,0.5944685550978416,-9.388809456301455,1,38.33,1.1295082569122314,14.94,38.33,0,0,1,0,1,0
1767894999.1296525,20260108135639.129616,18.188915666666666,-64.95630783333333,0.07255430495591665,0.42346586865714525,0.19691144240088176,0.6056713963277138,-0.09337625345991443,21.85415429019927,0.4992408497007541,-10.327354196592408,1,38.33,1.1295082569122314,14.94,38.33,0,0,1,0,1,0
1767894999.236075,20260108135639.236038,18.188915666666666,-64.95630783333333,0.07255430495591665,0.42346586865714525,0.19691144240088176,0.6056713963277138,-0.09337625345991443,19.72338380917309,-0.9367395419921704,-12.10915332611351,1,38.33,0.6730644702911377,15.33,38.33,0,0,1,0,1,0
1767894999.3377953,20260108135639.337759,18.188915666666666,-64.95630783333333,0.07835766342608556,0.42346586865714525,0.19691144240088176,0.6056713963277138,-0.06867892624214386,19.72338380917309,-0.9367395419921704,-12.10915332611351,1,38.33,0.43481889367103577,15.33,38.33,0,0,1,0,1,0
1767894999.437662,20260108135639.437625,18.188919333333335,-64.95630833333333,0.07835766342608556,0.42346586865714525,0.04757825265341219,0.9139511892353911,-0.06867892624214386,18.868704857254013,-2.410380169491467,-12.635450112255663,1,38.33,0.5117391347885132,15.33,38.33,0,0,1,0,1,0
1767894999.536392,20260108135639.536355,18.188919333333335,-64.95630833333333,0.10318540751428096,0.42346586865714525,0.04757825265341219,0.9139511892353911,-0.030399230148747954,17.802033833169922,-4.099501496243474,-12.77190421389376,1,38.33,0.5117391347885132,15.33,38.33,0,0,1,0,1,0
1767894999.6330962,20260108135639.633060,18.188919333333335,-64.95630833333333,0.10318540751428096,0.42346586865714525,0.04757825265341219,0.9139511892353911,-0.030399230148747954,13.30020331510304,-6.928779024861753,-12.557155198917513,1,38.33,0.4796592891216278,15.33,38.33,0,0,1,0,1,0
1767894999.7402427,20260108135639.740206,18.188919333333335,-64.95630833333333,0.09308597093937153,0.42346586865714525,0.04757825265341219,0.9139511892353911,-0.03485773648341554,13.30020331510304,-6.928779024861753,-12.557155198917513,1,38.33,0.5235806107521057,15.22,38.33,0,0,1,0,1,0
1767894999.847622,20260108135639.847585,18.188919333333335,-64.95630833333333,0.09308597093937153,0.42346586865714525,0.04757825265341219,0.9139511892353911,-0.03485773648341554,10.700503467616425,-7.957734157750009,-12.54284584076813,1,38.33,0.6887477040290833,15.22,38.33,0,0,1,0,1,0
1767894999.943383,20260108135639.943346,18.188923166666665,-64.95630866666667,0.12557147880147532,0.42346586865714525,-0.056431515152055675,0.8969532481916023,0.01298848641988297,9.080603144645677,-9.027890287104249,-12.46270165305098,1,38.33,0.6887477040290833,15.22,38.33,0,0,1,0,1,0
1767895000.0402656,20260108135640.040229,18.188923166666665,-64.95630866666667,0.12557147880147532,0.42346586865714525,-0.056431515152055675,0.8969532481916023,0.01298848641988297,8.7956082769811,-11.320719016966224,-11.86460941449847,1,38.33,0.7254423499107361,15.22,38.33,0,0,1,0,1,0
1767895000.1498961,20260108135640.149859,18.188923166666665,-64.95630866666667,0.1875906469068419,0.42346586865714525,-0.056431515152055675,0.8969532481916023,0.1145468753532746,8.7956082769811,-11.320719016966224,-11.86460941449847,1,38.33,1.9688310623168945,15.22,38.33,0,0,1,0,1,0
1767895000.250084,20260108135640.250047,18.188923166666665,-64.95630866666667,0.1875906469068419,0.42346586865714525,-0.056431515152055675,0.8969532481916023,0.1145468753532746,8.665546060752852,-11.744289934703705,-11.506935118218474,1,38.33,1.9688310623168945,15.22,38.33,0,0,1,0,1,0
1767895000.350662,20260108135640.350625,18.188923352644935,-64.9563088833695,0.2055906469068426,0.42346586865714525,-0.24147343365965845,0.21813661049125732,0.12664495736895595,8.161810891610367,-11.547011802819368,-11.52982501130248,5,38.33,1.9688310623168945,15.11,38.33,0,0,1,0,1,0
1767895000.430273,20260108135640.430236,18.188923520841417,-64.95630908199469,0.2055906469068426,0.42346586865714525,-0.24291991921207828,0.21652462411928433,0.12664495736895595,7.465450658619391,-10.987624232420323,-11.911166775292891,5,38.33,1.9688310623168945,15.11,38.33,0,0,1,0,1,0
1767895000.556125,20260108135640.556088,18.188923710217786,-64.95630931685041,0.22916384087234393,0.42346586865714525,-0.24809566560087434,0.2105743116100802,0.127330935725118,6.428790642705545,-9.375748530820012,-13.299763139562842,5,38.33,3.561528444290161,15.11,38.33,0,0,1,0,1,0
1767895000.6379466,20260108135640.637910,18.188923913486693,-64.95630956893501,0.22916384087234393,0.42346586865714525,-0.24809566560087434,0.2105743116100802,0.127330935725118,6.428790642705545,-9.375748530820012,-13.299763139562842,5,38.33,3.080693244934082,15.11,38.33,0,0,1,0,1,0
1767895000.7297795,20260108135640.729743,18.188924085966903,-64.95630978922041,0.23157643226282357,0.42346586865714525,-0.2511168300995351,0.20696216475665594,0.13810814622252549,6.485953370082367,-8.30921667189002,-14.128897961925016,5,38.33,3.080693244934082,15.11,38.33,0,0,1,0,1,0
1767895000.8586063,20260108135640.858570,18.188924682432525,-64.95631011044132,0.23157643226282357,0.42346586865714525,-0.3392634956563295,0.6631020136563058,0.13810814622252549,7.3556835029929735,-5.67134331036955,-15.634905173267027,5,39.22,3.080693244934082,15.11,39.22,0,0,1,0,1,0
1767895000.942163,20260108135640.942126,18.188925359001438,-64.95631047480109,0.23313628553010685,0.42346586865714525,-0.3392634956563295,0.6631020136563058,0.05828170400312147,7.3556835029929735,-5.67134331036955,-15.634905173267027,5,39.22,3.080693244934082,15.33,39.22,0,0,1,0,1,0
1767895001.0336952,20260108135641.033659,18.188925872677203,-64.95631075732751,0.23313628553010685,0.42346586865714525,-0.344951635050741,0.6601608663619953,0.05828170400312147,7.424157027679669,-4.22201080120951,-16.127482263915216,5,39.22,3.080693244934082,15.33,39.22,0,0,1,0,1,0
1767895001.1415253,20260108135641.141489,18.188926514437604,-64.95631111921769,0.23611629181428848,0.42346586865714525,-0.35174059278058367,0.656568774303472,0.04051911007557082,5.694274824933693,-1.1424874316409228,-16.718302589557307,5,39.22,1.7168351411819458,15.33,39.22,0,0,1,0,1,0
1767895001.2708523,20260108135641.270816,18.188927140389765,-64.95631147219355,0.23611629181428848,0.42346586865714525,-0.35174059278058367,0.656568774303472,0.04051911007557082,5.694274824933693,-1.1424874316409228,-16.718302589557307,5,39.22,1.6426973342895508,15.33,39.22,0,0,1,0,1,0
1767895001.4142442,20260108135641.414207,18.18892776140436,-64.9563118282512,0.2238215657988145,0.42346586865714525,-0.3562930687283635,0.6541095085504609,0.009331405406297002,4.693991982659683,0.6489901327555995,-17.116320479812472,5,39.22,1.8360098600387573,15.33,39.22,0,0,1,0,1,0
1767895001.4589548,20260108135641.458918,18.1889283971682,-64.95631229311358,0.2238215657988145,0.42346586865714525,-0.4500673651173788,0.6479038253138347,0.009331405406297002,3.921639464677857,2.4651657767437403,-17.68311163668834,5,38.77,1.7304296493530273,15.33,38.77,0,0,1,0,1,0
1767895001.528933,20260108135641.528896,18.188928805430802,-64.95631259846421,0.21536675388351292,0.42346586865714525,-0.4569401772332722,0.6430751701240112,-0.033603103247924995,3.2613770078010713,4.026233603931962,-18.29315959204935,5,38.77,1.7304296493530273,15.33,38.77,0,0,1,0,1,0
1767895001.6461303,20260108135641.646094,18.188929400034702,-64.95631306209569,0.21536675388351292,0.42346586865714525,-0.46957834559461736,0.633905495597429,-0.033603103247924995,2.454558275726424,5.840345302753152,-19.42722582431934,5,38.77,1.464834213256836,15.42,38.77,0,0,1,0,1,0
1767895001.7463489,20260108135641.746312,18.188929945712086,-64.9563134875776,0.16579221650117792,0.42346586865714525,-0.46957834559461736,0.633905495597429,-0.08358810661033322,2.454558275726424,5.840345302753152,-19.42722582431934,5,38.77,1.464834213256836,15.42,38.77,0,0,1,0,1,0
1767895001.8364534,20260108135641.836417,18.18893053785,-64.95631396296834,0.16579221650117792,0.42346586865714525,-0.4784228186049764,0.6272572093153412,-0.08358810661033322,2.258993027832345,5.393119297027587,-20.230837994875515,5,38.77,2.807246208190918,15.42,38.77,0,0,1,0,1,0
1767895001.9394886,20260108135641.939452,18.188931137734468,-64.9563144445783,0.14811418139123114,0.42346586865714525,-0.4784228186049764,0.6272572093153412,-0.10224010311210485,2.258993027832345,5.393119297027587,-20.230837994875515,5,38.77,0.7782185077667236,15.42,38.77,0,0,1,0,1,0
1767895002.0285263,20260108135642.028490,18.1889316482086,-64.95631464249972,0.14811418139123114,0.42346586865714525,-0.2357297165619941,0.6399660152926888,-0.10224010311210485,2.1317021618507654,4.565543399199843,-20.30515432159952,5,37.63,0.7782185077667236,15.42,37.63,0,0,1,0,1,0
1767895002.1592395,20260108135642.159203,18.188932253962818,-64.95631487564044,0.11804433779644133,0.42346586865714525,-0.23420516860371487,0.6405255178361792,-0.12535278488173884,0.9866764602519429,1.6722441367216396,-20.168722097918877,5,37.63,0.6849671006202698,15.47,37.63,0,0,1,0,1,0
1767895002.2388568,20260108135642.238820,18.18893285504009,-64.95631510698111,0.11804433779644133,0.42346586865714525,-0.23420516860371487,0.6405255178361792,-0.12535278488173884,0.9866764602519429,1.6722441367216396,-20.168722097918877,5,37.63,0.6215426325798035,15.47,37.63,0,0,1,0,1,0
1767895002.3472865,20260108135642.347250,18.188933464796023,-64.9563153411549,0.11130997224108995,0.42346586865714525,-0.23375860701966944,0.64068862456284,-0.11510386434338996,-0.07311333254586455,-0.8698473667463295,-20.128781698692343,5,37.63,0.6357886791229248,15.47,37.63,0,0,1,0,1,0
1767895002.4307764,20260108135642.430740,18.188933953396766,-64.95631552626749,0.11130997224108995,0.42346586865714525,-0.23096817091757094,0.6416998550903622,-0.11510386434338996,-1.4566329167761054,-3.8743630127727995,-19.879434454826047,5,37.63,0.6357886791229248,15.47,37.63,0,0,1,0,1,0
1767895002.5354028,20260108135642.535366,18.18893457039884,-64.95631574321372,0.11994930457253099,0.42346586865714525,-0.21608132221671691,0.6468646397733264,-0.05585644005481381,-3.704182385449127,-8.700007792532446,-18.555610985410727,5,37.63,0.5274119973182678,15.47,37.63,0,0,1,0,1,0
1767895002.6422696,20260108135642.642233,18.18893513088453,-64.95631584319146,0.11994930457253099,0.42346586865714525,-0.09894412354265472,0.5838656184571719,-0.05585644005481381,-3.704182385449127,-8.700007792532446,-18.555610985410727,5,37.79,0.8389918208122253,15.47,37.79,0,0,1,0,1,0
1767895002.7540295,20260108135642.753993,18.188935714822524,-64.95631593673798,0.13509722495647083,0.42346586865714525,-0.08910206360142532,0.5854483941919796,0.001401838895516927,-4.847170555512621,-9.768353067335488,-17.59112176228068,5,37.79,0.8717974424362183,15.06,37.79,0,0,1,0,1,0
1767895002.8516588,20260108135642.851622,18.18893622732824,-64.95631600862562,0.13509722495647083,0.42346586865714525,-0.0782226743507338,0.5870010334040469,0.001401838895516927,-6.218392566508068,-9.900252605107427,-16.527834244366503,5,37.79,0.5948457717895508,15.06,37.79,0,0,1,0,1,0
1767895002.9293418,20260108135642.929305,18.188936646352143,-64.95631605963554,0.12432536964732996,0.42346586865714525,-0.06803461150144717,0.5882688939913847,0.013511770730260173,-6.97301305329056,-9.271282457658646,-15.534498880901301,5,37.79,0.5948457717895508,15.06,37.79,0,0,1,0,1,0
1767895003.0697868,20260108135643.069750,18.188937193676058,-64.95631611703877,0.12432536964732996,0.42346586865714525,-0.05871458196257076,0.5892720915374837,0.013511770730260173,-5.689430938419714,-6.676563100518285,-14.627545484364918,5,37.79,0.6219517588615417,15.06,37.79,0,0,1,0,1,0
1767895003.1409721,20260108135643.140935,18.18893776548628,-64.95631617701011,0.15683274665669017,0.42346586865714525,-0.05871458196257076,0.5892720915374837,0.046437982249076054,-5.689430938419714,-6.676563100518285,-14.627545484364918,5,37.79,0.9358810186386108,15.06,37.79,0,0,1,0,1,0
1767895003.2497666,20260108135643.249730,18.188938342078597,-64.95631623976762,0.15683274665669017,0.42346586865714525,-0.06090972908063445,0.5890492380975666,0.046437982249076054,-3.7971485503703497,-5.340259590366483,-14.841023016483861,5,37.79,1.6573872566223145,15.06,37.79,0,0,1,0,1,0
1767895003.342051,20260108135643.342014,18.188938940942307,-64.95631657154321,0.11603229124676859,0.42346586865714525,-0.4382453047917083,0.8326500182117471,0.019841691428241062,-1.3772557382326711,-4.1584699555277815,-15.362287658955644,5,37.96,1.6573872566223145,15.31,37.96,0,0,1,0,1,0
1767895003.4524922,20260108135643.452456,18.18893973914034,-64.95631704844936,0.11603229124676859,0.42346586865714525,-0.4644871860467076,0.8183010778426308,0.019841691428241062,3.5350922409050027,-1.9037530545316645,-17.183568711091333,5,37.96,4.021829128265381,15.31,37.96,0,0,1,0,1,0
1767895003.5464325,20260108135643.546396,18.188940532489617,-64.9563175224585,0.14521464287171776,0.42346586865714525,-0.4644871860467076,0.8183010778426308,0.009326575777053436,3.5350922409050027,-1.9037530545316645,-17.183568711091333,5,37.96,1.1546028852462769,15.31,37.96,0,0,1,0,1,0
1767895003.640872,20260108135643.640835,18.18894121806274,-64.95631795361709,0.14521464287171776,0.42346586865714525,-0.4826097974007778,0.8077454942324224,0.009326575777053436,4.7495679711475844,-0.913836628855393,-18.46066193048707,5,37.96,0.43896183371543884,15.31,37.96,0,0,1,0,1,0
1767895003.7288945,20260108135643.728858,18.18894185747698,-64.95631837858694,0.13621464287171742,0.42346586865714525,-0.5023606284130739,0.7956122164851552,-0.011520591630875321,4.956592786462591,-0.07084386798050346,-19.872177803124988,5,37.96,0.43896183371543884,15.31,37.96,0,0,1,0,1,0
1767895003.8399768,20260108135643.839940,18.188942624744186,-64.9563189416131,0.13621464287171742,0.42346586865714525,-0.5381103395721456,0.7718822853554486,-0.011520591630875321,2.469018004813032,-0.10132333124578119,-22.48520548888198,5,37.96,0.8542584180831909,15.31,37.96,0,0,1,0,1,0
1767895003.949586,20260108135643.949549,18.188943367523983,-64.95631994856143,0.10138237366963287,0.42346586865714525,-0.9728426687798162,0.7553655683186551,-0.03600861104892421,2.469018004813032,-0.10132333124578119,-22.48520548888198,5,37.82,0.7226541042327881,15.31,37.82,0,0,1,0,1,0
1767895004.0662522,20260108135644.066216,18.18894410571608,-64.9563209780506,0.10138237366963287,0.42346586865714525,-0.9830813879429245,0.741991229517043,-0.03600861104892421,0.48330393159537094,-1.1151623963221915,-23.26875482535114,5,37.82,0.6936237215995789,15.31,37.82,0,0,1,0,1,0
1767895004.1713095,20260108135644.171273,18.188944846515668,-64.95632202561264,0.11067947269288239,0.42346586865714525,-0.9880009799895716,0.7354278098764325,-0.0320327569591605,-1.309863304812103,-1.927053826329858,-23.650326894864953,5,37.82,0.6137381792068481,15.31,37.82,0,0,1,0,1,0
1767895004.2742026,20260108135644.274166,18.188945524080115,-64.95632298668085,0.11067947269288239,0.42346586865714525,-0.9890738049608454,0.7339843379393567,-0.0320327569591605,-2.135710203666254,-2.2463644304282973,-23.733990765697264,5,37.82,1.0742430686950684,15.31,37.82,0,0,1,0,1,0
1767895004.3290212,20260108135644.328985,18.188945888079683,-64.95632349863698,0.12842603116256854,0.42346586865714525,-0.9860924479574652,0.7379848806589833,-0.03606677437932712,-1.7709132981956146,-2.4758486233122663,-23.501894878295587,5,37.82,1.0742430686950684,15.31,37.82,0,0,1,0,1,0
1767895004.436194,20260108135644.436157,18.188946561186214,-64.95632442445566,0.12842603116256854,0.42346586865714525,-0.9781127965113245,0.7485287952382302,-0.03606677437932712,-0.6152389009863273,-3.0867253797367233,-22.88676952924483,5,37.82,1.0742430686950684,15.31,37.82,0,0,1,0,1,0
1767895004.5350842,20260108135644.535048,18.18894734009096,-64.95632490637166,0.12249372639200323,0.42346586865714525,-0.48127186770252717,0.8187761533887764,-0.033416741834959844,0.6024671897236109,-4.907944319817423,-20.686915503518733,5,37.17,0.9880309104919434,15.25,37.17,0,0,1,0,1,0
1767895004.6624353,20260108135644.662399,18.18894814074173,-64.95632540174218,0.12249372639200323,0.42346586865714525,-0.48127186770252717,0.8187761533887764,-0.033416741834959844,0.6024671897236109,-4.907944319817423,-20.686915503518733,5,37.17,4.2029194831848145,15.25,37.17,0,0,1,0,1,0
1767895004.760324,20260108135644.760287,18.18894895241594,-64.95632587665206,0.1401103668195574,0.42346586865714525,-0.4614322870426129,0.8301188134686647,0.06569140354988973,-0.1869535768906727,-5.21361033550948,-19.308210590725096,5,37.17,3.2343106269836426,15.25,37.17,0,0,1,0,1,0
1767895004.8523738,20260108135644.852337,18.18894971813196,-64.95632629854715,0.1401103668195574,0.42346586865714525,-0.44045111532862663,0.8414391332745162,0.06569140354988973,-1.492405618458255,-4.787150673606992,-17.86994768773362,5,37.17,2.456206798553467,15.25,37.17,0,0,1,0,1,0
1767895004.9328687,20260108135644.932832,18.188948,-64.95633483333333,0.13322337138705348,0.42346586865714525,-0.4570296200447632,0.7660662063814204,0.04691884497962065,-2.659496467503918,-3.6920148259788745,-16.388896835943747,1,37.17,2.456206798553467,15.25,37.17,0,0,1,0,1,0
1767895005.0405707,20260108135645.040534,18.188948,-64.95633483333333,0.13322337138705348,0.42346586865714525,-0.4570296200447632,0.7660662063814204,0.04691884497962065,-3.2635376962289353,-2.1756866748422383,-14.892535682768091,1,37.17,2.64786434173584,15.25,37.17,0,0,1,0,1,0
1767895005.130302,20260108135645.130265,18.188948,-64.95633483333333,0.12266277599325909,0.42346586865714525,-0.4570296200447632,0.7660662063814204,0.025727557388943688,-3.4805589238554364,-0.6176829890051855,-13.677279496412055,1,37.23,2.64786434173584,15.25,37.23,0,0,1,0,1,0
1767895005.2299836,20260108135645.229947,18.188948,-64.95633483333333,0.12266277599325909,0.42346586865714525,-0.4570296200447632,0.7660662063814204,0.025727557388943688,-4.500230972568704,1.0512305221706633,-12.898687491670687,1,37.23,2.64786434173584,15.31,37.23,0,0,1,0,1,0
1767895005.3297944,20260108135645.329758,18.188948,-64.95633483333333,0.0922550793006219,0.42346586865714525,-0.4570296200447632,0.7660662063814204,-0.02176794003929502,-4.500230972568704,1.0512305221706633,-12.898687491670687,1,37.23,2.64786434173584,15.31,37.23,0,0,1,0,1,0
1767895005.4313686,20260108135645.431332,18.188951999999997,-64.95633466666666,0.0922550793006219,0.42346586865714525,-0.26010879287930583,0.724860756753387,-0.02176794003929502,-5.674620094795538,-0.5022929848557333,-13.594346936330101,1,37.23,0.7725998759269714,15.31,37.23,0,0,1,0,1,0
1767895005.5405343,20260108135645.540498,18.188951999999997,-64.95633466666666,0.06535845735247206,0.42346586865714525,-0.26010879287930583,0.724860756753387,-0.08356188570340158,-5.674620094795538,-0.5022929848557333,-13.594346936330101,1,37.23,0.7540050745010376,15.31,37.23,0,0,1,0,1,0
1767895005.6459746,20260108135645.645938,18.188951999999997,-64.95633466666666,0.06535845735247206,0.42346586865714525,-0.26010879287930583,0.724860756753387,-0.08356188570340158,-5.803078069768858,-2.2112544707760207,-13.520434924933017,1,37.23,0.8406813144683838,15.31,37.23,0,0,1,0,1,0
1767895005.7411978,20260108135645.741161,18.188951999999997,-64.95633466666666,0.11225766459897578,0.42346586865714525,-0.26010879287930583,0.724860756753387,0.020699204292646357,-5.995213494256152,-3.703723055063188,-13.065742505918731,1,37.6,0.8406813144683838,15.33,37.6,0,0,1,0,1,0
1767895005.8510687,20260108135645.851032,18.188951999999997,-64.95633466666666,0.11225766459897578,0.42346586865714525,-0.26010879287930583,0.724860756753387,0.020699204292646357,-7.875157141158001,-5.666949362728,-12.299503276234221,1,37.6,0.9746503829956055,15.33,37.6,0,0,1,0,1,0
1767895005.9561682,20260108135645.956131,18.188955500000002,-64.956334,0.07461245594274413,0.42346586865714525,-0.09263644077242411,0.6311434419784279,-0.012066757960738994,-7.875157141158001,-5.666949362728,-12.299503276234221,1,37.6,0.6755219101905823,15.33,37.6,0,0,1,0,1,0
1767895006.0540733,20260108135646.054037,18.188955500000002,-64.956334,0.07461245594274413,0.42346586865714525,-0.09263644077242411,0.6311434419784279,-0.012066757960738994,-11.02987067508997,-6.864298600946366,-11.985034744380144,1,37.6,0.8421428203582764,15.33,37.6,0,0,1,0,1,0
1767895006.1471074,20260108135646.147071,18.188955500000002,-64.956334,0.09207011601257029,0.42346586865714525,-0.09263644077242411,0.6311434419784279,0.0584013777772605,-14.912331733793035,-8.638925388944152,-11.370313657295446,1,37.6,0.8421428203582764,15.33,37.6,0,0,1,0,1,0
1767895006.2344182,20260108135646.234381,18.188955500000002,-64.956334,0.09207011601257029,0.42346586865714525,-0.09263644077242411,0.6311434419784279,0.0584013777772605,-19.74536507332922,-12.19847633256912,-8.688095917062922,1,37.6,0.9874640107154846,15.33,37.6,0,0,1,0,1,0
1767895006.3397074,20260108135646.339671,18.188955500000002,-64.956334,0.12074351968211547,0.42346586865714525,-0.09263644077242411,0.6311434419784279,0.11996889994521652,-19.74536507332922,-12.19847633256912,-8.688095917062922,1,37.6,2.1534056663513184,15.22,37.6,0,0,1,0,1,0
1767895006.44135,20260108135646.441313,18.188959,-64.95633533333333,0.12074351968211547,0.42346586865714525,-0.320350059932567,0.6662333041670007,0.11996889994521652,-19.65979301771523,-12.633819939324258,-6.665913529836103,1,37.76,2.1534056663513184,15.22,37.76,0,0,1,0,1,0
1767895006.539307,20260108135646.539270,18.188959,-64.95633533333333,0.14411806551946305,0.42346586865714525,-0.320350059932567,0.6662333041670007,0.11848776002571285,-18.401275571626442,-11.769907422119381,-4.849394188471613,1,37.76,2.1534056663513184,15.22,37.76,0,0,1,0,1,0
1767895006.629973,20260108135646.629936,18.188959,-64.95633533333333,0.14411806551946305,0.42346586865714525,-0.320350059932567,0.6662333041670007,0.11848776002571285,-13.489594283223168,-7.322741488847137,-3.4252787467439743,1,37.76,2.1534056663513184,15.22,37.76,0,0,1,0,1,0
1767895006.7370625,20260108135646.737026,18.188959,-64.95633533333333,0.10691773789374703,0.42346586865714525,-0.320350059932567,0.6662333041670007,0.0563234746734324,-13.489594283223168,-7.322741488847137,-3.4252787467439743,1,37.76,3.0526654720306396,15.22,37.76,0,0,1,0,1,0
1767895006.8288965,20260108135646.828860,18.188959,-64.95633533333333,0.10691773789374703,0.42346586865714525,-0.320350059932567,0.6662333041670007,0.0563234746734324,-11.559950747054831,-4.658594514629243,-4.005401925103853,1,37.76,2.038806915283203,15.22,37.76,0,0,1,0,1,0
1767895006.9290352,20260108135646.928999,18.188961833333334,-64.95633766666667,0.10691773789374703,0.42346586865714525,-0.4600091649187562,0.6182749318088215,0.04505877973874592,-10.600654603984964,-2.4423358612798154,-5.254640555887386,1,37.76,2.038806915283203,15.42,37.76,0,0,1,0,1,0
1767895007.0445535,20260108135647.044517,18.188961833333334,-64.95633766666667,0.10691773789374703,0.42346586865714525,-0.4600091649187562,0.6182749318088215,0.04505877973874592,-10.563147460520284,-1.4208027987956986,-6.985989969169065,1,42.45,2.8518612384796143,15.42,42.45,0,0,1,0,1,0
1767895007.1497452,20260108135647.149709,18.188961833333334,-64.95633766666667,0.0785067629782597,0.42346586865714525,-0.4600091649187562,0.6182749318088215,0.00176377415800818,-10.954184468060747,-2.06711821784377,-8.768906475349246,1,42.45,1.5016390085220337,15.42,42.45,0,0,1,0,1,0
1767895007.2307558,20260108135647.230719,18.188961833333334,-64.95633766666667,0.0785067629782597,0.42346586865714525,-0.4600091649187562,0.6182749318088215,0.00176377415800818,-11.213076050931228,-3.9669313190326077,-9.971106857160196,1,42.45,1.5016390085220337,15.42,42.45,0,0,1,0,1,0
1767895007.3409278,20260108135647.340891,18.188961833333334,-64.95633766666667,0.08002909530188776,0.42346586865714525,-0.4600091649187562,0.6182749318088215,-0.06434932269928856,-10.676901740500343,-7.213770050543545,-10.259471997498437,1,42.45,0.8059091567993164,15.42,42.45,0,0,1,0,1,0
1767895007.449633,20260108135647.449596,18.188965166666666,-64.95633849999999,0.08002909530188776,0.42346586865714525,-0.3161438247063288,0.639668420714836,-0.06434932269928856,-10.676901740500343,-7.213770050543545,-10.259474811157574,1,42.45,0.7630516886711121,15.42,42.45,0,0,1,0,1,0
1767895007.5714743,20260108135647.571438,18.188965166666666,-64.95633849999999,0.12047592428989301,0.42346586865714525,-0.3161438247063288,0.639668420714836,0.06108889294070548,-10.519353125676528,-7.5791861555725335,-9.946485976283254,1,42.45,1.348161220550537,15.31,42.45,0,0,1,0,1,0
1767895007.6678498,20260108135647.667813,18.188965166666666,-64.95633849999999,0.12047592428989301,0.42346586865714525,-0.3161438247063288,0.639668420714836,0.06108889294070548,-10.746876199793826,-7.191897215679286,-9.530338623054302,1,38.75,1.3106560707092285,15.31,38.75,0,0,1,0,1,0
1767895007.8086646,20260108135647.808628,18.188965166666666,-64.95633849999999,0.1049966122421366,0.42346586865714525,-0.3161438247063288,0.639668420714836,0.03468496442169593,-12.069394248837247,-6.390688418796657,-9.057794377683106,1,38.75,2.6291563510894775,15.31,38.75,0,0,1,0,1,0
1767895007.864647,20260108135647.864610,18.188965166666666,-64.95633849999999,0.1049966122421366,0.42346586865714525,-0.3161438247063288,0.639668420714836,0.03468496442169593,-14.027712636941688,-5.390363741599022,-8.501987535236779,1,38.75,2.6291563510894775,15.31,38.75,0,0,1,0,1,0
1767895007.9416156,20260108135647.941579,18.188968,-64.95633766666667,0.09667750859069746,0.42346586865714525,-0.1471659175483437,0.5538681607528092,0.06474462839274445,-16.032653912991297,-4.092384009696544,-7.8701623676940695,1,38.75,2.6291563510894775,15.31,38.75,0,0,1,0,1,0
1767895008.0398874,20260108135648.039851,18.188968,-64.95633766666667,0.09667750859069746,0.42346586865714525,-0.1471659175483437,0.5538681607528092,0.06474462839274445,-17.666101067250985,-2.6247980268962667,-7.188181395594753,1,38.75,2.6291563510894775,15.31,38.75,0,0,1,0,1,0
1767895008.1291678,20260108135648.129131,18.188968,-64.95633766666667,0.11130555159329947,0.42346586865714525,-0.1471659175483437,0.5538681607528092,0.08085934693888917,-19.078390032202023,-1.2788327838219697,-6.6780032213270815,1,38.75,2.6291563510894775,15.28,38.75,0,0,1,0,1,0
1767895008.228684,20260108135648.228647,18.188968,-64.95633766666667,0.11130555159329947,0.42346586865714525,-0.1471659175483437,0.5538681607528092,0.08085934693888917,-21.423257991957684,-0.5381754498515274,-6.876533412711337,1,38.86,2.6291563510894775,15.28,38.86,0,0,1,0,1,0
1767895008.3386095,20260108135648.338573,18.188968,-64.95633766666667,0.0676831150927239,0.42346586865714525,-0.1471659175483437,0.5538681607528092,0.018634610429004335,-21.423257991957684,-0.5381754498515274,-6.876533412711337,1,38.86,2.6291563510894775,15.28,38.86,0,0,1,0,1,0
1767895008.4322016,20260108135648.432165,18.1889705,-64.95633733333334,0.0676831150927239,0.42346586865714525,-0.08865887135382043,0.5203160032448169,0.018634610429004335,-22.256006906157744,-1.2863007445760075,-7.413018069973565,1,38.86,2.6291563510894775,15.28,38.86,0,0,1,0,1,0
1767895008.5335782,20260108135648.533541,18.1889705,-64.95633733333334,0.09473734471283851,0.42346586865714525,-0.08865887135382043,0.5203160032448169,-0.030585741403116096,-19.51777455106975,-3.5675941345788544,-8.338994403924064,1,38.86,2.6291563510894775,15.28,38.86,0,0,1,0,1,0
1767895008.650427,20260108135648.650390,18.1889705,-64.95633733333334,0.09473734471283851,0.42346586865714525,-0.08865887135382043,0.5203160032448169,-0.030585741403116096,-19.51777455106975,-3.5675941345788544,-8.338994403924064,1,38.86,0.744552493095398,15.28,38.86,0,0,1,0,1,0
1767895008.7547402,20260108135648.754704,18.1889705,-64.95633733333334,0.06711174687906862,0.42346586865714525,-0.08865887135382043,0.5203160032448169,-0.07481429262671443,-16.406951828438064,-4.898297527939085,-8.361191672889891,1,38.86,0.6926316022872925,15.31,38.86,0,0,1,0,1,0
1767895008.8349187,20260108135648.834882,18.1889705,-64.95633733333334,0.06711174687906862,0.42346586865714525,-0.08865887135382043,0.5203160032448169,-0.07481429262671443,-13.578735113954558,-5.950080014969409,-7.953061683952798,1,38.86,0.5716511011123657,15.31,38.86,0,0,1,0,1,0
1767895008.929333,20260108135648.929296,18.18897283333333,-64.956339,0.08582820377989236,0.42346586865714525,-0.4536739643357903,0.5901723254238127,-0.07376898840124824,-11.52390014195146,-6.06331221217811,-7.271225853425267,1,38.86,0.5716511011123657,15.31,38.86,0,0,1,0,1,0
1767895009.0462725,20260108135649.046236,18.18897283333333,-64.956339,0.08582820377989236,0.42346586865714525,-0.4536739643357903,0.5901723254238127,-0.07376898840124824,-9.750352951115383,-4.977362118494509,-6.545829622116687,1,38.86,0.6221656799316406,15.31,38.86,0,0,1,0,1,0
1767895009.1323252,20260108135649.132288,18.18897283333333,-64.956339,0.10515999785585556,0.42346586865714525,-0.4536739643357903,0.5901723254238127,-0.03967949325110866,-8.35679834798278,-2.9346123167753215,-5.895953111916783,1,38.86,0.6221656799316406,15.31,38.86,0,0,1,0,1,0
1767895009.2337675,20260108135649.233731,18.18897283333333,-64.956339,0.10515999785585556,0.42346586865714525,-0.4536739643357903,0.5901723254238127,-0.03967949325110866,-8.358858504527824,0.5363581386348254,-4.5490051750242735,1,38.86,0.39978981018066406,15.31,38.86,0,0,1,0,1,0
1767895009.3465474,20260108135649.346511,18.18897283333333,-64.956339,0.026935578754141355,0.42346586865714525,-0.4536739643357903,0.5901723254238127,-0.08281660466007507,-8.358858504527824,0.5363581386348254,-4.5490051750242735,1,38.86,0.39978981018066406,15.42,38.86,0,0,1,0,1,0
1767895009.4300063,20260108135649.429970,18.18897516666667,-64.9563405,0.026935578754141355,0.42346586865714525,-0.44577250916757855,0.525822917996735,-0.08281660466007507,-9.830085192900906,0.8041390024451549,-3.5205840777426856,1,38.86,0.41068795323371887,15.42,38.86,0,0,1,0,1,0
1767895009.5296583,20260108135649.529622,18.18897516666667,-64.9563405,0.039935578754141256,0.42346586865714525,-0.44577250916757855,0.525822917996735,-0.04259306284570217,-11.725622167253505,0.1539853358762343,-2.2533427694171566,1,38.86,0.41068795323371887,15.42,38.86,0,0,1,0,1,0
1767895009.6307752,20260108135649.630739,18.18897516666667,-64.9563405,0.039935578754141256,0.42346586865714525,-0.44577250916757855,0.525822917996735,-0.04259306284570217,-15.471282171928895,-2.8856059054009586,0.7084998137682652,1,38.86,0.9311046600341797,15.42,38.86,0,0,1,0,1,0
1767895009.745466,20260108135649.745429,18.18897516666667,-64.9563405,0.05401307572083538,0.42346586865714525,-0.44577250916757855,0.525822917996735,-0.0031813104158409967,-15.471282171928895,-2.8856059054009586,0.7084998137682652,1,38.86,0.9311046600341797,15.42,38.86,0,0,1,0,1,0
1767895009.8585408,20260108135649.858504,18.18897516666667,-64.9563405,0.05401307572083538,0.42346586865714525,-0.44577250916757855,0.525822917996735,-0.0031813104158409967,-16.62343816668393,-4.11982857336849,2.632115705838797,1,38.86,0.4808008670806885,15.42,38.86,0,0,1,0,1,0
1767895009.9313767,20260108135649.931340,18.18897816666667,-64.95634166666667,0.062408930110748495,0.42346586865714525,-0.378368094718135,0.5762295167027878,-0.0076520105989634594,-16.939988519597065,-4.318877005541323,4.690781561562442,1,38.86,0.4808008670806885,15.42,38.86,0,0,1,0,1,0
1767895010.0413485,20260108135650.041312,18.18897816666667,-64.95634166666667,0.062408930110748495,0.42346586865714525,-0.378368094718135,0.5762295167027878,-0.0076520105989634594,-16.439791389709725,-1.8885123357228943,8.28941656914055,1,38.86,2.7604711055755615,15.2,38.86,0,0,1,0,1,0
1767895010.1723423,20260108135650.172306,18.18897816666667,-64.95634166666667,0.059739716147383916,0.42346586865714525,-0.378368094718135,0.5762295167027878,0.05744573392640778,-16.439791389709725,-1.8885123357228943,8.28941656914055,1,38.86,2.7604711055755615,15.2,38.86,0,0,1,0,1,0
1767895010.2554824,20260108135650.255446,18.18897816666667,-64.95634166666667,0.059739716147383916,0.42346586865714525,-0.378368094718135,0.5762295167027878,0.05744573392640778,-16.636270389175426,0.015569101614880163,9.500180730572353,1,38.86,2.7604711055755615,15.2,38.86,0,0,1,0,1,0
1767895010.3360033,20260108135650.335967,18.18897816666667,-64.95634166666667,0.051939813582836794,0.42346586865714525,-0.378368094718135,0.5762295167027878,0.038347063742118125,-17.016266391974693,1.801387905621531,10.364466346994078,1,38.86,2.7604711055755615,15.2,38.86,0,0,1,0,1,0
1767895010.4724672,20260108135650.472431,18.18897816666667,-64.95634166666667,0.051939813582836794,0.42346586865714525,-0.378368094718135,0.5762295167027878,0.038347063742118125,-17.688200152212396,3.254725254944715,12.269321410253628,1,38.86,1.099679708480835,15.2,38.86,0,0,1,0,1,0
1767895010.540694,20260108135650.540657,18.188981000000002,-64.95634199999999,0.03509849158924189,0.42346586865714525,-0.2421115318037781,0.5091974421382788,-0.015405054723555333,-17.688200152212396,3.254725254944715,12.269319905380817,1,38.86,1.0450077056884766,15.22,38.86,0,0,1,0,1,0
1767895010.6489909,20260108135650.648954,18.188981000000002,-64.95634199999999,0.03509849158924189,0.42346586865714525,-0.2421115318037781,0.5091974421382788,-0.015405054723555333,-18.402615996730347,2.5701865895301155,13.477502254383191,1,38.86,0.630533754825592,15.22,38.86,0,0,1,0,1,0
1767895010.765896,20260108135650.765859,18.188981000000002,-64.95634199999999,0.0328255784625663,0.42346586865714525,-0.2421115318037781,0.5091974421382788,-0.01443427603082661,-19.177827376788873,1.313577541666479,14.701694572524652,1,38.86,0.9553627967834473,15.22,38.86,0,0,1,0,1,0
1767895010.8284547,20260108135650.828418,18.188981000000002,-64.95634199999999,0.0328255784625663,0.42346586865714525,-0.2421115318037781,0.5091974421382788,-0.01443427603082661,-19.72686037670375,0.016451050106808973,15.864881326733443,1,39.65,0.9553627967834473,15.22,39.65,0,0,1,0,1,0
1767895010.9296126,20260108135650.929576,18.188983166666667,-64.95634266666666,0.06012452244210472,0.42346586865714525,-0.1968420319150531,0.41850018854426674,-0.009478726171196931,-20.27382553610803,-2.3848990724645533,17.84186321341836,1,39.65,0.6186689138412476,15.22,39.65,0,0,1,0,1,0
1767895011.0370631,20260108135651.037026,18.188983166666667,-64.95634266666666,0.06012452244210472,0.42346586865714525,-0.1968420319150531,0.41850018854426674,-0.009478726171196931,-20.27382553610803,-2.3848990724645533,17.84186321341836,1,39.65,0.6318081021308899,15.22,39.65,0,0,1,0,1,0
1767895011.129617,20260108135651.129580,18.188983166666667,-64.95634266666666,0.06376196904169619,0.42346586865714525,-0.1968420319150531,0.41850018854426674,-0.00082092748414061,-20.59346484317781,-3.7817323810145242,18.746436715064856,1,39.65,0.6318081021308899,15.22,39.65,0,0,1,0,1,0
1767895011.2291355,20260108135651.229099,18.188983166666667,-64.95634266666666,0.06376196904169619,0.42346586865714525,-0.1968420319150531,0.41850018854426674,-0.00082092748414061,-20.723912965232152,-5.871407306657729,20.23726263826929,1,39.65,0.6734654903411865,15.22,39.65,0,0,1,0,1,0
1767895011.3316848,20260108135651.331648,18.188983166666667,-64.95634266666666,0.09183013470912713,0.42346586865714525,-0.1968420319150531,0.41850018854426674,0.055005518322999845,-20.723912965232152,-5.871407306657729,20.23726263826929,1,39.65,2.179366111755371,15.22,39.65,0,0,1,0,1,0
1767895011.429057,20260108135651.429020,18.1889855,-64.95634266666666,0.09183013470912713,0.42346586865714525,-0.12040480709295963,0.5286822775196506,0.055005518322999845,-19.8719865805328,-5.883900154003499,21.067871994946817,1,39.65,2.179366111755371,15.22,39.65,0,0,1,0,1,0
1767895011.5290823,20260108135651.529046,18.1889855,-64.95634266666666,0.07007019121341793,0.42346586865714525,-0.12040480709295963,0.5286822775196506,0.0313472778474147,-18.354685127091425,-5.398060086885092,21.99687367689453,1,40.43,0.41994521021842957,15.22,40.43,0,0,1,0,1,0
1767895011.6291473,20260108135651.629111,18.1889855,-64.95634266666666,0.07007019121341793,0.42346586865714525,-0.12040480709295963,0.5286822775196506,0.0313472778474147,-16.387733376789107,-5.030624806460733,23.162288781116846,1,40.43,0.41994521021842957,15.22,40.43,0,0,1,0,1,0
1767895011.7335734,20260108135651.733537,18.1889855,-64.95634266666666,0.07774563429199337,0.42346586865714525,-0.12040480709295963,0.5286822775196506,0.015772771432038972,-12.532457334476724,-4.655560628892477,26.20525525762878,1,40.43,0.6556747555732727,15.33,40.43,0,0,1,0,1,0
1767895011.8502934,20260108135651.850257,18.1889855,-64.95634266666666,0.07774563429199337,0.42346586865714525,-0.12040480709295963,0.5286822775196506,0.015772771432038972,-12.532457334476724,-4.655560628892477,26.20525525762878,1,40.43,0.6556747555732727,15.33,40.43,0,0,1,0,1,0
1767895011.9365847,20260108135651.936548,18.1889885,-64.9563415,0.07565475530186433,0.42346586865714525,0.08023085623894721,0.6395807672966626,0.004773819830988646,-11.778071208643926,-2.269359124264861,30.12907056522215,1,40.43,0.5380217432975769,15.33,40.43,0,0,1,0,1,0
1767895012.0771503,20260108135652.077114,18.1889885,-64.9563415,0.07565475530186433,0.42346586865714525,0.08023085623894721,0.6395807672966626,0.004773819830988646,-11.778071208643926,-2.269359124264861,30.12907056522215,1,40.43,0.7025271058082581,15.33,40.43,0,0,1,0,1,0
1767895012.1500413,20260108135652.150005,18.1889885,-64.9563415,0.020184302512098774,0.42346586865714525,0.08023085623894721,0.6395807672966626,-0.08486163003535538,-12.673553725254544,-1.2603073831781677,32.158750795291326,1,40.7,0.7170699834823608,15.33,40.7,0,0,1,0,1,0
1767895012.2456892,20260108135652.245652,18.1889885,-64.9563415,0.020184302512098774,0.42346586865714525,0.08023085623894721,0.6395807672966626,-0.08486163003535538,-14.560083384418498,-0.9039561163578133,34.00244149266326,1,40.7,0.4675818383693695,15.33,40.7,0,0,1,0,1,0
1767895012.3563962,20260108135652.356360,18.1889885,-64.9563415,0.06105989011446045,0.42346586865714525,0.08023085623894721,0.6395807672966626,0.01662044517056791,-17.022888262742768,-0.7334850991688606,35.36316251094185,1,40.7,2.6338906288146973,15.14,40.7,0,0,1,0,1,0
1767895012.434575,20260108135652.434538,18.188991833333333,-64.95633933333333,0.06105989011446045,0.42346586865714525,0.32503221271043575,0.8069147767998798,0.01662044517056791,-19.232086418956527,0.15108602625858594,36.14863796144569,1,40.7,2.6338906288146973,15.14,40.7,0,0,1,0,1,0
1767895012.5568979,20260108135652.556861,18.188991833333333,-64.95633933333333,0.050270886429811146,0.42346586865714525,0.32503221271043575,0.8069147767998798,0.028382286038168628,-20.874662124305978,1.7001121722735522,36.411330545948395,1,40.7,2.6338906288146973,15.14,40.7,0,0,1,0,1,0
1767895012.6445384,20260108135652.644502,18.188991833333333,-64.95633933333333,0.050270886429811146,0.42346586865714525,0.32503221271043575,0.8069147767998798,0.028382286038168628,-21.757700031799086,3.1266561740063175,36.57846874979579,1,40.7,3.388741970062256,15.14,40.7,0,0,1,0,1,0
1767895012.7313929,20260108135652.731356,18.188991833333333,-64.95633933333333,0.0611512504034222,0.42346586865714525,0.32503221271043575,0.8069147767998798,0.04287339470226255,-22.181351204288013,3.4418545758672106,36.76152471519553,1,38.27,3.388741970062256,15.14,38.27,0,0,1,0,1,0
1767895012.837136,20260108135652.837099,18.188991833333333,-64.95633933333333,0.0611512504034222,0.42346586865714525,0.32503221271043575,0.8069147767998798,0.04287339470226255,-23.946761075592054,0.7804772977089541,37.231704860494936,1,38.27,1.467989206314087,15.14,38.27,0,0,1,0,1,0
1767895012.9388094,20260108135652.938773,18.188994833333332,-64.9563375,0.07096655914284197,0.42346586865714525,0.3607329551012678,0.6868037511073867,0.12972542087439087,-23.946761075592054,0.7804772977089541,37.231704860494936,1,38.27,1.467989206314087,15.28,38.27,0,0,1,0,1,0
1767895013.0562608,20260108135653.056224,18.188994833333332,-64.9563375,0.07096655914284197,0.42346586865714525,0.3607329551012678,0.6868037511073867,0.12972542087439087,-23.97568181442619,-0.6496260342668673,37.502159957764974,1,38.27,1.467989206314087,15.28,38.27,0,0,1,0,1,0
1767895013.1399243,20260108135653.139888,18.188994833333332,-64.9563375,0.07694492664687465,0.42346586865714525,0.3607329551012678,0.6868037511073867,0.11607122507306075,-22.40151560071708,-1.9184258002191703,37.61447904373251,1,38.27,1.467989206314087,15.28,38.27,0,0,1,0,1,0
1767895013.2483914,20260108135653.248355,18.188994833333332,-64.9563375,0.07694492664687465,0.42346586865714525,0.3607329551012678,0.6868037511073867,0.11607122507306075,-15.857778809595114,-4.799835193204873,36.92720467313372,1,38.27,1.6367371082305908,15.28,38.27,0,0,1,0,1,0
1767895013.3386717,20260108135653.338635,18.188994833333332,-64.9563375,0.08122706446785043,0.42346586865714525,0.3607329551012678,0.6868037511073867,0.035969526918224755,-15.857778809595114,-4.799835193204873,36.92720467313372,1,38.27,1.7710548639297485,15.28,38.27,0,0,1,0,1,0
1767895013.429158,20260108135653.429121,18.188997166666663,-64.95633583333333,0.08122706446785043,0.42346586865714525,0.27552342405943525,0.46700011876767467,0.035969526918224755,-13.22588229262234,-6.012526322445268,35.68729397607363,1,41.08,0.8640075325965881,15.28,41.08,0,0,1,0,1,0
1767895013.5309017,20260108135653.530865,18.188997166666663,-64.95633583333333,0.10722706446785023,0.42346586865714525,0.27552342405943525,0.46700011876767467,0.06961543261601517,-11.594368082588925,-6.747524095612761,34.05112157536067,1,41.08,0.8640075325965881,15.28,41.08,0,0,1,0,1,0
1767895013.6445398,20260108135653.644503,18.188997166666663,-64.95633583333333,0.10722706446785023,0.42346586865714525,0.27552342405943525,0.46700011876767467,0.06961543261601517,-10.475294120907796,-7.153617406788465,32.31655343428174,1,41.08,0.7885950803756714,15.08,41.08,0,0,1,0,1,0
1767895013.7297075,20260108135653.729671,18.188997166666663,-64.95633583333333,0.10318207391484535,0.42346586865714525,0.27552342405943525,0.46700011876767467,0.04553906061884752,-9.852232942977562,-7.5038090147137595,30.685483186703106,1,41.08,0.7885950803756714,15.08,41.08,0,0,1,0,1,0
1767895013.900675,20260108135653.900638,18.188997166666663,-64.95633583333333,0.10318207391484535,0.42346586865714525,0.27552342405943525,0.46700011876767467,0.04553906061884752,-9.924345252245676,-7.826398110786079,28.15954855485477,1,41.08,0.6284928321838379,15.08,41.08,0,0,1,0,1,0
1767895013.9542553,20260108135653.954219,18.188998666666667,-64.95633366666667,0.10854126707824537,0.42346586865714525,0.3711829995826635,0.39100857011292073,0.044316110772238404,-9.924345252245676,-7.826398110786079,28.15954855485477,1,41.08,1.765006184577942,15.08,41.08,0,0,1,0,1,0
1767895014.0296392,20260108135654.029603,18.188998666666667,-64.95633366666667,0.10854126707824537,0.42346586865714525,0.3711829995826635,0.39100857011292073,0.044316110772238404,-10.230736548909556,-7.6042247842490625,27.1930764417223,1,39.57,1.765006184577942,15.08,39.57,0,0,1,0,1,0
1767895014.129182,20260108135654.129145,18.188998666666667,-64.95633366666667,0.09619515546717175,0.42346586865714525,0.3711829995826635,0.39100857011292073,0.023477637016421034,-8.888217137503634,-6.6755513783857205,26.97425076284922,1,39.57,1.765006184577942,15.39,39.57,0,0,1,0,1,0
1767895014.2402024,20260108135654.240166,18.188998666666667,-64.95633366666667,0.09619515546717175,0.42346586865714525,0.3711829995826635,0.39100857011292073,0.023477637016421034,-8.888217137503634,-6.6755513783857205,26.97425076284922,1,39.57,1.4720041751861572,15.39,39.57,0,0,1,0,1,0
1767895014.3466618,20260108135654.346625,18.188998666666667,-64.95633366666667,0.09893755903440302,0.42346586865714525,0.3711829995826635,0.39100857011292073,-0.0035637259365464977,-7.781282987639319,-5.059557925017174,27.40735662807741,1,39.57,3.6171302795410156,15.39,39.57,0,0,1,0,1,0
1767895014.473995,20260108135654.473958,18.189000833333335,-64.95633116666666,0.09893755903440302,0.42346586865714525,0.5394279349565849,0.5129726528780817,-0.0035637259365464977,-7.017322213827087,-2.7501736644610717,27.365723195104984,1,39.57,3.6171302795410156,15.39,39.57,0,0,1,0,1,0
1767895014.5315125,20260108135654.531476,18.189000833333335,-64.95633116666666,0.09188442332471569,0.42346586865714525,0.5394279349565849,0.5129726528780817,-0.006934340615124592,-7.035680061332896,-0.708436225204911,26.41960163788117,1,39.57,3.6171302795410156,15.39,39.57,0,0,1,0,1,0
1767895014.6403735,20260108135654.640337,18.189000833333335,-64.95633116666666,0.09188442332471569,0.42346586865714525,0.5394279349565849,0.5129726528780817,-0.006934340615124592,-7.638912766125809,0.2901701785543981,24.826988784175295,1,38.58,2.9393584728240967,15.39,38.58,0,0,1,0,1,0
1767895014.7600799,20260108135654.760043,18.189000833333335,-64.95633116666666,0.05371751631828661,0.42346586865714525,0.5394279349565849,0.5129726528780817,-0.06426783511746727,-7.94362981207074,-0.1687740880994082,23.527155509024045,1,38.58,1.3930953741073608,15.42,38.58,0,0,1,0,1,0
1767895014.845507,20260108135654.845470,18.189000833333335,-64.95633116666666,0.05371751631828661,0.42346586865714525,0.5394279349565849,0.5129726528780817,-0.06426783511746727,-7.781093449822082,-1.2793954208560252,23.058385798292537,1,38.58,0.6495493054389954,15.42,38.58,0,0,1,0,1,0
1767895014.9296887,20260108135654.929652,18.189003166666666,-64.95632933333333,0.06164748685076583,0.42346586865714525,0.41980925425217314,0.4616879994664716,-0.04367879291409883,-7.5644611162305,-2.1874593638598885,23.205637899260886,1,38.58,0.6495493054389954,15.42,38.58,0,0,1,0,1,0
1767895015.0425417,20260108135655.042505,18.189003166666666,-64.95632933333333,0.06164748685076583,0.42346586865714525,0.41980925425217314,0.4616879994664716,-0.04367879291409883,-8.68988544856311,-3.040521481358257,24.084994333475002,1,38.58,0.6456202864646912,15.42,38.58,0,0,1,0,1,0
1767895015.1504042,20260108135655.150368,18.189003166666666,-64.95632933333333,0.06983074569618475,0.42346586865714525,0.41980925425217314,0.4616879994664716,-0.04247405964043218,-8.68988544856311,-3.040521481358257,24.084994333475002,1,38.58,0.7994194626808167,15.42,38.58,0,0,1,0,1,0
1767895015.2581532,20260108135655.258117,18.189003166666666,-64.95632933333333,0.06983074569618475,0.42346586865714525,0.41980925425217314,0.4616879994664716,-0.04247405964043218,-9.247034423661244,-3.2223095924399763,24.803332415526278,1,37.61,1.101789116859436,15.42,37.61,0,0,1,0,1,0
1767895015.3292072,20260108135655.329170,18.189003166666666,-64.95632933333333,0.06483074569618397,0.42346586865714525,0.41980925425217314,0.4616879994664716,-0.04679707699116646,-8.45566451779605,-3.2411301854275125,25.978996222262754,1,37.61,1.101789116859436,15.36,37.61,0,0,1,0,1,0
1767895015.4418347,20260108135655.441798,18.1890055,-64.9563295,0.06483074569618397,0.42346586865714525,0.1143958183293862,0.47249479955486284,-0.04679707699116646,-4.403970093968525,-2.8297507328309086,29.510324814145925,1,37.61,1.0694284439086914,15.36,37.61,0,0,1,0,1,0
1767895015.5518918,20260108135655.551855,18.1890055,-64.9563295,0.08162229979147692,0.42346586865714525,0.1143958183293862,0.47249479955486284,0.017975687974025486,-4.403970093968525,-2.8297507328309086,29.510324814145925,1,37.61,0.9547926783561707,15.36,37.61,0,0,1,0,1,0
1767895015.6569154,20260108135655.656879,18.1890055,-64.9563295,0.08162229979147692,0.42346586865714525,0.1143958183293862,0.47249479955486284,0.017975687974025486,-3.084750387143355,-2.1300101953223294,31.38875045096198,1,37.61,0.8178966045379639,15.36,37.61,0,0,1,0,1,0
1767895015.7627318,20260108135655.762695,18.1890055,-64.9563295,0.06862229979147702,0.42346586865714525,0.1143958183293862,0.47249479955486284,-0.021816094557934252,-3.0712417622387536,-0.99748854685239,33.13290476596871,1,37.61,4.0300679206848145,15.36,37.61,0,0,1,0,1,0
1767895015.8318982,20260108135655.831862,18.1890055,-64.9563295,0.06862229979147702,0.42346586865714525,0.1143958183293862,0.47249479955486284,-0.021816094557934252,-4.474716791801165,0.3905749557500756,34.64013680942574,1,38.26,4.0300679206848145,15.36,38.26,0,0,1,0,1,0
1767895015.9292486,20260108135655.929212,18.189007666666665,-64.95633016666667,0.019181155431169543,0.42346586865714525,-0.0884419614029402,0.45499444771578745,-0.07343728473247643,-7.102521170224261,1.2677375644348625,35.89926214256801,1,38.26,4.0300679206848145,15.36,38.26,0,0,1,0,1,0
1767895016.0603316,20260108135656.060295,18.189007666666665,-64.95633016666667,0.019181155431169543,0.42346586865714525,-0.0884419614029402,0.45499444771578745,-0.07343728473247643,-10.299795762527,0.5383965239441074,37.18353965632239,1,38.26,2.369684934616089,15.25,38.26,0,0,1,0,1,0
1767895016.1439734,20260108135656.143937,18.189007666666665,-64.95633016666667,0.03991275571229673,0.42346586865714525,-0.0884419614029402,0.45499444771578745,-0.021844141103826053,-13.769200983479628,-1.7974216987296892,39.03402639434853,1,38.26,0.6741923689842224,15.25,38.26,0,0,1,0,1,0
1767895016.2398174,20260108135656.239781,18.189007666666665,-64.95633016666667,0.03991275571229673,0.42346586865714525,-0.0884419614029402,0.45499444771578745,-0.021844141103826053,-17.078627748942385,-4.343386721254879,41.54968841801206,1,38.26,0.6741923689842224,15.25,38.26,0,0,1,0,1,0
1767895016.3436394,20260108135656.343603,18.189007666666665,-64.95633016666667,0.07288823648719475,0.42346586865714525,-0.0884419614029402,0.45499444771578745,-0.0012075110971031464,-18.550486230039613,-3.498135781639065,46.857095640497576,1,38.26,0.7146145105361938,15.25,38.26,0,0,1,0,1,0
1767895016.4546194,20260108135656.454583,18.18901,-64.95632983333333,0.07288823648719475,0.42346586865714525,-0.013614600449664992,0.5199206151172903,-0.0012075110971031464,-18.550486230039613,-3.498135781639065,46.857098068566806,1,38.26,0.7146145105361938,15.25,38.26,0,0,1,0,1,0
