timestamp_ros,timestamp_sys (%Y%m%d%H%M%S.%f),latitude,longitude,depth,distance_to_ocean_floor,velX,velY,velZ,roll,pitch,yaw,navMode,acousticAltimeter,forwardStereo,battery_volts,altitudeUsed,cotsNumFound,cotsNumMaybe,missionState,errorState,storeData,storeImageData
1767631101.3283525,20260105123821.328298,18.189070250547495,-64.95873314756086,0.2884516514907529,0.35966465025191185,-0.00978664730477851,0.0564731930612381,-0.02852450417235338,-1.428418569165095,-36.486070799803706,123.0473924937038,5,47.89,2.377547025680542,16.76,47.89,0,0,1,0,1,0
1767631101.4266703,20260105123821.426616,18.18907030783662,-64.9587331580111,0.28496341611618803,0.35966465025191185,-0.00978664730477851,0.0564731930612381,-0.014222172702856849,-1.428418569165095,-36.486070799803706,123.0473924937038,5,47.89,1.8537312746047974,16.76,47.89,0,0,1,0,1,0
1767631101.5416183,20260105123821.541564,18.189070366404138,-64.95873316599545,0.28496341611618803,0.35966465025191185,-0.007361671099561949,0.056840177679365805,-0.014222172702856849,-1.4072195753920844,-34.60339678380489,125.49934932019993,5,47.89,2.5957999229431152,16.76,47.89,0,0,1,0,1,0
1767631101.6494489,20260105123821.649394,18.18907042327925,-64.95873317377014,0.29796341611618793,0.35966465025191185,-0.0073813342542857485,0.056837627542205775,0.034706310848243264,-1.5820671445783265,-28.976230725896365,125.47952810414122,5,47.89,2.5957999229431152,16.67,47.89,0,0,1,0,1,0
1767631101.764279,20260105123821.764224,18.18907048130182,-64.95873318170169,0.2300132540159123,0.35966465025191185,-0.0073813342542857485,0.056837627542205775,-0.037412039896318215,-1.5820671445783265,-28.976230725896365,125.47952810414122,5,47.89,2.7062275409698486,16.67,47.89,0,0,1,0,1,0
1767631101.876498,20260105123821.876444,18.189070607613015,-64.95873311974076,0.2300132540159123,0.35966465025191185,0.05819478063448237,0.12487340592337698,-0.037412039896318215,-2.5284421659439777,-24.687918827819818,124.1758221103458,5,50.97,2.7062275409698486,16.67,50.97,0,0,1,0,1,0
1767631101.9958932,20260105123821.995839,18.18907073925394,-64.95873306058118,0.2043014968881017,0.35966465025191185,0.054095318245171956,0.12670318284855187,-0.10691117241907741,-3.601580527710918,-20.847802395790808,122.30870727083965,5,50.97,3.7735302448272705,16.67,50.97,0,0,1,0,1,0
1767631102.0830262,20260105123822.082972,18.18907084605021,-64.95873301738591,0.2043014968881017,0.35966465025191185,0.04941529342873806,0.128600656201093,-0.10691117241907741,-4.394251158191266,-18.124832103860367,120.20834138777538,5,50.97,3.7735302448272705,16.67,50.97,0,0,1,0,1,0
1767631102.0996833,20260105123822.099629,18.189070867153255,-64.95873300972924,0.16286291936466538,0.35966465025191185,0.04489541060732845,0.13024746487513444,-0.12536080585132628,-4.743535631293062,-16.714359969878195,118.20760067956732,5,50.97,3.7735302448272705,16.67,50.97,0,0,1,0,1,0
1767631102.2010608,20260105123822.201006,18.189070984270124,-64.95873296723657,0.16286291936466538,0.35966465025191185,0.04489541060732845,0.13024746487513444,-0.12536080585132628,-4.743535631293062,-16.714359969878195,118.20760067956732,5,50.97,3.7735302448272705,16.67,50.97,0,0,1,0,1,0
1767631102.3105698,20260105123822.310515,18.18907111098166,-64.95873292573233,0.16286291936466538,0.35966465025191185,0.04093472392334224,0.1315459933913601,-0.12536080585132628,-4.693308963498474,-16.482083936172714,116.47407072761341,5,50.97,3.7735302448272705,16.62,50.97,0,0,1,0,1,0
1767631102.423449,20260105123822.423395,18.18907124510654,-64.95873288579006,0.15767428831216299,0.35966465025191185,0.0375049943764585,0.1325646083870873,-0.12780021970310135,-4.067981015726927,-16.888227620011566,114.98607250373645,5,50.97,4.347283840179443,16.62,50.97,0,0,1,0,1,0
1767631102.5335567,20260105123822.533502,18.189071017782986,-64.9587327509881,0.15767428831216299,0.35966465025191185,0.12967856647980375,-0.23018572804529633,-0.12780021970310135,-2.612519263368848,-17.212122136455772,113.60463892939373,5,45.71,4.347283840179443,16.62,45.71,0,0,1,0,1,0
1767631102.646485,20260105123822.646431,18.189070796638628,-64.958732601447,0.16099070981472766,0.35966465025191185,0.14280063614826147,-0.22228355385779636,-0.1474451987672761,1.5494746441438787,-15.549207828032971,110.28229712536617,5,45.71,4.347283840179443,16.62,45.71,0,0,1,0,1,0
1767631102.751754,20260105123822.751700,18.189070587588677,-64.95873244737697,0.13311776501263073,0.35966465025191185,0.15153445825565845,-0.21642390801656852,-0.13721238489788226,3.345718134820457,-13.16768649876415,108.00129999492451,5,45.71,2.245692253112793,16.62,45.71,0,0,1,0,1,0
1767631102.8041246,20260105123822.804070,18.189070488860764,-64.95873236692346,0.13311776501263073,0.35966465025191185,0.16173508771392547,-0.2089108934502192,-0.13721238489788226,4.5230638762414435,-10.348091193643208,105.25362353066447,5,45.71,2.245692253112793,16.62,45.71,0,0,1,0,1,0
1767631102.9097867,20260105123822.909732,18.189070284578072,-64.95873220045318,0.13311776501263073,0.35966465025191185,0.16173508771392547,-0.2089108934502192,-0.13721238489788226,4.5230638762414435,-10.348091193643208,105.25362353066447,5,45.71,3.5999937057495117,16.59,45.71,0,0,1,0,1,0
1767631103.0445545,20260105123823.044500,18.189070091371224,-64.95873202379636,0.09827129343533492,0.35966465025191185,0.17325915845597312,-0.19945742405618297,-0.09734310757838965,4.809765011148149,-7.925758615717285,102.02072991599086,5,45.71,3.5999937057495117,16.59,45.71,0,0,1,0,1,0
1767631103.1313608,20260105123823.131306,18.18907031333689,-64.95873188054642,0.09827129343533492,0.35966465025191185,0.1369926029879489,0.22343461398491105,-0.09734310757838965,4.251135592018063,-6.471865246108167,98.37221914171224,5,42.86,1.3382904529571533,16.59,42.86,0,0,1,0,1,0
1767631103.20439,20260105123823.204336,18.18907047096237,-64.95873180732404,0.08976470972364665,0.35966465025191185,0.10581835808254299,0.23977588513592168,-0.10134494645726191,2.1729560923017504,-6.2686670456439195,90.67177232557778,5,42.86,1.3382904529571533,16.59,42.86,0,0,1,0,1,0
1767631103.315969,20260105123823.315915,18.189070712886707,-64.95873169494196,0.08976470972364665,0.35966465025191185,0.10581835808254299,0.23977588513592168,-0.10134494645726191,2.1729560923017504,-6.2686670456439195,90.67177232557778,5,42.86,1.3382904529571533,16.59,42.86,0,0,1,0,1,0
1767631103.4269562,20260105123823.426902,18.189070958703752,-64.95873160071449,0.07447545940730599,0.35966465025191185,0.08968263362705138,0.24626616744026383,-0.12571083442195571,1.2072457589775272,-6.714910784438245,86.86893337182048,5,42.86,1.1357439756393433,16.67,42.86,0,0,1,0,1,0
1767631103.5370069,20260105123823.536952,18.18907120955829,-64.95873154604638,0.07447545940730599,0.35966465025191185,0.05313526393672193,0.25664497603961567,-0.12571083442195571,-1.4501810537461262,-7.65758480244576,78.5559891228581,5,42.86,0.8252909779548645,16.67,42.86,0,0,1,0,1,0
1767631103.6029294,20260105123823.602875,18.18907136894324,-64.95873152551653,0.0750239372365939,0.35966465025191185,0.03183434154248825,0.26014721735693463,-0.06220080554996416,-3.6237607211977316,-8.048767805331936,73.8354729448462,5,42.86,0.8252909779548645,16.67,42.86,0,0,1,0,1,0
1767631103.7105584,20260105123823.710504,18.189071602872023,-64.95873149538491,0.0750239372365939,0.35966465025191185,0.03183434154248825,0.26014721735693463,-0.06220080554996416,-3.6237607211977316,-8.048767805331936,73.8354729448462,5,42.86,1.2011841535568237,16.67,42.86,0,0,1,0,1,0
1767631103.8114116,20260105123823.811357,18.189071596422664,-64.9587314557438,0.07365143719030058,0.35966465025191185,0.03888016879727418,-0.006658263609640861,-0.03181707616791739,-5.59796613499225,-8.050839060938351,69.25216848613266,5,41.5,3.5918242931365967,16.67,41.5,0,0,1,0,1,0
1767631103.941035,20260105123823.940981,18.189071592379776,-64.95873141403636,0.07365143719030058,0.35966465025191185,0.03924242431796051,-0.004004014691424281,-0.03181707616791739,-6.626385951612895,-7.534389490109673,65.3603662866259,5,41.5,3.5918242931365967,16.67,41.5,0,0,1,0,1,0
1767631104.001665,20260105123824.001611,18.189071591009053,-64.95873138418823,0.07899079145295429,0.35966465025191185,0.03940016104394875,-0.0019045497396768876,-0.015995300615491273,-5.9093024903833955,-6.426548632308835,62.301922595920594,5,41.5,3.5918242931365967,16.67,41.5,0,0,1,0,1,0
1767631104.1109228,20260105123824.110868,18.189071590841014,-64.95873134318633,0.07899079145295429,0.35966465025191185,0.03944579880991967,-0.0001701653529378802,-0.015995300615491273,-3.8034370224103426,-4.918133258154983,59.781643362727195,5,41.5,3.5918242931365967,16.59,41.5,0,0,1,0,1,0
1767631104.2187748,20260105123824.218720,18.18907159226364,-64.95873130263931,0.0664248117843378,0.35966465025191185,0.03941929258746778,0.0014558062726915712,-0.02607657485786712,-1.1478505194392141,-3.331415500140927,57.41942842382436,5,41.5,2.8146259784698486,16.59,41.5,0,0,1,0,1,0
1767631104.3299208,20260105123824.329866,18.18907159543605,-64.95873126108438,0.0664248117843378,0.35966465025191185,0.03931941966727382,0.003159626090030416,-0.02607657485786712,1.0843145829576901,-2.0657173882327906,54.940178151645696,5,41.5,1.9920555353164673,16.59,41.5,0,0,1,0,1,0
1767631104.4410949,20260105123824.441040,18.189071676856308,-64.95873112212597,0.04118785015420301,0.35966465025191185,0.13421303345427463,0.08277597266720434,-0.04121578894705286,2.9432674502089515,-1.810069079160684,49.94874925352578,5,42.39,1.5595697164535522,16.59,42.39,0,0,1,0,1,0
1767631104.5028977,20260105123824.502843,18.189071724316836,-64.95873104685431,0.04118785015420301,0.35966465025191185,0.13138344084919062,0.08719742811933867,-0.04121578894705286,3.3854532014116536,-2.7479188474550784,48.041288472166116,5,42.39,1.5595697164535522,16.59,42.39,0,0,1,0,1,0
1767631104.6101162,20260105123824.610062,18.18907180891201,-64.95873091268767,0.015089941799972542,0.35966465025191185,0.13138344084919062,0.08719742811933867,-0.06368548502960639,3.3854532014116536,-2.7479188474550784,48.041288472166116,5,42.39,1.5265792608261108,16.59,42.39,0,0,1,0,1,0
1767631104.714579,20260105123824.714525,18.18907189342216,-64.9587307845748,0.015089941799972542,0.35966465025191185,0.12952463730895397,0.08993535639549069,-0.06368548502960639,4.161955487684895,-4.0649569483905985,46.838826408639015,5,42.39,0.9155668616294861,16.59,42.39,0,0,1,0,1,0
1767631104.8221786,20260105123824.822124,18.189071982432864,-64.95873065230639,0.037089941799972784,0.35966465025191185,0.12867493580322198,0.09114691928988439,-0.05770785787646421,5.096029440678647,-5.501687754026048,46.301126404156726,5,42.39,0.6030974388122559,16.59,42.39,0,0,1,0,1,0
1767631104.9016423,20260105123824.901588,18.189072047163435,-64.95873055597689,0.037089941799972784,0.35966465025191185,0.1287378384468662,0.09105805264790467,-0.05770785787646421,6.297297074447562,-7.5930471756756255,46.34068687397484,5,42.39,0.6030974388122559,16.59,42.39,0,0,1,0,1,0
1767631105.007112,20260105123825.007058,18.189072129198173,-64.95873049879764,0.07041194238910568,0.35966465025191185,0.05719070648818286,0.0863667939163109,-0.012654970450300073,6.297297074447562,-7.5930471756756255,46.34068687397484,5,41.51,0.7231796383857727,16.59,41.51,0,0,1,0,1,0
1767631105.1332922,20260105123825.133238,18.18907221255118,-64.95873044035274,0.07041194238910568,0.35966465025191185,0.057427385373052864,0.08620960160686787,-0.012654970450300073,6.311108575661468,-7.874894178780905,46.497842752780954,5,41.51,0.8898901343345642,16.59,41.51,0,0,1,0,1,0
1767631105.2233632,20260105123825.223309,18.189072297329353,-64.95873038051664,0.06541194238910668,0.35966465025191185,0.05768883405553671,0.08603486749750212,0.004401552210041945,5.994485225075471,-7.800017349457732,46.67178041237835,5,41.51,1.3295857906341553,16.62,41.51,0,0,1,0,1,0
1767631105.3026657,20260105123825.302611,18.189072356457995,-64.95873033724246,0.06541194238910668,0.35966465025191185,0.059133639317313316,0.08504829628563935,0.004401552210041945,5.093868111920345,-8.096761000469318,47.639488790192644,5,41.51,1.3295857906341553,16.62,41.51,0,0,1,0,1,0
1767631105.411748,20260105123825.411693,18.18907116666667,-64.95872616666666,0.09592173300315827,0.35966465025191185,0.12910943153178717,-0.011704439208828686,0.06869065614453176,5.093868111920345,-8.096761000469318,47.639488790192644,1,41.51,1.5946143865585327,16.62,41.51,0,0,1,0,1,0
1767631105.5284677,20260105123825.528413,18.18907116666667,-64.95872616666666,0.09592173300315827,0.35966465025191185,0.12910943153178717,-0.011704439208828686,0.06869065614453176,4.436331114940335,-8.74129800837635,48.74457964209563,1,41.51,1.5505603551864624,16.62,41.51,0,0,1,0,1,0
1767631105.6277454,20260105123825.627691,18.18907116666667,-64.95872616666666,0.09992173300315783,0.35966465025191185,0.12910943153178717,-0.011704439208828686,0.05209201047780384,3.6039403589129346,-9.56695462236106,50.16314896823411,1,41.59,1.6789398193359375,16.62,41.59,0,0,1,0,1,0
1767631105.7351642,20260105123825.735110,18.18907116666667,-64.95872616666666,0.09992173300315783,0.35966465025191185,0.12910943153178717,-0.011704439208828686,0.05209201047780384,2.366905359549065,-10.913379195821275,52.98884704956061,1,41.59,1.4977459907531738,16.62,41.59,0,0,1,0,1,0
1767631105.8135927,20260105123825.813538,18.18907116666667,-64.95872566666667,0.11016217238579255,0.35966465025191185,0.0,0.08025264,0.03545701883660784,2.26108157236128,-11.252163529980171,54.249810742194946,1,41.59,1.4977459907531738,16.62,41.59,0,0,1,0,1,0
1767631105.912225,20260105123825.912171,18.18907116666667,-64.95872566666667,0.11016217238579255,0.35966465025191185,0.0,0.08025264,0.03545701883660784,2.26108157236128,-11.252163529980171,54.249810742194946,1,41.59,1.7380698919296265,16.59,41.59,0,0,1,0,1,0
1767631106.0207608,20260105123826.020706,18.18907116666667,-64.95872566666667,0.1214513447868871,0.35966465025191185,0.0,0.08025264,0.04106375155211865,2.4991101215086773,-11.356980504235619,55.741162590153515,1,41.59,1.9315743446350098,16.59,41.59,0,0,1,0,1,0
1767631106.1427395,20260105123826.142685,18.18907116666667,-64.95872566666667,0.1214513447868871,0.35966465025191185,0.0,0.08025264,0.04106375155211865,3.13749120578169,-11.237490570849172,57.78423682597425,1,41.59,1.870915412902832,16.59,41.59,0,0,1,0,1,0
1767631106.2443058,20260105123826.244251,18.18907116666667,-64.95872566666667,0.13115308384754737,0.35966465025191185,0.0,0.08025264,0.04802572623237774,4.671984678398065,-9.872003786373133,63.60769917572287,1,41.65,1.9778788089752197,16.59,41.65,0,0,1,0,1,0
1767631106.3545907,20260105123826.354536,18.189072166666666,-64.95872533333333,0.11233117542809948,0.35966465025191185,0.14711389775518222,0.20785332119578406,0.005375134225909467,5.022934437592318,-8.404488453367343,66.70481541133671,1,41.65,1.951209306716919,16.59,41.65,0,0,1,0,1,0
1767631106.403811,20260105123826.403757,18.189072166666666,-64.95872533333333,0.11233117542809948,0.35966465025191185,0.14711389775518222,0.20785332119578406,0.005375134225909467,4.936467199990144,-6.554204059767716,69.31105943616181,1,41.65,1.951209306716919,16.56,41.65,0,0,1,0,1,0
1767631106.5136669,20260105123826.513612,18.189072166666666,-64.95872533333333,0.11233117542809948,0.35966465025191185,0.14711389775518222,0.20785332119578406,0.005375134225909467,4.936467199990144,-6.554204059767716,69.31105943616181,1,41.65,1.9307167530059814,16.56,41.65,0,0,1,0,1,0
1767631106.6264417,20260105123826.626387,18.189072166666666,-64.95872533333333,0.08035061100138409,0.35966465025191185,0.14711389775518222,0.20785332119578406,-0.026254211874520324,4.5068558315455824,-4.652096441084142,71.2552939691618,1,41.65,2.000772714614868,16.56,41.65,0,0,1,0,1,0
1767631106.7365117,20260105123826.736457,18.189072166666666,-64.95872533333333,0.08035061100138409,0.35966465025191185,0.14711389775518222,0.20785332119578406,-0.026254211874520324,4.141956259757272,-3.0332469004042375,72.74841483674793,1,41.65,1.801596999168396,16.56,41.65,0,0,1,0,1,0
1767631106.8008745,20260105123826.800820,18.189073833333335,-64.9587245,0.07404588504127366,0.35966465025191185,0.21214501050468915,0.3876513954336382,-0.04138061742704755,4.799277678814524,-1.7281814850345185,75.59187824645785,1,41.95,1.801596999168396,16.56,41.95,0,0,1,0,1,0
1767631106.9171622,20260105123826.917108,18.189073833333335,-64.9587245,0.07404588504127366,0.35966465025191185,0.21214501050468915,0.3876513954336382,-0.04138061742704755,4.799277678814524,-1.7281814850345185,75.59187824645785,1,41.95,1.7938297986984253,16.56,41.95,0,0,1,0,1,0
1767631107.0303252,20260105123827.030271,18.189073833333335,-64.9587245,0.04294436894205352,0.35966465025191185,0.21214501050468915,0.3876513954336382,-0.08913016201320831,5.527692427928736,-2.2652362498529173,76.90641692415026,1,41.95,1.7186981439590454,16.62,41.95,0,0,1,0,1,0
1767631107.1304493,20260105123827.130395,18.189073833333335,-64.9587245,0.04294436894205352,0.35966465025191185,0.21214501050468915,0.3876513954336382,-0.08913016201320831,5.689136386406414,-3.24831255879476,77.87171424432543,1,41.95,1.2704622745513916,16.62,41.95,0,0,1,0,1,0
1767631107.2536795,20260105123827.253625,18.189073833333335,-64.9587245,0.03364736586463852,0.35966465025191185,0.21214501050468915,0.3876513954336382,-0.10645265040836216,2.008939072577648,-4.695177020904414,78.8281937871292,1,41.95,1.6758015155792236,16.62,41.95,0,0,1,0,1,0
1767631107.3043244,20260105123827.304270,18.189074833333333,-64.95872349999999,0.04562278560881865,0.35966465025191185,0.156844367083759,0.21923953745693006,-0.05172796036415517,-1.395717746160559,-5.129590014052383,79.00140744641571,1,41.95,1.6758015155792236,16.62,41.95,0,0,1,0,1,0
1767631107.4105632,20260105123827.410509,18.189074833333333,-64.95872349999999,0.04562278560881865,0.35966465025191185,0.156844367083759,0.21923953745693006,-0.05172796036415517,-1.395717746160559,-5.129590014052383,79.00140744641571,1,41.95,1.2503488063812256,16.62,41.95,0,0,1,0,1,0
1767631107.5317688,20260105123827.531714,18.189074833333333,-64.95872349999999,0.04562278560881865,0.35966465025191185,0.156844367083759,0.21923953745693006,-0.05172796036415517,-5.231977574528761,-5.619649432039254,79.26702676802424,1,41.95,0.6114948987960815,16.62,41.95,0,0,1,0,1,0
1767631107.6365805,20260105123827.636526,18.189074833333333,-64.95872349999999,0.053634446526427404,0.35966465025191185,0.156844367083759,0.21923953745693006,-0.020312434533811197,-12.403250599747903,-6.752323158994312,80.8511394482687,1,41.95,2.0830161571502686,16.53,41.95,0,0,1,0,1,0
1767631107.749829,20260105123827.749775,18.189074833333333,-64.95872349999999,0.0641276194518982,0.35966465025191185,0.156844367083759,0.21923953745693006,0.03519599349316628,-14.669207648259404,-6.637314685079452,81.6921750924423,1,41.95,2.641876220703125,16.53,41.95,0,0,1,0,1,0
1767631107.8247983,20260105123827.824744,18.189075166666665,-64.95872200000001,0.0641276194518982,0.35966465025191185,0.2880606113208007,0.13573530611073953,0.03519599349316628,-15.143308323544264,-5.618618926879754,82.18021277371197,1,41.95,2.641876220703125,16.53,41.95,0,0,1,0,1,0
1767631107.9151793,20260105123827.915125,18.189075166666665,-64.95872200000001,0.0641276194518982,0.35966465025191185,0.2880606113208007,0.13573530611073953,0.03519599349316628,-15.143308323544264,-5.618618926879754,82.18021277371197,1,41.95,2.36746883392334,16.53,41.95,0,0,1,0,1,0
1767631108.0285952,20260105123828.028541,18.189075166666665,-64.95872200000001,0.06498164637244606,0.35966465025191185,0.2880606113208007,0.13573530611073953,0.04712026607739093,-14.096048704022175,-3.977661550055438,82.38782327795771,1,41.95,2.36746883392334,16.53,41.95,0,0,1,0,1,0
1767631108.1369164,20260105123828.136862,18.189075166666665,-64.95872200000001,0.06498164637244606,0.35966465025191185,0.2880606113208007,0.13573530611073953,0.04712026607739093,-10.113878800615673,-1.6946760868024004,82.40684536159783,1,41.95,0.8599320650100708,16.53,41.95,0,0,1,0,1,0
1767631108.246514,20260105123828.246460,18.189075166666665,-64.95872200000001,0.05377358177269738,0.35966465025191185,0.2880606113208007,0.13573530611073953,0.0074954614105779,-8.1130322244376,-1.7407996237076757,82.2944340680435,1,41.95,1.6182539463043213,16.64,41.95,0,0,1,0,1,0
1767631108.306677,20260105123828.306623,18.189076,-64.95872066666668,0.05183724074704401,0.35966465025191185,0.30186064058347706,0.1684968487304,-0.003994941601040891,-6.688481784881658,-2.5230821730762654,81.99602982669619,1,41.95,1.6182539463043213,16.64,41.95,0,0,1,0,1,0
1767631108.4222145,20260105123828.422160,18.189076,-64.95872066666668,0.05183724074704401,0.35966465025191185,0.30186064058347706,0.1684968487304,-0.003994941601040891,-6.688481784881658,-2.5230821730762654,81.99602982669619,1,41.95,1.6182539463043213,16.64,41.95,0,0,1,0,1,0
1767631108.5264862,20260105123828.526432,18.189076,-64.95872066666668,0.05183724074704401,0.35966465025191185,0.30186064058347706,0.1684968487304,-0.003994941601040891,-6.126181991533941,-3.5196935739152067,81.50079995365887,1,41.95,1.307483434677124,16.64,41.95,0,0,1,0,1,0
1767631108.6011672,20260105123828.601113,18.189076,-64.95872066666668,0.05237567548703699,0.35966465025191185,0.30186064058347706,0.1684968487304,-0.015210062105211529,-7.881592035430677,-4.457853475597494,80.36468637145309,1,41.95,1.307483434677124,16.64,41.95,0,0,1,0,1,0
1767631108.7214894,20260105123828.721435,18.189076,-64.95872066666668,0.05237567548703699,0.35966465025191185,0.30186064058347706,0.1684968487304,-0.015210062105211529,-7.881592035430677,-4.457853475597494,80.36468637145309,1,41.95,0.8467317223548889,16.64,41.95,0,0,1,0,1,0
1767631108.820693,20260105123828.820639,18.189076833333335,-64.9587195,0.05271699556812884,0.35966465025191185,0.22479956358016023,0.14969603460068506,-0.011795853951622753,-9.543622687813647,-4.440224324159317,79.73754686642017,1,41.95,0.5420853495597839,16.59,41.95,0,0,1,0,1,0
1767631108.9218445,20260105123828.921790,18.189076833333335,-64.9587195,0.05271699556812884,0.35966465025191185,0.22479956358016023,0.14969603460068506,-0.011795853951622753,-10.931984637773043,-4.494582830992335,79.11095191810456,1,41.95,0.6959661841392517,16.59,41.95,0,0,1,0,1,0
1767631109.004335,20260105123829.004280,18.189076833333335,-64.9587195,0.07071093163382196,0.35966465025191185,0.22479956358016023,0.14969603460068506,0.017827227143942123,-11.627998238539702,-4.751372422394149,78.46795084953634,1,41.95,0.6959661841392517,16.59,41.95,0,0,1,0,1,0
1767631109.1101534,20260105123829.110099,18.189076833333335,-64.9587195,0.07071093163382196,0.35966465025191185,0.22479956358016023,0.14969603460068506,0.017827227143942123,-11.85309659463466,-4.905445323461287,77.75803439374295,1,41.95,2.231410503387451,16.59,41.95,0,0,1,0,1,0
1767631109.232105,20260105123829.232051,18.189076833333335,-64.9587195,0.05041614768295201,0.35966465025191185,0.22479956358016023,0.14969603460068506,-0.007370542353056212,-11.788345524376638,-4.569324764031164,77.00409735300866,1,41.95,2.712235450744629,16.59,41.95,0,0,1,0,1,0
1767631109.3259006,20260105123829.325846,18.189076833333335,-64.9587195,0.05041614768295201,0.35966465025191185,0.22479956358016023,0.14969603460068506,-0.007370542353056212,-11.550624120408306,-3.6456514853149597,76.29139417903751,1,41.95,2.712235450744629,16.59,41.95,0,0,1,0,1,0
1767631109.4430366,20260105123829.442982,18.189077333333334,-64.95871833333334,0.042767235787983436,0.35966465025191185,0.2398111618487228,0.11381942404461236,-0.014052622059395097,-11.391853755059843,-1.8728891261838316,74.91849834421006,1,41.95,2.712235450744629,16.62,41.95,0,0,1,0,1,0
1767631109.5498664,20260105123829.549812,18.189077333333334,-64.95871833333334,0.03946616760746034,0.35966465025191185,0.2398111618487228,0.11381942404461236,-0.018221437079987662,-11.554920310932403,-2.1989831777706663,74.2566186260256,1,42.37,2.1441240310668945,16.62,42.37,0,0,1,0,1,0
1767631109.6027358,20260105123829.602681,18.189077333333334,-64.95871833333334,0.03946616760746034,0.35966465025191185,0.2398111618487228,0.11381942404461236,-0.018221437079987662,-11.758390011513242,-3.543750789434456,73.60005962710707,1,42.37,2.1441240310668945,16.62,42.37,0,0,1,0,1,0
1767631109.7257137,20260105123829.725659,18.189077333333334,-64.95871833333334,0.03946616760746034,0.35966465025191185,0.2398111618487228,0.11381942404461236,-0.018221437079987662,-11.758390011513242,-3.543750789434456,73.60005962710707,1,42.37,2.673795461654663,16.62,42.37,0,0,1,0,1,0
1767631109.823594,20260105123829.823540,18.189077833333332,-64.95871749999999,0.05503857847487199,0.35966465025191185,0.22146687262017706,0.11037105185168737,-0.015834885671354847,-11.826667168191083,-5.391043772551411,72.9013651761326,1,42.37,0.7828160524368286,16.62,42.37,0,0,1,0,1,0
1767631109.9555798,20260105123829.955525,18.189077833333332,-64.95871749999999,0.05503857847487199,0.35966465025191185,0.22146687262017706,0.11037105185168737,-0.015834885671354847,-10.523162665048245,-7.30896926123499,71.31614600484696,1,42.37,2.7073564529418945,16.62,42.37,0,0,1,0,1,0
1767631110.0523455,20260105123830.052291,18.189077833333332,-64.95871749999999,0.07714370563743685,0.35966465025191185,0.22146687262017706,0.11037105185168737,0.03580309423557738,-9.006864395999914,-7.007108942931884,70.48958353669967,1,42.37,2.6402997970581055,16.64,42.37,0,0,1,0,1,0
1767631110.1079125,20260105123830.107858,18.189077833333332,-64.95871749999999,0.0811437056374364,0.35966465025191185,0.22146687262017706,0.11037105185168737,0.036070208788317196,-7.572283393174418,-6.764505659508698,69.73755894961683,1,42.85,2.6402997970581055,16.64,42.85,0,0,1,0,1,0
1767631110.2086368,20260105123830.208582,18.189077833333332,-64.95871749999999,0.0811437056374364,0.35966465025191185,0.22146687262017706,0.11037105185168737,0.036070208788317196,-7.572283393174418,-6.764505659508698,69.73755894961683,1,42.85,2.5445263385772705,16.64,42.85,0,0,1,0,1,0
1767631110.3171701,20260105123830.317116,18.189077833333332,-64.95871749999999,0.0811437056374364,0.35966465025191185,0.22146687262017706,0.11037105185168737,0.036070208788317196,-6.421469957958168,-6.800834594920268,69.09843059969272,1,42.85,2.545236110687256,16.64,42.85,0,0,1,0,1,0
1767631110.4237227,20260105123830.423668,18.189079333333332,-64.95871650000001,0.059646871032725035,0.35966465025191185,0.23875154394543216,0.2591860317564054,0.02727705208641088,-5.9143141434788795,-6.829873154559724,68.41457815509166,1,42.85,2.008100986480713,16.64,42.85,0,0,1,0,1,0
1767631110.5006356,20260105123830.500581,18.189079333333332,-64.95871650000001,0.059646871032725035,0.35966465025191185,0.23875154394543216,0.2591860317564054,0.02727705208641088,-8.254780898514396,-5.802708812534802,66.10039995379773,1,42.85,2.008100986480713,16.64,42.85,0,0,1,0,1,0
1767631110.6042154,20260105123830.604161,18.189079333333332,-64.95871650000001,0.06697837186622192,0.35966465025191185,0.23875154394543216,0.2591860317564054,0.020413713222560786,-8.254780898514396,-5.802708812534802,66.10039995379773,1,42.85,2.0264780521392822,16.59,42.85,0,0,1,0,1,0
1767631110.7102962,20260105123830.710242,18.189079333333332,-64.95871650000001,0.06697837186622192,0.35966465025191185,0.23875154394543216,0.2591860317564054,0.020413713222560786,-10.086845755988369,-5.227231872019166,64.47447284050314,1,42.93,1.7112619876861572,16.59,42.93,0,0,1,0,1,0
1767631110.809759,20260105123830.809704,18.189080333333333,-64.95871583333333,0.06685581447720616,0.35966465025191185,0.16831154320347524,0.1876521583670827,0.016101895360412004,-11.184547194340835,-5.326659825092548,62.73613443365423,1,42.93,1.7112619876861572,16.59,42.93,0,0,1,0,1,0
1767631110.908283,20260105123830.908229,18.189080333333333,-64.95871583333333,0.06685581447720616,0.35966465025191185,0.16831154320347524,0.1876521583670827,0.016101895360412004,-11.583163153249034,-6.784577031335229,60.99330176072447,1,42.93,2.173152446746826,16.59,42.93,0,0,1,0,1,0
1767631111.0448167,20260105123831.044762,18.189080333333333,-64.95871583333333,0.10743667716614852,0.35966465025191185,0.16831154320347524,0.1876521583670827,0.037677799519061875,-11.414115910846004,-9.567455787670607,59.108312309769076,1,42.93,1.9456284046173096,16.59,42.93,0,0,1,0,1,0
1767631111.1199968,20260105123831.119942,18.189080333333333,-64.95871583333333,0.10743667716614852,0.35966465025191185,0.16831154320347524,0.1876521583670827,0.037677799519061875,-10.702088925844443,-13.118561199367042,56.87888995619145,1,42.93,1.8851690292358398,16.59,42.93,0,0,1,0,1,0
1767631111.2321515,20260105123831.232097,18.189080333333333,-64.95871583333333,0.11848108971224602,0.35966465025191185,0.16831154320347524,0.1876521583670827,0.07069413357188982,-9.630838258284342,-16.464579862618436,54.28678442800373,1,42.93,2.23150897026062,16.34,42.93,0,0,1,0,1,0
1767631111.3007774,20260105123831.300723,18.189080333333333,-64.95871583333333,0.11848108971224602,0.35966465025191185,0.16831154320347524,0.1876521583670827,0.07069413357188982,-6.597664995883416,-20.032058951157328,48.45538539560166,1,43.05,2.23150897026062,16.34,43.05,0,0,1,0,1,0
1767631111.4092398,20260105123831.409185,18.1890795,-64.95871516666666,0.19701668264489944,0.35966465025191185,0.2648643629712451,-0.01763870360650504,0.14277499592274698,-6.597664995883416,-20.032058951157328,48.45538539560166,1,43.05,2.23150897026062,16.34,43.05,0,0,1,0,1,0
1767631111.5156634,20260105123831.515609,18.1890795,-64.95871516666666,0.19701668264489944,0.35966465025191185,0.2648643629712451,-0.01763870360650504,0.14277499592274698,-5.211387108139704,-20.35545827870964,45.51445515158501,1,43.05,1.93798828125,16.34,43.05,0,0,1,0,1,0
1767631111.6282156,20260105123831.628161,18.189079397893348,-64.95871509358867,0.20601668264489978,0.35966465025191185,0.07160360626391445,-0.1053087060503656,0.14616789956439274,-3.9088281596481935,-20.280997237300863,42.62342970258324,5,43.05,2.2824597358703613,16.34,43.05,0,0,1,0,1,0
1767631111.703898,20260105123831.703843,18.18907932789317,-64.95871503226763,0.20601668264489978,0.35966465025191185,0.08146171494935346,-0.09788252651781257,0.14616789956439274,-1.2930606065590067,-20.002106853389737,37.06821288311807,5,43.05,2.2824597358703613,16.34,43.05,0,0,1,0,1,0
1767631111.8090801,20260105123831.809026,18.189079234098283,-64.95871495010213,0.26472444101658715,0.35966465025191185,0.08146171175660954,-0.09788252917494042,0.20913238574732027,-1.2930606065590067,-20.002106853389737,37.06821475199929,5,43.05,2.1422789096832275,16.56,43.05,0,0,1,0,1,0
1767631111.9170222,20260105123831.916968,18.189079142977384,-64.95871486209104,0.26472444101658715,0.35966465025191185,0.08609883642437198,-0.09382958151014656,0.20913238574732027,0.45598241809419104,-19.713476616239543,34.297018184642724,5,43.05,2.1422789096832275,16.56,43.05,0,0,1,0,1,0
1767631112.0305362,20260105123832.030482,18.189079122970277,-64.95871490290217,0.283167474921145,0.35966465025191185,-0.03947289879819248,-0.020368855158492703,0.21821301222237383,2.3737562551796305,-19.17024244900345,31.52034038851728,5,45.05,4.063919544219971,16.56,45.05,0,0,1,0,1,0
1767631112.1022122,20260105123832.102158,18.18907910641493,-64.95871492981082,0.283167474921145,0.35966465025191185,-0.0372831738376201,-0.024144667083929733,0.21821301222237383,6.259482999247299,-17.45744725123643,25.887850196247015,5,45.05,4.063919544219971,16.56,45.05,0,0,1,0,1,0
1767631112.2181854,20260105123832.218131,18.18907908379104,-64.95871496658313,0.31466250175477994,0.35966465025191185,-0.0372831738376201,-0.024144667083929733,0.20863308830149146,6.259482999247299,-17.45744725123643,25.887850196247015,5,45.05,2.6405324935913086,16.56,45.05,0,0,1,0,1,0
1767631112.3141942,20260105123832.314140,18.189079059055548,-64.95871500271728,0.31466250175477994,0.35966465025191185,-0.036037689879978754,-0.0259669965170113,0.20863308830149146,7.578460447713722,-16.54097214070558,23.040356973485867,5,45.05,3.15104603767395,16.56,45.05,0,0,1,0,1,0
1767631112.4260132,20260105123832.425959,18.189079032734348,-64.95871503738405,0.32544650902801386,0.35966465025191185,-0.0346985721564009,-0.02773101314966765,0.15527063470274796,8.214446055722226,-15.763177240669725,20.183270746605317,5,45.05,2.503263235092163,16.64,45.05,0,0,1,0,1,0
1767631112.5003579,20260105123832.500303,18.189079010379576,-64.95871506392137,0.32544650902801386,0.35966465025191185,-0.033234922739685216,-0.02946930454705633,0.15527063470274796,8.2614317975968,-15.208948172485826,17.25172518586389,5,45.05,2.503263235092163,16.64,45.05,0,0,1,0,1,0
1767631112.6107073,20260105123832.610653,18.18907920698967,-64.95871520438548,0.3455847710175302,0.35966465025191185,-0.13780069716330662,0.20302701263946787,0.09379531777839242,6.9378119532689295,-14.686399240547415,11.329395812528064,5,44.79,2.503263235092163,16.64,44.79,0,0,1,0,1,0
1767631112.7207017,20260105123832.720647,18.189079402902898,-64.95871534435173,0.3455847710175302,0.35966465025191185,-0.13780069716330662,0.20302701263946787,0.09379531777839242,6.9378119532689295,-14.686399240547415,11.329395812528064,5,44.79,2.503263235092163,16.64,44.79,0,0,1,0,1,0
1767631112.8195791,20260105123832.819525,18.189079585830616,-64.95871548990134,0.37721864813392053,0.35966465025191185,-0.1479643512064812,0.19574358424235794,0.1456375556323925,5.926883830480264,-14.533513939046854,8.409377907680192,5,44.79,2.503263235092163,16.64,44.79,0,0,1,0,1,0
1767631112.9298213,20260105123832.929767,18.18907972301378,-64.95871561090233,0.37721864813392053,0.35966465025191185,-0.15759895144206185,0.18807331151538387,0.1456375556323925,4.910643526165175,-14.283635647782681,5.533494993482747,5,44.79,2.503263235092163,16.64,44.79,0,0,1,0,1,0
1767631113.0076156,20260105123833.007561,18.189079895322255,-64.958715778855,0.38365473592935384,0.35966465025191185,-0.16671858990633923,0.18003863968504616,0.1085909423617215,4.01790503903477,-13.871207333886616,2.6951730105089453,5,44.79,2.503263235092163,16.51,44.79,0,0,1,0,1,0
1767631113.1234581,20260105123833.123404,18.189080054722552,-64.9587159504534,0.38365473592935384,0.35966465025191185,-0.17544537355007375,0.17154568167072895,0.1085909423617215,3.205957046502815,-13.273843898123504,-0.14855677667388803,5,44.79,2.503263235092163,16.51,44.79,0,0,1,0,1,0
1767631113.2083676,20260105123833.208313,18.189080139504924,-64.9587158599851,0.42894957626690144,0.35966465025191185,0.09985631413737026,0.09850236812837967,0.2049128144376972,2.534654225215302,-12.546594977340101,-3.0771499870909205,5,43.09,4.084635257720947,16.51,43.09,0,0,1,0,1,0
1767631113.3037076,20260105123833.303653,18.18908022774762,-64.95871577551814,0.42894957626690144,0.35966465025191185,0.09436831580184764,0.10377196621787001,0.2049128144376972,1.9272339726336154,-11.79256231392324,-6.185425048251234,5,43.09,4.084635257720947,16.51,43.09,0,0,1,0,1,0
1767631113.426839,20260105123833.426785,18.18908032585132,-64.95871569209382,0.44609777042763343,0.35966465025191185,0.08814530602845756,0.1091073096779018,0.18187277616801784,1.407207622556749,-11.170219159886239,-9.534279094795691,5,43.09,4.12847900390625,16.51,43.09,0,0,1,0,1,0
1767631113.50622,20260105123833.506166,18.189080428755787,-64.95871561530699,0.44609777042763343,0.35966465025191185,0.0811189066329192,0.11442780687699883,0.18187277616801784,0.8629290763344467,-10.795529362195731,-13.135061557305388,5,43.09,4.12847900390625,16.51,43.09,0,0,1,0,1,0
1767631113.6016247,20260105123833.601570,18.189080536277036,-64.9587155458532,0.5119125562506595,0.35966465025191185,0.07336387438663483,0.1195480737401572,0.23444088348113007,0.34515244730029765,-10.707528319689631,-16.93176208979468,5,43.09,4.12847900390625,16.51,43.09,0,0,1,0,1,0
1767631113.7000408,20260105123833.699986,18.18908064802743,-64.9587154842742,0.5119125562506595,0.35966465025191185,0.06505389814519286,0.12426580517630292,0.23444088348113007,-0.08708649052141053,-10.859074049860238,-20.835908153092642,5,43.09,4.12847900390625,16.67,43.09,0,0,1,0,1,0
1767631113.8077033,20260105123833.807649,18.189080667938473,-64.95871536203863,0.5217953802992044,0.35966465025191185,0.12145509898200636,0.020824479135647903,0.18569932296123529,-0.42151951237545765,-11.223062644842267,-24.780459495533798,5,42.23,4.12847900390625,16.67,42.23,0,0,1,0,1,0
1767631113.9032605,20260105123833.903206,18.18908069249867,-64.95871525585254,0.5217953802992044,0.35966465025191185,0.11973016326682184,0.029149408297599877,0.18569932296123529,-0.6232703525483755,-11.763860141220691,-28.734218363155218,5,42.23,4.12847900390625,16.67,42.23,0,0,1,0,1,0
1767631114.0106986,20260105123834.010644,18.18908073641663,-64.95871513948957,0.568919551962355,0.35966465025191185,0.11452116055736328,0.04549619527602966,0.15580664587693066,-0.8523336348742361,-13.198940601807834,-36.717834678245886,5,42.23,3.8986167907714844,16.67,42.23,0,0,1,0,1,0
1767631114.114917,20260105123834.114863,18.18908077941489,-64.9587150255634,0.568919551962355,0.35966465025191185,0.11452116055736328,0.04549619527602966,0.15580664587693066,-0.8523336348742361,-13.198940601807834,-36.717834678245886,5,42.23,3.8188977241516113,16.67,42.23,0,0,1,0,1,0
1767631114.225203,20260105123834.225149,18.189080831455417,-64.95871491235742,0.6095373779861051,0.35966465025191185,0.11092408221090727,0.053673531518504375,0.2296743300385796,-0.923804012852548,-13.997059590759877,-40.87247289627919,5,42.23,2.802119255065918,16.42,42.23,0,0,1,0,1,0
1767631114.3017704,20260105123834.301716,18.189080875744462,-64.95871483182023,0.6095373779861051,0.35966465025191185,0.1066490203844305,0.06173318759825487,0.2296743300385796,-0.9882336372178181,-14.771103861826658,-45.11539987864024,5,42.23,2.802119255065918,16.42,42.23,0,0,1,0,1,0
1767631114.410254,20260105123834.410200,18.1890809422343,-64.95871472932014,0.6498542672893465,0.35966465025191185,0.10176738488813772,0.0694866848614153,0.22670951209558102,-1.0437810242783392,-15.434607458066944,-49.376466142375534,5,42.23,3.9793825149536133,16.42,42.23,0,0,1,0,1,0
1767631114.513689,20260105123834.513635,18.189080775032995,-64.95871469319803,0.6498542672893465,0.35966465025191185,0.03601550984041689,-0.1754761609191825,0.22670951209558102,-1.2188010558027924,-15.975695237588893,-53.65712139565477,5,41.78,3.9793825149536133,16.42,41.78,0,0,1,0,1,0
1767631114.6186907,20260105123834.618636,18.189080611072686,-64.9587146443458,0.6813685685377512,0.35966465025191185,0.048789331175386794,-0.1723618320959093,0.22549139514487637,-1.5602451092641951,-16.31700332754851,-57.863433428330524,5,41.78,3.9793825149536133,16.42,41.78,0,0,1,0,1,0
1767631114.701901,20260105123834.701847,18.189080486990765,-64.95871459727718,0.6813685685377512,0.35966465025191185,0.06073290613825977,-0.16852452080335767,0.22549139514487637,-1.9674021160617605,-16.444034646248824,-61.87671741585262,5,41.78,3.9793825149536133,16.42,41.78,0,0,1,0,1,0
1767631114.818112,20260105123834.818057,18.18908032512891,-64.95871452293375,0.7401615588508526,0.35966465025191185,0.07164194457933039,-0.16418413984576025,0.26542660831386405,-2.412316101926579,-16.36784385881425,-65.6326655522822,5,41.78,4.150754928588867,16.39,41.78,0,0,1,0,1,0
1767631114.9203448,20260105123834.920290,18.189080170034444,-64.95871443969638,0.7401615588508526,0.35966465025191185,0.08136888733690886,-0.15958729327096638,0.26542660831386405,-2.8302427200704896,-16.142329714804895,-69.07426250185954,5,41.78,4.150754928588867,16.39,41.78,0,0,1,0,1,0
1767631115.0027275,20260105123835.002673,18.189080055308096,-64.95871436972858,0.7844798282142976,0.35966465025191185,0.08980433841514057,-0.15499735740269543,0.25306861860354846,-3.2531528167694908,-15.843291973185549,-72.14625046253192,5,41.78,4.150754928588867,16.39,41.78,0,0,1,0,1,0
1767631115.1075642,20260105123835.107510,18.18908001147264,-64.95871445701752,0.7844798282142976,0.35966465025191185,-0.08649577003296631,-0.04572178656181543,0.25306861860354846,-3.8371751807659953,-15.305680761194232,-77.00564492659556,5,43.09,2.963665246963501,16.39,43.09,0,0,1,0,1,0
1767631115.2081556,20260105123835.208101,18.189079971355994,-64.95871453690124,0.8254585076123025,0.35966465025191185,-0.08649577003296631,-0.04572178656181543,0.21928978235699642,-3.8371751807659953,-15.305680761194232,-77.00564492659556,5,43.09,3.4321157932281494,16.39,43.09,0,0,1,0,1,0
1767631115.3229675,20260105123835.322913,18.189079923424664,-64.95871462547977,0.8254585076123025,0.35966465025191185,-0.08501365445691501,-0.048421880961815725,0.21928978235699642,-3.9771040356651044,-15.097733870011574,-78.80952585215556,5,43.09,3.4321157932281494,16.39,43.09,0,0,1,0,1,0
1767631115.4009204,20260105123835.400866,18.189079884445135,-64.95871469349422,0.8680812304992664,0.35966465025191185,-0.0837738319750751,-0.050536571670542554,0.2346159038965046,-3.9975497873693793,-14.918565991187105,-80.2451365063666,5,43.09,3.4321157932281494,16.39,43.09,0,0,1,0,1,0
1767631115.5109584,20260105123835.510904,18.189079831794203,-64.95871477899507,0.8680812304992664,0.35966465025191185,-0.0820985704953012,-0.05321489192536296,0.2346159038965046,-3.7150534891739584,-14.527706568628556,-82.09527148952469,5,43.09,3.2520275115966797,16.48,43.09,0,0,1,0,1,0
1767631115.629315,20260105123835.629260,18.189079778568658,-64.95871486542904,0.8838965860170644,0.35966465025191185,-0.0820985704953012,-0.05321489192536296,0.20388524638361444,-3.7150534891739584,-14.527706568628556,-82.09527148952469,5,43.09,2.684164047241211,16.48,43.09,0,0,1,0,1,0
1767631115.7368505,20260105123835.736796,18.18908000228244,-64.95871509588557,0.8838965860170644,0.35966465025191185,-0.2150849321336674,0.21977368352251755,0.20388524638361444,-3.2949450516969088,-13.813461478900914,-82.78019627420888,5,43.37,2.3997063636779785,16.48,43.37,0,0,1,0,1,0
1767631115.852553,20260105123835.852498,18.18908023283368,-64.95871532929999,0.9173189907554842,0.35966465025191185,-0.21317096491616158,0.22163063803705613,0.16290073477140488,-2.827001367263506,-12.728823635780818,-82.28332032499301,5,43.37,2.39121675491333,16.48,43.37,0,0,1,0,1,0
1767631115.9663208,20260105123835.966266,18.189080458191718,-64.95871555745671,0.9385888010244149,0.35966465025191185,-0.21317096491616158,0.22163063803705613,0.16704559871093622,-2.827001367263506,-12.728823635780818,-82.28332032499301,5,43.37,2.7332842350006104,16.48,43.37,0,0,1,0,1,0
1767631116.0895126,20260105123836.089458,18.18908068770375,-64.95871578458143,0.9385888010244149,0.35966465025191185,-0.210634027532148,0.22404309059996988,0.16704559871093622,-2.6984029464751584,-12.112211866280443,-81.63103019583212,5,43.37,3.480933904647827,16.48,43.37,0,0,1,0,1,0
1767631116.1017756,20260105123836.101721,18.189080734491384,-64.95871582962657,0.9843618461161004,0.35966465025191185,-0.20754282774043523,0.2269096178074081,0.16413507773704503,-2.6175253669336542,-11.5936603039831,-80.84553766984928,5,43.37,3.480933904647827,16.48,43.37,0,0,1,0,1,0
1767631116.2198622,20260105123836.219808,18.18908096045245,-64.95871604717222,0.9843618461161004,0.35966465025191185,-0.20754282774043523,0.2269096178074081,0.16413507773704503,-2.6175253669336542,-11.5936603039831,-80.84553766984928,5,43.37,2.800124406814575,16.48,43.37,0,0,1,0,1,0
1767631116.311125,20260105123836.311071,18.189081188101312,-64.95871629546568,0.9843618461161004,0.35966465025191185,-0.2937671898443847,0.28350809189674514,0.16413507773704503,-2.5205605517104366,-11.016947952559597,-79.63037828011498,5,42.38,2.800124406814575,16.48,42.38,0,0,1,0,1,0
1767631116.422343,20260105123836.422289,18.189081479374764,-64.95871659887929,1.0248583444373114,0.35966465025191185,-0.2871744652354573,0.29018412519765646,0.16390473666503858,-2.4607366109266975,-10.565419353005296,-78.31357880899894,5,42.38,2.2522337436676025,16.48,42.38,0,0,1,0,1,0
1767631116.5279667,20260105123836.527912,18.189081775195824,-64.95871689162777,1.0248583444373114,0.35966465025191185,-0.27964705470359513,0.29744499457144086,0.16390473666503858,-2.4717613939628102,-10.210241705203066,-76.84576380133616,5,42.38,2.2522337436676025,16.48,42.38,0,0,1,0,1,0
1767631116.6418297,20260105123836.641775,18.189082077572344,-64.95871715779383,1.057807393725947,0.35966465025191185,-0.26190251054143376,0.31318217537416493,0.20083294673227273,-2.3557104620531306,-9.795176937344674,-73.516721579337,5,42.38,2.671842336654663,16.67,42.38,0,0,1,0,1,0
1767631116.7465687,20260105123836.746514,18.189082407222248,-64.95871742981686,1.0955882789860933,0.35966465025191185,-0.25188186698682896,0.3212966309864288,0.19763611597396347,-2.2156531141743154,-9.708191885840899,-71.70706914186465,5,42.38,2.3769147396087646,16.67,42.38,0,0,1,0,1,0
1767631116.8025827,20260105123836.802528,18.189082574099487,-64.9587175585363,1.0955882789860933,0.35966465025191185,-0.2413156080170577,0.3293065096947793,0.19763611597396347,-2.0793399919599413,-9.682167148250349,-69.84618343710888,5,42.38,2.3769147396087646,16.67,42.38,0,0,1,0,1,0
1767631116.9283864,20260105123836.928332,18.18908282770644,-64.95871787106093,1.0955882789860933,0.35966465025191185,-0.29519943343572225,0.25214736663155657,0.19763611597396347,-2.0793399919599413,-9.682167148250349,-69.84618343710888,5,41.58,2.6614506244659424,16.67,41.58,0,0,1,0,1,0
1767631117.0487812,20260105123837.048727,18.189083089367504,-64.95871817332512,1.1218262116422326,0.35966465025191185,-0.28696383622480615,0.2614818477430941,0.1859888594599521,-2.039561809784187,-9.698343603309993,-68.00896434628952,5,41.58,3.741760730743408,16.67,41.58,0,0,1,0,1,0
1767631117.1553223,20260105123837.155268,18.18908336831291,-64.95871845903466,1.1218262116422326,0.35966465025191185,-0.2707464306673673,0.2782397712062035,0.1859888594599521,-2.0146124004855865,-9.862437249246241,-64.56678341532934,5,41.58,3.1459476947784424,16.67,41.58,0,0,1,0,1,0
1767631117.252947,20260105123837.252893,18.18908366849465,-64.95871874977347,1.178936846288605,0.35966465025191185,-0.2628749105729932,0.28568825910639173,0.2199673063199506,-2.2246109104737766,-9.985708547464021,-62.967374520969265,5,41.58,4.17626953125,16.45,41.58,0,0,1,0,1,0
1767631117.3086336,20260105123837.308579,18.189083796241416,-64.95871886713226,1.2248842509631355,0.35966465025191185,-0.25528163631775613,0.2924932241248143,0.25425272770793395,-2.558092027732742,-10.125029942196608,-61.46252621438489,5,41.58,4.17626953125,16.45,41.58,0,0,1,0,1,0
1767631117.4107642,20260105123837.410710,18.189084059271284,-64.95871910877338,1.2248842509631355,0.35966465025191185,-0.25528163631775613,0.2924932241248143,0.25425272770793395,-2.558092027732742,-10.125029942196608,-61.46252621438489,5,41.58,4.126032829284668,16.45,41.58,0,0,1,0,1,0
1767631117.5026007,20260105123837.502546,18.18908432759747,-64.95871934393807,1.2248842509631355,0.35966465025191185,-0.24841197360708678,0.2983496126503804,0.25425272770793395,-2.9834861797437195,-10.277540436932453,-60.13024269888386,5,41.58,4.126032829284668,16.45,41.58,0,0,1,0,1,0
1767631117.6182044,20260105123837.618150,18.18908464182454,-64.95871959831922,1.2528452264426906,0.35966465025191185,-0.23668032849005433,0.3077392111932439,0.22027413788469613,-3.968499701781582,-10.689815925291187,-57.91244874652612,5,41.58,3.396136522293091,16.45,41.58,0,0,1,0,1,0
1767631117.7251732,20260105123837.725119,18.18908494856513,-64.95871984663971,1.2528452264426906,0.35966465025191185,-0.23668032849005433,0.3077392111932439,0.22027413788469613,-3.968499701781582,-10.689815925291187,-57.91244874652612,5,41.58,2.4970898628234863,16.45,41.58,0,0,1,0,1,0
1767631117.8431425,20260105123837.843088,18.189085257205836,-64.9587200813018,1.3216054464466054,0.35966465025191185,-0.22732340904994475,0.31471426357556703,0.2995363501643473,-5.058844169993711,-11.352061912500863,-56.190000948604556,5,41.58,2.4970898628234863,16.51,41.58,0,0,1,0,1,0
1767631117.946495,20260105123837.946441,18.189085580194917,-64.95872031501786,1.3350333251968869,0.35966465025191185,-0.21993067383911974,0.31992420775032127,0.2865588273300076,-5.854951240628972,-12.290876872247464,-54.85521416787765,5,41.58,3.0699026584625244,16.51,41.58,0,0,1,0,1,0
1767631118.0661328,20260105123838.066078,18.18908590639322,-64.95872055105612,1.3350333251968869,0.35966465025191185,-0.21993067383911974,0.31992420775032127,0.2865588273300076,-5.854951240628972,-12.290876872247464,-54.85521416787765,5,41.58,3.313462972640991,16.51,41.58,0,0,1,0,1,0
1767631118.1724434,20260105123838.172389,18.189086214518056,-64.95872076990501,1.4163093660487303,0.35966465025191185,-0.21715214221039658,0.3218166358867044,0.3720942647276685,-6.249973664975178,-12.860274942228203,-54.35907246426008,5,41.58,2.5567867755889893,16.51,41.58,0,0,1,0,1,0
1767631118.201061,20260105123838.201007,18.189086314710686,-64.95872084017405,1.4163093660487303,0.35966465025191185,-0.2152669020358799,0.323080734318645,0.3720942647276685,-6.737596838991359,-13.47482911650539,-54.024085716637586,5,41.58,2.5567867755889893,16.51,41.58,0,0,1,0,1,0
1767631118.317124,20260105123838.317069,18.189086644014218,-64.95872107112757,1.4163093660487303,0.35966465025191185,-0.2152669020358799,0.323080734318645,0.3720942647276685,-6.737596838991359,-13.47482911650539,-54.024085716637586,5,41.58,2.523287773132324,16.51,41.58,0,0,1,0,1,0
1767631118.4295664,20260105123838.429512,18.18908696189599,-64.95872129289752,1.4461799250388994,0.35966465025191185,-0.2144805760815075,0.3236032794700089,0.37729273053238366,-7.170614338615551,-14.152961275631194,-53.884749807747816,5,41.58,2.313410997390747,16.59,41.58,0,0,1,0,1,0
1767631118.5021014,20260105123838.502047,18.189087186389784,-64.95872145139577,1.4461799250388994,0.35966465025191185,-0.21625987602994942,0.32241691335832695,0.37729273053238366,-7.527426109761016,-15.676145231598621,-54.20036271686218,5,41.58,2.313410997390747,16.59,41.58,0,0,1,0,1,0
1767631118.616589,20260105123838.616535,18.189087511598608,-64.95872168100138,1.521715021921281,0.35966465025191185,-0.21625987602994942,0.32241691335832695,0.3827014136962858,-7.527426109761016,-15.676145231598621,-54.20036271686218,5,41.58,2.006031036376953,16.59,41.58,0,0,1,0,1,0
1767631118.7216582,20260105123838.721604,18.189087799450665,-64.95872188714551,1.521715021921281,0.35966465025191185,-0.21838381713467803,0.32098209983375625,0.3827014136962858,-7.640587016844764,-16.495664064645773,-54.57864263401885,5,41.58,2.813915729522705,16.59,41.58,0,0,1,0,1,0
1767631118.802355,20260105123838.802301,18.189088052354894,-64.95872207160616,1.5580869227374654,0.35966465025191185,-0.22111620053095143,0.31910597904576476,0.293683499921743,-7.9065555319994845,-17.289863377386336,-55.06780388180871,5,41.58,2.813915729522705,16.59,41.58,0,0,1,0,1,0
1767631118.930803,20260105123838.930749,18.189088370335575,-64.95872230909725,1.5580869227374654,0.35966465025191185,-0.22465950868178225,0.3166213908738009,0.293683499921743,-8.267967437195791,-18.026943505221613,-55.706488269278026,5,41.58,2.813915729522705,16.59,41.58,0,0,1,0,1,0
1767631119.0263488,20260105123839.026294,18.189088689989198,-64.95872255494854,1.616254442642989,0.35966465025191185,-0.2290439833469846,0.3134642781762321,0.33981202743261496,-8.607592738696946,-18.71973325554729,-56.50386532866619,5,41.58,1.9572712182998657,16.42,41.58,0,0,1,0,1,0
1767631119.100121,20260105123839.100067,18.189088895927846,-64.95872272475215,1.6510164668131002,0.35966465025191185,-0.2394056046989092,0.30562388067484125,0.2582572715383563,-9.277023233708755,-19.871718495512013,-58.42159530311486,5,41.58,1.9572712182998657,16.42,41.58,0,0,1,0,1,0
1767631119.2132475,20260105123839.213193,18.189089185926633,-64.95872296386626,1.6510164668131002,0.35966465025191185,-0.2394056046989092,0.30562388067484125,0.2582572715383563,-9.277023233708755,-19.871718495512013,-58.42159530311486,5,41.58,1.9819080829620361,16.42,41.58,0,0,1,0,1,0
1767631119.3063197,20260105123839.306265,18.189089441871758,-64.95872318300817,1.6510164668131002,0.35966465025191185,-0.24498117265647873,0.30117308153926464,0.2582572715383563,-9.51845513927044,-20.28770619301201,-59.47449324581284,5,41.58,1.9819080829620361,16.42,41.58,0,0,1,0,1,0
1767631119.4027288,20260105123839.402674,18.189089708482495,-64.9587234203039,1.7144452105080252,0.35966465025191185,-0.2506722207308947,0.2964530953689667,0.23628403554557514,-9.784696862089643,-20.579532959836726,-60.56568807288071,5,41.58,1.9819080829620361,16.42,41.58,0,0,1,0,1,0
1767631119.517542,20260105123839.517487,18.189090006516828,-64.95872369636649,1.7144452105080252,0.35966465025191185,-0.25647312394642746,0.29144902932272815,0.23628403554557514,-10.088572940692314,-20.74135727460981,-61.696340916892474,5,41.58,2.5766122341156006,16.42,41.58,0,0,1,0,1,0
1767631119.6282952,20260105123839.628241,18.189090006892762,-64.95872364099283,1.7512798566254382,0.35966465025191185,0.05188316235993575,0.00037076074838924417,0.2656254847133474,-10.328080439767248,-20.78137195217014,-62.85664362269301,5,43.22,2.4738616943359375,16.45,43.22,0,0,1,0,1,0
1767631119.74003,20260105123839.739976,18.18909000930788,-64.95872358777284,1.7512798566254382,0.35966465025191185,0.05182539693045558,0.0024755268127662038,0.2656254847133474,-10.533925339481245,-20.56610309557915,-65.18196186650654,5,43.22,3.267793893814087,16.45,43.22,0,0,1,0,1,0
1767631119.8035467,20260105123839.803492,18.189090011336358,-64.95872355588455,1.8185149331424557,0.35966465025191185,0.051768569262943875,0.0034663001121920355,0.26876874011930196,-10.36554660208227,-20.335543147516262,-66.27788318617007,5,43.22,3.267793893814087,16.45,43.22,0,0,1,0,1,0
1767631119.9142685,20260105123839.914214,18.189090014838882,-64.9587235008236,1.8185149331424557,0.35966465025191185,0.051768569262943875,0.0034663001121920355,0.26876874011930196,-10.36554660208227,-20.335543147516262,-66.27788318617007,5,43.22,2.0159802436828613,16.45,43.22,0,0,1,0,1,0
1767631120.0296717,20260105123840.029617,18.18909001925335,-64.95872344629237,1.859678030480288,0.35966465025191185,0.05169714336471525,0.0044051524296075395,0.25006059290709315,-10.019863774395,-20.033512074422845,-67.31766374587676,5,43.22,3.503924608230591,16.45,43.22,0,0,1,0,1,0
1767631120.100789,20260105123840.100735,18.18909002336875,-64.95872340911104,1.859678030480288,0.35966465025191185,0.05153590005815053,0.00600424892857717,0.25006059290709315,-9.268240461069357,-19.352649546200045,-69.09256416842598,5,43.22,3.503924608230591,16.45,43.22,0,0,1,0,1,0
1767631120.2134852,20260105123840.213431,18.189090147814845,-64.95872353935208,1.8754879523009182,0.35966465025191185,-0.1252828447503448,0.12600479677877743,0.2194527271440192,-9.268240461069357,-19.352649546200045,-69.09256416842598,5,44.82,3.503924608230591,16.53,44.82,0,0,1,0,1,0
1767631120.3473713,20260105123840.347317,18.189090269856464,-64.95872367025436,1.8754879523009182,0.35966465025191185,-0.12682154275461072,0.12445600143560959,0.2194527271440192,-8.955394633331906,-18.975269506788262,-69.79654518770835,5,44.82,1.9853755235671997,16.53,44.82,0,0,1,0,1,0
1767631120.409781,20260105123840.409727,18.189090367794442,-64.95872377744003,1.9274879523009179,0.35966465025191185,-0.1280677792577429,0.1231732272695249,0.27047849327318846,-8.644506509265312,-18.5846815843463,-70.37324217120072,5,44.82,2.0538814067840576,16.53,44.82,0,0,1,0,1,0
1767631120.5010378,20260105123840.500983,18.189090469651585,-64.95872389070256,1.9274879523009179,0.35966465025191185,-0.12904241848782289,0.12215176720299051,0.27047849327318846,-8.39308288714887,-18.188363131141667,-70.8284949327316,5,44.82,2.0538814067840576,16.53,44.82,0,0,1,0,1,0
1767631120.6038485,20260105123840.603794,18.18909057883266,-64.95872401352753,1.9495948985178053,0.35966465025191185,-0.12974836353859706,0.12140165632748204,0.2371281225048772,-8.13284575653077,-17.758931909000882,-71.1606403206434,5,44.82,2.0538814067840576,16.53,44.82,0,0,1,0,1,0
1767631120.719345,20260105123840.719291,18.189090702314875,-64.95872415345296,1.9495948985178053,0.35966465025191185,-0.13018711242133518,0.12093103720465906,0.2371281225048772,-7.88507884824873,-17.30566673322917,-71.36811080596112,5,44.82,3.2777044773101807,16.53,44.82,0,0,1,0,1,0
1767631120.8248105,20260105123840.824756,18.189090859146855,-64.9587245011039,1.9962881720858996,0.35966465025191185,-0.3329997972252277,0.15812379658975184,0.2200557217021814,-7.617572686207301,-16.836692116749294,-71.45460152234692,5,43.69,2.87439227104187,16.62,43.69,0,0,1,0,1,0
1767631120.938448,20260105123840.938393,18.189091019064005,-64.95872485338352,1.9962881720858996,0.35966465025191185,-0.3326148448739618,0.158931950750849,0.2200557217021814,-6.762350307168078,-15.873326033252491,-71.31547051920553,5,43.69,2.9920496940612793,16.62,43.69,0,0,1,0,1,0
1767631121.055148,20260105123841.055093,18.18909118440129,-64.95872521466552,2.030318505098895,0.35966465025191185,-0.33211124616178866,0.1599816244850133,0.24211800541730133,-6.251293599504243,-15.382003029817353,-71.13451825282237,5,43.69,2.905456304550171,16.62,43.69,0,0,1,0,1,0
1767631121.16753,20260105123841.167476,18.189091344689228,-64.95872556121506,2.0850598571479817,0.35966465025191185,-0.33144205464663296,0.1613634543867301,0.2889093472787945,-5.712234813778111,-14.899082869613176,-70.8958850182738,5,43.69,2.896439790725708,16.62,43.69,0,0,1,0,1,0
1767631121.2147965,20260105123841.214742,18.18909140177415,-64.95872568301509,2.0850598571479817,0.35966465025191185,-0.3305949735273172,0.16309188661142052,0.2889093472787945,-5.213409698630879,-14.444986118012674,-70.59671238037008,5,43.69,2.896439790725708,16.62,43.69,0,0,1,0,1,0
1767631121.303047,20260105123841.302992,18.189091550807586,-64.9587260010023,2.0850598571479817,0.35966465025191185,-0.3305949735273172,0.16309188661142052,0.2889093472787945,-5.213409698630879,-14.444986118012674,-70.59671238037008,5,43.69,2.415903329849243,16.62,43.69,0,0,1,0,1,0
1767631121.4401987,20260105123841.440144,18.189091678047383,-64.95872642300158,2.106711531629498,0.35966465025191185,-0.4530700616146289,0.14379332136269873,0.21122526455571475,-4.732908706918369,-14.019481402274975,-70.22169387970825,5,42.56,2.415903329849243,16.62,42.56,0,0,1,0,1,0
1767631121.5124242,20260105123841.512370,18.18909182231549,-64.95872688888643,2.106711531629498,0.35966465025191185,-0.45193876196926286,0.1473104050285991,0.21122526455571475,-4.290801929806182,-13.632912193822868,-69.77636538658997,5,42.56,2.415903329849243,16.56,42.56,0,0,1,0,1,0
1767631121.6153588,20260105123841.615304,18.18909196527182,-64.9587273373966,2.147907839499567,0.35966465025191185,-0.4506541506585499,0.15119469730853985,0.22862023265542744,-3.984387154358634,-13.300869258785252,-69.28322555218598,5,42.56,2.415903329849243,16.56,42.56,0,0,1,0,1,0
1767631121.6998663,20260105123841.699812,18.18909208537042,-64.95872770293815,2.147907839499567,0.35966465025191185,-0.4492354443126018,0.15535931118944632,0.22862023265542744,-3.716717067718517,-12.99737823223472,-68.75290898483655,5,42.56,2.415903329849243,16.56,42.56,0,0,1,0,1,0
1767631121.8071578,20260105123841.807103,18.189092229024727,-64.958728126716,2.1941324860158127,0.35966465025191185,-0.4476950194701613,0.15974407513773983,0.2319176281611237,-3.4533935442656394,-12.731244938707356,-68.19271715937514,5,42.56,2.415903329849243,16.56,42.56,0,0,1,0,1,0
1767631121.9169133,20260105123841.916859,18.189092389727268,-64.95872858638393,2.1941324860158127,0.35966465025191185,-0.44609466768385525,0.16416012750979062,0.2319176281611237,-3.232782197172951,-12.52417743469477,-67.62654550115725,5,42.56,2.502981185913086,16.56,42.56,0,0,1,0,1,0
1767631122.0250578,20260105123842.025003,18.189092560829657,-64.95872906095146,2.2183605308364345,0.35966465025191185,-0.44441356262937487,0.16865819088045103,0.2252099855224044,-2.9556911418646683,-12.390245914918191,-67.04773457336088,5,42.56,2.7108662128448486,16.45,42.56,0,0,1,0,1,0
1767631122.1327183,20260105123842.132664,18.189092673935136,-64.95872951430431,2.2183605308364345,0.35966465025191185,-0.4581255526720051,0.12030784674729189,0.2252099855224044,-2.5306282541468845,-12.337585137587787,-66.4201629076447,5,41.78,2.6832120418548584,16.45,41.78,0,0,1,0,1,0
